facility_name,facility_type,health_authority,alternative_name,number_beds,address_str,unit,street_no,street_name,street_addr,city,province,postal_code,provider,latitude,longitude,phone,email,website
Centre Le Cardinal inc.,,RLS de Rivière-des-Prairies - Anjou - Montréal-Est,Centre Le Cardinal inc.,,,,12900,rue notre-dame est,"12900, rue Notre-Dame Est",Montréal,QC,H1A1R9,Province of Quebec,45.6524505615,-73.4883346558,,,
Groupe Roy santé Inc.,,RLS de Côte-des-Neiges - Métro - Parc-Extension,Groupe Roy santé Inc.,,,,3550,rue saint-urbain,"3550, rue Saint-Urbain",Montréal,QC,H2X4C5,Province of Quebec,45.5122146606,-73.5729370117,,,
Centre régional de santé et de services sociaux de la Baie-James,,,CRSSS de la Baie-James,,,,312,3e rue,"312, 3e Rue",Jamésie,QC,G8P1N5,Province of Quebec,49.913394928,-74.3570785522,,,
Centre hospitalier de l'Université de Montréal,,RLS des Faubourgs - Plateau-Mont-Royal - St-Louis-du-Parc,CHUM,,,,850,rue saint-denis,"850, rue Saint-Denis",Montréal,QC,H2X0A9,Province of Quebec,45.5108375549,-73.5559463501,,,
CHSLD Résidence Bourg-Joli Inc.,,RLS de Richelieu-Yamaska,CHSLD Résidence Bourg-Joli Inc.,,,,2915,boulevard laframboise,"2915, boulevard Laframboise",Les Maskoutains,QC,J2S4Z3,Province of Quebec,45.6335144043,-72.964225769,,,
Conseil de la nation atikamekw,,,Conseil de la nation atikamekw,,,,,,wemotaci,La Tuque,QC,G0X3R0,Province of Quebec,47.9025650024,-73.7873306274,,,
Le CHSLD des Premières Nations du Timiskaming,,,Le CHSLD des Premières Nations du Timiskaming,,,,20,avenue algonquin,"20, avenue Algonquin",Témiscamingue,QC,J0Z3B0,Province of Quebec,47.6070137024,-79.4703979492,,,
CHSLD de la Côte Boisée Inc.,,RLS de Lanaudière-Sud,CHSLD de la Côte Boisée Inc.,,,,4300,rue d'angora,"4300, rue d'Angora",Les Moulins,QC,J6X4P1,Province of Quebec,45.7127571106,-73.6615905762,,,
CLSC Naskapi,,RLS de Kawawachikamach,CLSC Naskapi,,,,,,Case postale 5154,Caniapiscau,QC,G0G2Z0,Province of Quebec,54.8612480164,-66.764251709,,,
Centre d'hébergement de la Marée Inc.,,RLS de Rivière-des-Prairies - Anjou - Montréal-Est,Centre d'hébergement de la Marée Inc.,,,,7015,boulevard gouin est,"7015, boulevard Gouin Est",Montréal,QC,H1E5N2,Province of Quebec,45.6300621033,-73.6190414429,,,
Prodimax Inc.,,RLS de Laval,Prodimax Inc.,,,,1050,15e avenue,"1050, 15e avenue",Laval,QC,H7R4N9,Province of Quebec,45.5621910095,-73.8588943481,,,
Santé Courville inc.,,RLS de Laval,Santé Courville inc.,,,,5200,80e rue,"5200, 80e Rue",Laval,QC,H7R5T6,Province of Quebec,45.5432891846,-73.8550033569,,,
Centre intégré de santé et de services sociaux des Îles,,RLS des Îles-de-la-Madeleine,CISSS des Îles,,,,430,chemin principal,"430, chemin Principal (Cap-aux-Meules)",Communauté maritime des Îles-de-la-Madeleine,QC,G4T1R9,Province of Quebec,47.3755760193,-61.8687705994,,,
Centre d'hébergement de la Villa-les-Tilleuls Inc.,,RLS de Laval,Centre d'hébergement de la Villa-les-Tilleuls Inc.,,,,5590,boulevard des laurentides,"5590, boulevard des Laurentides",Laval,QC,H7K2K2,Province of Quebec,45.6267585754,-73.752243042,,,
"Centre d'hébergement et de soins de longue durée du Manoir-de-l'Ouest-de-l'Île, S.E.C.",,RLS de Pierrefonds - Lac Saint-Louis,"CHSLD du Manoir-de-l'Ouest-de-l'Île, S.E.C.",,,,17725,boulevard de pierrefonds,"17725, boulevard de Pierrefonds",Montréal,QC,H9J3L1,Province of Quebec,45.462852478,-73.8856124878,,,
Groupe Champlain Inc,,RLS de Rivière-des-Prairies - Anjou - Montréal-Est,Groupe Champlain Inc.,,,,7150,rue marie-victorin,"7150, rue Marie-Victorin",Montréal,QC,H1G2J5,Province of Quebec,45.6160697937,-73.6037445068,,,
Centre d'hébergement et de soins de longue durée des Floralies-de-Lachine Inc.,,RLS de Dorval - Lachine - Lasalle,CHSLD des Floralies-de-Lachine Inc.,,,,650,32e avenue,"650, 32e Avenue",Montréal,QC,H8T3K4,Province of Quebec,45.4408454895,-73.6918411255,,,
Centre d'hébergement et de soins de longue durée des Floralies-de-Lasalle Inc.,,RLS de Dorval - Lachine - Lasalle,CHSLD des Floralies-de-Lasalle Inc.,,,,8200,rue georges,"8200, rue Georges",Montréal,QC,H8P3T6,Province of Quebec,45.4241905212,-73.6090316772,,,
Centre d'hébergement et de soins de longue durée Côte-Jardin Inc.,,RLS de Québec-Sud,CHSLD Côte-Jardin Inc.,,,,880,avenue painchaud,"880, avenue Painchaud",Québec,QC,G1S0A3,Province of Quebec,46.7881507874,-71.2610244751,,,
Centre d'hébergement et de soins de longue durée du Château-sur-le-Lac-de-Sainte-Geneviève inc.,,RLS de Pierrefonds - Lac Saint-Louis,CHSLD du Château-sur-le-Lac-de-Sainte-Geneviève inc.,,,,16289,boulevard gouin ouest,"16289, boulevard Gouin Ouest",Montréal,QC,H9H1E2,Province of Quebec,45.4779891968,-73.8744659424,,,
Vigi Santé Ltée,,RLS de Pierrefonds - Lac Saint-Louis,Vigi Santé Ltée,,,,197,rue thornhill,"197, rue Thornhill",Montréal,QC,H9B3H8,Province of Quebec,45.4802017212,-73.816116333,,,
Centre d'hébergement et de soins de longue durée Providence - Saint-Joseph inc.,,RLS de Hochelaga - Mercier-Ouest - Rosemont,CHSLD Providence - Saint-Joseph inc.,,,,5605,rue beaubien est,"5605, rue Beaubien Est",Montréal,QC,H1T1X4,Province of Quebec,45.5789260864,-73.5674591064,,,
Maison des ainées de St-Timothée Inc.,,RLS du Suroît,Maison des ainées de St-Timothée Inc.,,,,1,rue des aînés,"1, rue des Aînés",Beauharnois-Salaberry,QC,J6S6M8,Province of Quebec,45.2893562317,-74.0367050171,,,
CHSLD Domaine Saint-Dominique S.E.C.,,RLS de Québec-Sud,CHSLD Domaine Saint-Dominique S.E.C.,,,,1045,boulevard rené-lévesque ouest,"1045, boulevard René-Lévesque Ouest",Québec,QC,G1S1V3,Province of Quebec,46.7950134277,-71.2416000366,,,
Centre d'hébergement et de soins de longue durée de Saint-Lambert-sur-le-Golf Inc.,,RLS Pierre-Boucher,CHSLD de Saint-Lambert-sur-le-Golf Inc.,,,,549,rue de verrazano,"549, rue de Verrazano",Longueuil,QC,J4B7W2,Province of Quebec,45.6024894714,-73.4443664551,,,
Centre d'hébergement et de soins de longue durée Wales Inc.,,RLS de Val Saint-François,CHSLD Wales Inc.,,,,506,route 243,"506, Route 243",Le Val-Saint-François,QC,J0B2H0,Province of Quebec,45.6754226685,-72.1738052368,,,
CHSLD Age3 Inc.,,RLS de Laval,CHSLD Age3 Inc.,,,,4410,boulevard saint-martin ouest,"4410, boulevard Saint-Martin Ouest",Laval,QC,H7T1C3,Province of Quebec,45.547000885,-73.7676696777,,,
Centre d'hébergement et de soins de longue durée du Boisé Sainte-Thérèse Inc.,,RLS de Thérèse-De Blainville,CHSLD Boisé Ste-Thérèse,,,,179,place fabien-drapeau,"179, place Fabien-Drapeau",Thérèse-De Blainville,QC,J7E5W6,Province of Quebec,45.6491622925,-73.840927124,,,
Centre de réadaptation en dépendance du Nouveau Départ Inc.,,RLS de Côte-des-Neiges - Métro - Parc-Extension,Centre de réadapt. en dépendance du Nouveau Départ Inc.,,,,1110,avenue beaumont,"1110, avenue Beaumont",Montréal,QC,H3P3E5,Province of Quebec,45.5223045349,-73.6224365234,,,
Centre d'hébergement et de soins de longue durée de Sainte-Catherine S.E.C.,,RLS de Jardins-Roussillon,CHSLD de Sainte-Catherine S.E.C.,,,,3065,boulevard marie-victorin,"3065, boulevard Marie-Victorin",Roussillon,QC,J5C1Z3,Province of Quebec,45.4003067017,-73.5433731079,,,
Centre d'hébergement et de soins de longue durée Angus Inc.,,RLS de Hochelaga - Mercier-Ouest - Rosemont,CHSLD Angus Inc.,,,,3200,rue omer-lavallée,"3200, rue Omer-Lavallée",Montréal,QC,H1Y3P5,Province of Quebec,45.5465431213,-73.5606231689,,,
CHU de Québec – Université Laval,,RLS de Québec-Sud,CHU de Québec – UL,,,,11,côte du palais,"11, côte du Palais",Québec,QC,G1R2J6,Province of Quebec,46.8153915405,-71.2109909058,,,
Centre d'hébergement et de soins de longue durée Argyle Inc.,,RLS de Champlain,CHSLD Argyle Inc.,,,,33,avenue argyle,"33, avenue Argyle",Longueuil,QC,J4P3P5,Province of Quebec,45.5015411377,-73.5147018433,,,
Centre d'hébergement et de soins de longue durée du Groupe-Santé-Arbec Inc.,,RLS de Lanaudière-Nord,CHSLD Groupe-Santé-Arbec Inc.,,,,3931,rue lakeshore drive,"3931, rue Lakeshore Drive",Matawinie,QC,J0K1S0,Province of Quebec,46.0508613586,-73.7022247314,,,
Centre d'hébergement et de soins de longue durée de Saint-Jean-sur-Richelieu S.E.C.,,RLS du Haut-Richelieu - Rouville,CHSLD de Saint-Jean-sur-Richelieu S.E.C.,,,,40,rue labrèche,"40, rue Labrèche",Le Haut-Richelieu,QC,J3B0J3,Province of Quebec,45.311580658,-73.2614974976,,,
Centre d'hébergement et de soins de longue durée Valeo Inc.,,RLS de Champlain,CHSLD Valeo Inc.,,,,700,rue docteur-chevrier,"700, rue Docteur-Chevrier",Longueuil,QC,J4P0A4,Province of Quebec,45.5095596313,-73.501701355,,,
Centre intégré de santé et de services sociaux du Bas-Saint-Laurent,,RLS de Rimouski,CISSS du Bas-Saint-Laurent,,,,355,boulevard saint-germain ouest,"355, boulevard Saint-Germain Ouest",Rimouski-Neigette,QC,G5L3N2,Province of Quebec,48.4433555603,-68.5404815674,,,
Centre intégré universitaire de santé et de services sociaux du Saguenay – Lac-Saint-Jean,,RLS de Chicoutimi,CIUSSS du Saguenay – Lac-Saint-Jean,,,,930,rue jacques-cartier est,"930, rue Jacques-Cartier Est",Saguenay,QC,G7H7K9,Province of Quebec,48.4213104248,-71.0400390625,,,
Centre intégré universitaire de santé et de services sociaux de la Capitale-Nationale,,RLS de Québec-Nord,CIUSSS de la Capitale-Nationale,,,,2915,avenue du bourg-royal,"2915, avenue du Bourg-Royal",Québec,QC,G1C3S2,Province of Quebec,46.8566360474,-71.2197647095,,,
Centre intégré universitaire de santé et de services sociaux de la Mauricie-et-du-Centre-du-Québec,,RLS de Trois-Rivières,CIUSSS de la Mauricie-et-du-Centre-du-Québec,,,,858,terrasse turcotte,"858, terrasse Turcotte",Trois-Rivières,QC,G9A5C5,Province of Quebec,46.3427963257,-72.5371017456,,,
Centre intégré universitaire de santé et de services sociaux de l'Estrie – Centre hospitalier universitaire de Sherbrooke,,RLS de Sherbrooke,CIUSSS de l'Estrie – CHUS,,,,375,rue argyll,"375, rue Argyll",Sherbrooke,QC,J1J3H5,Province of Quebec,45.4042434692,-71.9150848389,,,
Centre intégré universitaire de santé et de services sociaux de l'Ouest-de-l'Île-de-Montréal,,RLS de Pierrefonds - Lac Saint-Louis,CIUSSS de l'Ouest-de-l'Île-de-Montréal,,,,2400,boulevard des sources,"2400, boulevard des Sources, 2e étage",Montréal,QC,H9R0E9,Province of Quebec,45.448551178,-73.8336715698,,,
Centre intégré universitaire de santé et de services sociaux du Centre-Ouest-de-l'Île-de-Montréal,,RLS de Côte-des-Neiges - Métro - Parc-Extension,CIUSSS du Centre-Ouest-de-l'Île-de-Montréal,,,,3755,chemin de la côte-sainte-catherin,"3755, chemin de la Côte-Sainte-Catherin",Montréal,QC,H3T1E2,Province of Quebec,45.4978103638,-73.6288070679,,,
Centre intégré universitaire de santé et de services sociaux du Centre-Sud-de-l'Île-de-Montréal,,RLS des Faubourgs - Plateau-Mont-Royal - St-Louis-du-Parc,CIUSSS du Centre-Sud-de-l'Île-de-Montréal,,,,1560,rue sherbrooke est,"1560, rue Sherbrooke Est",Montréal,QC,H2L4M1,Province of Quebec,45.5253562927,-73.5635604858,,,
Centre intégré universitaire de santé et de services sociaux du Nord-de-l'Île-de-Montréal,,RLS d'Ahuntsic - Montréal-Nord,CIUSSS du Nord-de-l'Île-de-Montréal,,,,555,boulevard gouin ouest,"555, boulevard Gouin Ouest",Montréal,QC,H3L1K5,Province of Quebec,45.5475997925,-73.6876525879,,,
Centre intégré universitaire de santé et de services sociaux de l'Est-de-l'Île-de-Montréal,,RLS de Hochelaga - Mercier-Ouest - Rosemont,CIUSSS de l'Est-de-l'Île-de-Montréal,,,,5415,boulevard de l'assomption,"5415, boulevard de l'Assomption",Montréal,QC,H1T2M4,Province of Quebec,45.5742149353,-73.5584640503,,,
Centre intégré de santé et de services sociaux de l'Outaouais,,RLS de Grande-Rivière - Hull - Gatineau,CISSS de l'Outaouais,,,,80,avenue gatineau,"80, avenue Gatineau",Gatineau,QC,J8T4J3,Province of Quebec,45.4801902771,-75.7229309082,,,
Centre intégré de santé et de services sociaux de l'Abitibi-Témiscamingue,,RLS de Rouyn-Noranda,CISSS de l'Abitibi-Témiscamingue,,,,1,9e rue,"1, 9e Rue",Rouyn-Noranda,QC,J9X2A9,Province of Quebec,48.2433586121,-79.0210037231,,,
Centre intégré de santé et de services sociaux de la Côte-Nord,,RLS de la Haute-Côte-Nord - Manicouagan,CISSS de la Côte-Nord,,,,835,boulevard jolliet,"835, boulevard Jolliet",Manicouagan,QC,G5C1P5,Province of Quebec,49.1904411316,-68.2569503784,,,
Centre intégré de santé et de services sociaux de la Gaspésie,,RLS de La Côte-de-Gaspé,CISSS de la Gaspésie,,,,215,boulevard de york ouest,"215, boulevard de York Ouest",La Côte-de-Gaspé,QC,G4X2W2,Province of Quebec,48.8129425049,-64.4966506958,,,
Centre intégré de santé et de services sociaux de Laval,,RLS de Laval,CISSS de Laval,,,,1755,boulevard rené-laennec,"1755, boulevard René-Laennec",Laval,QC,H7M3L9,Province of Quebec,45.6033210754,-73.7108230591,,,
Centre intégré de santé et de services sociaux de Lanaudière,,RLS de Lanaudière-Nord,CISSS de Lanaudière,,,,260,rue lavaltrie sud,"260, rue Lavaltrie Sud",Joliette,QC,J6E5X7,Province of Quebec,46.0181846619,-73.4410705566,,,
Centre intégré de santé et de services sociaux des Laurentides,,RLS de la Rivière-du-Nord - Mirabel-Nord,CISSS des Laurentides,,,,290,rue de montigny,"290, rue de Montigny",La Rivière-du-Nord,QC,J7Z5T3,Province of Quebec,45.7655715942,-74.0001907349,,,
Centre intégré de santé et de services sociaux de la Montérégie-Centre,,RLS de Champlain,CISSS de la Montérégie-Centre,,,Bureau 220,3141,boulevard taschereau,"3141, boulevard Taschereau, bureau 220",Longueuil,QC,J4V2H2,Province of Quebec,45.4977531433,-73.4842071533,,,
Centre intégré de santé et de services sociaux de la Montérégie-Est,,RLS de Richelieu-Yamaska,CISSS de la Montérégie-Est,,,,2750,boulevard laframboise,"2750, boulevard Laframboise",Les Maskoutains,QC,J2S4Y8,Province of Quebec,45.6348342896,-72.9594726563,,,
Centre intégré de santé et de services sociaux de la Montérégie-Ouest,,RLS de Jardins-Roussillon,CISSS de la Montérégie-Ouest,,,,200,boulevard brisebois,"200, boulevard Brisebois",Roussillon,QC,J6K4W8,Province of Quebec,45.3456611633,-73.7634429932,,,
Centre intégré de santé et de services sociaux de Chaudière-Appalaches,,RLS Alphonse-Desjardins,CISSS de Chaudière-Appalaches,,,,363,route cameron,"363, route Cameron",La Nouvelle-Beauce,QC,G6E3E2,Province of Quebec,46.4648017883,-71.0452041626,,,
Centre d'hébergement et de soins de longue durée Waldorf S.E.C.,,RLS de Côte-Saint-Luc - NDG - Montréal-Ouest,CHSLD Waldorf S.E.C.,,,,7400,chemin de la côte-saint-luc,"7400, chemin de la Côte-Saint-luc",Montréal,QC,H4W3J4,Province of Quebec,45.4606971741,-73.6583023071,,,
Centre d'hébergement et de soins de longue durée de la Villa-de-Val-des-Arbres Inc.,,RLS de Laval,CHSLD de la Villa-de-Val-des-Arbres inc.,,,,3245,boulevard saint-martin est,"3245, boulevard Saint-Martin Est",Laval,QC,H7E4T6,Province of Quebec,45.6056098938,-73.6773605347,,,
Centre d'hébergement et de soins de longue durée au Cœur-de-la-Vie inc.,,RLS de la Rivière-du-Nord - Mirabel-Nord,CHSLD au Cœur-de-la-Vie inc.,,,,325,rue barrette,"325, rue Barrette, 1er étage",La Rivière-du-Nord,QC,J7Y0J8,Province of Quebec,45.7774887085,-74.0143737793,,,
Centre d'hébergement et de soins de longue durée Louise-Faubert Inc.,,RLS de Lanaudière-Sud,CHSLD Louise-Faubert Inc.,,,,751,rue marcel-de la sablonnière,"751, rue Marcel-De La Sablonnière",Les Moulins,QC,J6Y0M4,Province of Quebec,45.6871833801,-73.7286453247,,,
Centre d'hébergement et de soins de longue durée Marguerite-Rocheleau inc.,,RLS de Lanaudière-Sud,CHSLD Marguerite-Rocheleau inc.,,,,751,rue marcel-de la sablonnière,"751, rue Marcel-De La Sablonnière",Les Moulins,QC,J6Y0M4,Province of Quebec,45.6871833801,-73.7286453247,,,
Centre d'hébergement et de soins de longue durée Michèle-Bohec inc.,,RLS de Lanaudière-Sud,CHSLD Michèle-Bohec inc.,,,,751,rue marcel-de la sablonnière,"751, rue Marcel-De La Sablonnière",Les Moulins,QC,J6Y0M4,Province of Quebec,45.6871833801,-73.7286453247,,,
Centre d'hébergement et de soins de longue durée L.-B.-Desjardins Inc.,,RLS des Pays-d'en-Haut,CHSLD L.-B.-Desjardins Inc.,,,,55,avenue hochar,"55, avenue Hochar",Les Pays-d'en-Haut,QC,J0R1R6,Province of Quebec,45.8891906738,-74.1569900513,,,
Centre d'hébergement et de soins de longue durée des Patriotes Inc.,,RLS de Laval,CHSLD des Patriotes Inc.,,,,3245,boulevard saint-martin est,"3245, boulevard Saint-Martin Est",Laval,QC,H7E4T6,Province of Quebec,45.6056098938,-73.6773605347,,,
Centre d'hébergement et de soins de longue durée des Îles-de-la-Madeleine inc.,,RLS des Îles-de-la-Madeleine,Centre d'hébergement et de soins de longue durée des Îl,,,,596,chemin principal,"596, chemin Principal",Communauté maritime des Îles-de-la-Madeleine,QC,G4T1G1,Province of Quebec,47.3731307983,-61.8730888367,,,
Centre d'hébergement et de soins de longue durée de Laval S.E.C.,,RLS de Laval,CHSLD de Laval S.E.C.,,,,2805,boulevard chomedey,"2805, boulevard Chomedey",Laval,QC,H7P0C2,Province of Quebec,45.5708618164,-73.7665557861,,,
Centre d'hébergement et de soins de longue durée de Granby S.E.C.,,RLS de la Haute-Yamaska,CHSLD de Granby S.E.C.,,,,80,rue godue,"80, rue Godue",La Haute-Yamaska,QC,J2J2Z7,Province of Quebec,45.4074707031,-72.7621536255,,,
Centre de soins prolongés Grace Dart,,RLS de Hochelaga - Mercier-Ouest - Rosemont,Centre de soins prolongés Grace Dart,,,,5155,rue sainte-catherine est,"5155, rue Sainte-Catherine Est",Montréal,QC,H1V2A5,Province of Quebec,45.5594596863,-73.5289077759,,,
Hôpital juif de réadaptation,,RLS de Laval,Hôpital juif de réadaptation,,,,3205,place alton-goldbloom,"3205, place Alton-Goldbloom",Laval,QC,H7V1R2,Province of Quebec,45.5487289429,-73.7376403809,,,
Centre de réadaptation Lethbridge-Layton-Mackay,,RLS de Côte-Saint-Luc - NDG - Montréal-Ouest,Centre de réadaptation Lethbridge-Layton-Mackay,,,,7005,boulevard de maisonneuve ouest,"7005, boulevard De Maisonneuve Ouest",Montréal,QC,H4B1T3,Province of Quebec,45.4583435059,-73.6341323853,,,
CHSLD Providence Notre-Dame de Lourdes inc.,,RLS de Hochelaga - Mercier-Ouest - Rosemont,CHSLD Providence Notre-Dame de Lourdes inc.,,,,1870,boulevard pie-ix,"1870, boulevard Pie-IX",Montréal,QC,H1V2C6,Province of Quebec,45.549785614,-73.5406951904,,,
Atelier le fil d'Ariane Inc.,,RLS des Faubourgs - Plateau-Mont-Royal - St-Louis-du-Parc,Atelier le fil d'Ariane Inc.,,,App. 100,4837,rue boyer,"4837, rue Boyer, app. 100",Montréal,QC,H2J3E6,Province of Quebec,45.5294494629,-73.5838394165,,,
Résidence Angelica,,RLS d'Ahuntsic - Montréal-Nord,Résidence Angelica,,,,3435,boulevard gouin est,"3435, boulevard Gouin Est",Montréal,QC,H1H1B1,Province of Quebec,45.5899391174,-73.6513366699,,,
Centre de santé et de services sociaux du Haut-Saint-Laurent,,RLS du Haut-Saint-Laurent,CSSS du Haut-Saint-Laurent,,,,28,rue gale,"28, rue Gale",Le Haut-Saint-Laurent,QC,J0S1K0,Province of Quebec,45.1263427734,-73.9998703003,,,
CHSLD Bayview Inc.,,RLS de Pierrefonds - Lac Saint-Louis,CHSLD Bayview Inc.,,,,27,chemin lakeshore,"27, chemin Lakeshore",Montréal,QC,H9S4H1,Province of Quebec,45.4486465454,-73.786567688,,,
Résidence Berthiaume-Du Tremblay,,RLS d'Ahuntsic - Montréal-Nord,Résidence Berthiaume-Du Tremblay,,,,1635,boulevard gouin est,"1635, boulevard Gouin Est",Montréal,QC,H2C1C2,Province of Quebec,45.5674171448,-73.6630554199,,,
La corporation Notre-Dame de Bon-Secours,,RLS de Québec-Sud,La corporation Notre-Dame de Bon-Secours,,,,990,rue gérard-morisset,"990, rue Gérard-Morisset",Québec,QC,G1S1X6,Province of Quebec,46.788066864,-71.2566070557,,,
Hôpital Jeffery Hale - Saint Brigid's,,RLS de Québec-Sud,Hôpital Jeffery Hale - Saint Brigid's,,,,1250,chemin sainte-foy,"1250, chemin Sainte-Foy",Québec,QC,G1S2M6,Province of Quebec,46.7966499329,-71.2530822754,,,
Hôpital Santa Cabrini,,RLS de Hochelaga - Mercier-Ouest - Rosemont,Hôpital Santa Cabrini,,,,5655,rue saint-zotique est,"5655, rue Saint-Zotique Est",Montréal,QC,H1T1P7,Province of Quebec,45.5801391602,-73.5717163086,,,
Institut de Cardiologie de Montréal,,RLS de Hochelaga - Mercier-Ouest - Rosemont,ICM,,,,5000,rue bélanger,"5000, rue Bélanger",Montréal,QC,H1T1C8,Province of Quebec,45.573764801,-73.5778198242,,,
Hôpital Marie-Clarac des Soeurs de Charité de Ste-Marie (1995) Inc.,,RLS d'Ahuntsic - Montréal-Nord,Hôp. Marie-Clarac des Soeurs de Charité de Ste-Marie,,,,3530,boulevard gouin est,"3530, boulevard Gouin Est",Montréal,QC,H1H1B7,Province of Quebec,45.5908355713,-73.6497421265,,,
Clinique communautaire de Pointe St-Charles,,RLS de Verdun - Côte St-Paul - St-Henri - Pointe-St-Charles,Clinique communautaire de Pointe St-Charles,,,,500,avenue ash,"500, avenue Ash",Montréal,QC,H3K2R4,Province of Quebec,45.4783477783,-73.556892395,,,
Centre de réadaptation en déficience intellectuelle et en troubles envahissants du développement de l'Estrie,,RLS de Sherbrooke,CRDITED de l'Estrie,,,,1621,rue prospect,"1621, rue Prospect",Sherbrooke,QC,J1J1K4,Province of Quebec,45.4101142883,-71.9151916504,,,
Maison Elizabeth,,RLS de Côte-Saint-Luc - NDG - Montréal-Ouest,Maison Elizabeth,,,,2131,avenue de marlowe,"2131, avenue de Marlowe",Montréal,QC,H4A3L4,Province of Quebec,45.4752159119,-73.606880188,,,
Centre Miriam,,RLS de Côte-des-Neiges - Métro - Parc-Extension,Centre Miriam,,,,8160,chemin royden,"8160, chemin Royden",Montréal,QC,H4P2T2,Province of Quebec,45.4963607788,-73.6618652344,,,
Centre universitaire de santé McGill,,RLS de Côte-Saint-Luc - NDG - Montréal-Ouest,CUSM,,,,1001,boulevard décarie,"1001, boulevard Décarie",Montréal,QC,H4A3J1,Province of Quebec,45.4970474243,-73.5890350342,,,
Havre-Jeunesse,,RLS de Verdun - Côte St-Paul - St-Henri - Pointe-St-Charles,Havre-Jeunesse,,,,4360,boulevard lasalle,"4360, boulevard Lasalle",Montréal,QC,H4G2A8,Province of Quebec,45.4601860046,-73.5627212524,,,
Centre d'hébergement et de soins de longue durée Heather Inc.,,RLS de Lanaudière-Nord,CHSLD Heather Inc.,,,,3931,lakeshore drive,"3931, Lakeshore Drive",Matawinie,QC,J0K1S0,Province of Quebec,46.0508613586,-73.7022247314,,,
L'Hôpital général juif Sir Mortimer B. Davis,,RLS de Côte-des-Neiges - Métro - Parc-Extension,L'Hôpital général juif Sir Mortimer B. Davis,,,,3755,chemin de la côte-sainte-catherin,"3755, chemin de la Côte-Sainte-Catherin",Montréal,QC,H3T1E2,Province of Quebec,45.4978103638,-73.6288070679,,,
Centre hospitalier universitaire Sainte-Justine,,RLS de Côte-des-Neiges - Métro - Parc-Extension,CHU Sainte-Justine,,,,3175,chemin de la côte-sainte-catherin,"3175, chemin de la Côte-Sainte-Catherin",Montréal,QC,H3T1C5,Province of Quebec,45.5031547546,-73.6249465942,,,
La résidence de Lachute,,RLS d'Argenteuil,La résidence de Lachute,,,,377,rue principale,"377, rue Principale",Argenteuil,QC,J8H1Y1,Province of Quebec,45.6566467285,-74.339263916,,,
Centre de santé Tulattavik de l'Ungava,,,Centre de santé Tulattavik de l'Ungava,,,,,,Kuujjuaq,Administration régionale Kativik,QC,J0M1C0,Province of Quebec,58.1070480347,-68.4052734375,,,
Centre hospitalier de St. Mary,,RLS de Côte-des-Neiges - Métro - Parc-Extension,Centre hospitalier de St. Mary,,,,3830,avenue lacombe,"3830, avenue Lacombe",Montréal,QC,H3T1M5,Province of Quebec,45.4949417114,-73.6241378784,,,
Institut national de psychiatrie légale Philippe-Pinel,,RLS de Rivière-des-Prairies - Anjou - Montréal-Est,Institut national de psychiatrie légale Philippe-Pinel,,,,10905,boulevard henri-bourassa est,"10905, boulevard Henri-Bourassa Est",Montréal,QC,H1C1H1,Province of Quebec,45.6560554504,-73.5336151123,,,
Résidence Riviera Inc.,,RLS de Laval,Résidence Riviera Inc.,,,,2999,boulevard notre-dame,"2999, boulevard Notre-Dame",Laval,QC,H7V4C4,Province of Quebec,45.5486755371,-73.7343673706,,,
L'Hôpital chinois de Montréal (1963),,RLS des Faubourgs - Plateau-Mont-Royal - St-Louis-du-Parc,L'Hôpital chinois de Montréal (1963),,,,189,avenue viger est,"189, avenue Viger Est",Montréal,QC,H2X3Y9,Province of Quebec,45.5095558167,-73.5581207275,,,
Pavillon Ste-Marie Inc.,,RLS de la Rivière-du-Nord - Mirabel-Nord,Pavillon Ste-Marie Inc.,,,,45,rue du pavillon,"45, rue du Pavillon",La Rivière-du-Nord,QC,J7Y3R6,Province of Quebec,45.8080062866,-74.0083770752,,,
Les cèdres - Centre d'accueil pour personnes agées,,RLS du Nord de l'Île - Saint-Laurent,Les cèdres - Centre d'accueil pour personnes agees,,,,1275,boulevard de la côte-vertu,"1275, boulevard de la Côte-Vertu",Montréal,QC,H4L4V2,Province of Quebec,45.5170021057,-73.6799240112,,,
Centre d'hébergement du Boisé Ltée,,RLS de Québec-Sud,Centre d'hébergement du Boisé Ltée,,,,3690,boulevard neilson,"3690, boulevard Neilson",Québec,QC,G1W0A9,Province of Quebec,46.754032135,-71.321395874,,,
La corporation du Centre hospitalier gériatrique Maimonides,,RLS de Côte-Saint-Luc - NDG - Montréal-Ouest,La corporation du Centre hosp. gériatrique Maimonides,,,,5795,avenue caldwell,"5795, avenue Caldwell",Montréal,QC,H4W1W3,Province of Quebec,45.4715499878,-73.6684265137,,,
Pavillon Bellevue Inc.,,RLS Alphonse-Desjardins,Pavillon Bellevue Inc.,,,,99,rue monseigneur-bourget,"99, rue Monseigneur-Bourget",Lévis,QC,G6V9V2,Province of Quebec,46.819103241,-71.1567382813,,,
Centre métropolitain de chirurgie plastique Inc.,,RLS d'Ahuntsic - Montréal-Nord,Centre métropolitain de chirurgie plastique Inc.,,,,999,rue de salaberry,"999, rue de Salaberry",Montréal,QC,H3L1L2,Province of Quebec,45.5454483032,-73.6929397583,,,
Hôpital Mont-Sinai,,RLS de Côte-Saint-Luc - NDG - Montréal-Ouest,Hôpital Mont-Sinai,,,,5690,boulevard cavendish,"5690, boulevard Cavendish",Montréal,QC,H4W1S7,Province of Quebec,45.4738426208,-73.6573410034,,,
Hôpital Shriners pour enfants (Québec) Inc.,,RLS de Côte-Saint-Luc - NDG - Montréal-Ouest,Hôpital Shriners pour enfants (Québec) Inc.,,,,1003,boulevard décarie,"1003, boulevard Décarie",Montréal,QC,H4A0A9,Province of Quebec,45.4717750549,-73.6019973755,,,
Accueil du Rivage Inc.,,RLS de Richelieu-Yamaska,Accueil du Rivage Inc.,,,,1008,rue du rivage,"1008, rue du Rivage",La Vallée-du-Richelieu,QC,J0L1R0,Province of Quebec,45.7780685425,-73.1733551025,,,
Institut universitaire de cardiologie et de pneumologie de Québec – Université Laval,,RLS de Québec-Sud,IUCPQ – UL,,,,2725,chemin sainte-foy,"2725, chemin Sainte-Foy",Québec,QC,G1V4G5,Province of Quebec,46.7790908813,-71.2976608276,,,
Manoir St-Patrice inc.,,RLS de Laval,Manoir St-Patrice inc.,,,,3615,boulevard perron,"3615, boulevard Perron",Laval,QC,H7V1P4,Province of Quebec,45.5418167114,-73.7410354614,,,
Institut universitaire en santé mentale Douglas,,RLS de Verdun - Côte St-Paul - St-Henri - Pointe-St-Charles,Institut universitaire en santé mentale Douglas,,,,6875,boulevard lasalle,"6875, boulevard Lasalle",Montréal,QC,H4H1R3,Province of Quebec,45.4421348572,-73.5843582153,,,
CHSLD Juif de Montréal,,RLS de Côte-des-Neiges - Métro - Parc-Extension,CHSLD Juif de Montréal,,,,5725,avenue,"5725, avenue Victoria",Montréal,QC,H3W3H6,Province of Quebec,45.4929847717,-73.6337585449,,,
Centre de santé et de services sociaux - Institut universitaire de gériatrie de Sherbrooke,,RLS de Sherbrooke,CSSS- Institut universitaire de gériatrie de Sherbrooke,,,,1036,rue belvédère sud,"1036, rue Belvédère Sud",Sherbrooke,QC,J1H4C4,Province of Quebec,45.3906669617,-71.8951034546,,,
Centre d'accueil Le Programme de Portage Inc.,,RLS de Verdun - Côte St-Paul - St-Henri - Pointe-St-Charles,Centre d'accueil Le Programme de Portage inc.,,,,865,place,"865, place Richmond",Montréal,QC,H3J1V8,Province of Quebec,45.4918365479,-73.5725097656,,,
Conseil cri de la santé et des services sociaux de la Baie James,,,CCSSS de la Baie James,,,,,,Case postale 250,Eeyou Istchee,QC,J0M1E0,Province of Quebec,53.7826538086,-78.8957366943,,,
La Maison Michel Sarrazin,,RLS de Québec-Sud,La Maison Michel Sarrazin,,,,2101,chemin saint-louis,"2101, chemin Saint-Louis",Québec,QC,G1T1P5,Province of Quebec,46.7734794617,-71.2515945435,,,
Villa Belle Rive Inc.,,RLS d'Ahuntsic - Montréal-Nord,Villa Belle Rive Inc.,,,,5320,boulevard gouin est,"5320, boulevard Gouin Est",Montréal,QC,H1G1B4,Province of Quebec,45.6135787964,-73.6356506348,,,
Bande Indienne des Montagnais de Sept-Iles et Maliotenam,,RLS de Sept-Îles,Bande Ind. des Montagnais de Sept-Iles et Maliotenam,,,,1089,avenue de quen,"1089, avenue de Quen",Sept-Rivières,QC,G4R4L9,Province of Quebec,50.2211761475,-66.4036636353,,,
Conseil de la Nation Huronne Wendat,,RLS de Québec-Nord,Conseil de la Nation Huronne Wendat,,,,255,place chef michel laveau,"255, place Chef Michel Laveau",Québec,QC,G0A4V0,Province of Quebec,46.8625564575,-71.3571166992,,,
Pekuakamiulnuatsh Takuhikan,,RLS du Domaine-du-Roy,Pekuakamiulnuatsh Takuhikan,,,,1671,rue ouiatchouan,"1671, rue Ouiatchouan",Le Domaine-du-Roy,QC,G0W2H0,Province of Quebec,48.5763092041,-72.2292785645,,,
Conseil des Mohawks de Kahnawake,,RLS de Jardins-Roussillon,Conseil des Mohawks de Kahnawake,,,,,,Case postale 720,Roussillon,QC,J0L1B0,Province of Quebec,45.4138755798,-73.6763534546,,,
88980 Canada Inc.,,RLS de Pierrefonds - Lac Saint-Louis,88980 Canada Inc.,,,,34,avenue woodland,"34, avenue Woodland",Montréal,QC,H9W4V9,Province of Quebec,45.4189491272,-73.8835525513,,,
Centre de santé Inuulitsivik - Inuulitsivik Healthcenter,,,Centre de santé Inuulitsivik,,,,,chemin baie d'hudson,Chemin Baie d'Hudson,Administration régionale Kativik,QC,J0M1P0,Province of Quebec,60.037651062,-77.2757949829,,,
Chateau Westmount Inc.,,RLS de Côte-des-Neiges - Métro - Parc-Extension,Chateau Westmount Inc.,,,,4860,boulevard de maisonneuve ouest,"4860, boulevard De Maisonneuve Ouest",Montréal,QC,H3Z3G2,Province of Quebec,45.4771652222,-73.6001586914,,,
Centre d'hébergement St-Francois Inc.,,RLS de Chicoutimi,Centre d'hébergement St-Francois Inc.,,,,912,rue jacques-cartier est,"912, rue Jacques-Cartier Est",Saguenay,QC,G7H2A9,Province of Quebec,48.4230995178,-71.0394973755,,,
Placements M.G.O. Inc.,,RLS de Laval,Placements M.G.O. Inc.,,,,5855,rue boulard,"5855, rue Boulard",Laval,QC,H7B1A3,Province of Quebec,45.6865501404,-73.6474456787,,,
Manoir Soleil Inc.,,RLS du Haut-Richelieu - Rouville,Manoir Soleil Inc.,,,,125,rue daigneault,"125, rue Daigneault",La Vallée-du-Richelieu,QC,J3L1G7,Province of Quebec,45.4613571167,-73.2959899902,,,
Conseil Mohawk d'Akwesasne,,RLS du Haut-Saint-Laurent,Conseil Mohawk d'Akwesasne,,,,95,snye school road,"95, Snye School road",Le Haut-Saint-Laurent,QC,H0M1A1,Province of Quebec,45.0087394714,-74.6025085449,,,
Hôpital Ste-Monique inc.,,RLS de Québec-Sud,Hopital Ste-Monique Inc.,,,,4805,boulevard wilfrid-hamel,"4805, boulevard Wilfrid-Hamel",Québec,QC,G1P2J7,Province of Quebec,46.8044166565,-71.3263092041,,,
Centre d'accueil Saint-Joseph de Lévis Inc.,,RLS Alphonse-Desjardins,Centre d'accueil Saint-Joseph de Lévis Inc.,,,,5445,rue saint-louis,"5445, rue Saint-Louis",Lévis,QC,G6V4G9,Province of Quebec,46.7991447449,-71.1886901855,,,
Centre d'accueil Marcelle Ferron Inc.,,RLS de Champlain,Centre d'accueil Marcelle Ferron Inc.,,,,8600,boulevard marie-victorin,"8600, boulevard Marie-Victorin",Longueuil,QC,J4X1A1,Province of Quebec,45.446056366,-73.4943847656,,,
Jardins du Haut Saint-Laurent (1992) Inc.,,RLS de Québec-Sud,Jardins du Haut Saint-Laurent (1992) Inc.,,,,4770,rue saint-félix,"4770, rue Saint-Félix",Québec,QC,G3A1B1,Province of Quebec,46.7369422913,-71.3782043457,,,
Centre d'hébergement St-Jean-Eudes Inc.,,RLS de Québec-Nord,Centre d'hébergement St-Jean-Eudes Inc.,,,,6000,3e avenue ouest,"6000, 3e Avenue Ouest",Québec,QC,G1H7J5,Province of Quebec,46.8505249023,-71.2595214844,,,
Résidence Sorel-Tracy Inc.,,RLS Pierre-De Saurel,Résidence Sorel-Tracy Inc.,,,,4025,rue frontenac,"4025, rue Frontenac",Pierre-De Saurel,QC,J3R4G8,Province of Quebec,46.0282249451,-73.1436767578,,,
2863-9839 Québec Inc.,,RLS de Vaudreuil-Soulanges,2863-9839 Québec Inc.,,,,170,rue boileau,"170, rue Boileau",Vaudreuil-Soulanges,QC,J7V8A3,Province of Quebec,45.4034423828,-74.0412597656,,,
Centre hospitalier Saint-François inc.,,RLS de Québec-Sud,Centre hospitalier Saint-François inc.,,,,1604,1re avenue,"1604, 1re Avenue",Québec,QC,G1L3L6,Province of Quebec,46.8290405273,-71.2359771729,,,
Centre d'hébergement et de soins de longue durée de La Maison Legault inc.,,RLS de Québec-Sud,CHSLD de La Maison Legault inc.,,,,3035,chemin saint-louis,"3035, chemin Saint-Louis",Québec,QC,G1W1R5,Province of Quebec,46.7577552795,-71.2886199951,,,
Centre d'hébergement et de soins de longue durée Bourget inc.,,RLS de Rivière-des-Prairies - Anjou - Montréal-Est,CHSLD Bourget inc.,,,,11570,rue notre-dame est,"11570, rue Notre-Dame Est",Montréal,QC,H1B2X4,Province of Quebec,45.6338005066,-73.4927597046,,,
Centre d'hébergement et de soins de longue durée Bussey (Québec) inc.,,RLS de Dorval - Lachine - Lasalle,CHSLD Bussey (Québec) inc.,,,,2069,boulevard saint-joseph,"2069, boulevard Saint-Joseph",Montréal,QC,H8S4B7,Province of Quebec,45.4330787659,-73.683303833,,,
Foyer Saints-Anges de Ham-Nord Inc.,,RLS d’Arthabaska-et-de-L’Érable,Foyer Saints-Anges de Ham-Nord Inc.,,,,493,rue principale,"493, rue Principale",Arthabaska,QC,G0P1A0,Province of Quebec,45.9038162231,-71.6477737427,,,
Villa Medica Inc.,,RLS des Faubourgs - Plateau-Mont-Royal - St-Louis-du-Parc,Villa Medica Inc.,,,,225,rue sherbrooke est,"225, rue Sherbrooke Est",Montréal,QC,H2X1C9,Province of Quebec,45.5149726868,-73.5687408447,,,
Charles S. Curtis Memorial Hospital,TYPE 1,Labrador-Grenfell Health,,50,,178,200,west st.,178-200 West St.,St. Anthony,NL,A0K4S0,Labrador-Grenfell Health,51.37053739,-55.59584398,709-454-3333,,https://www.lghealth.ca/facilities/hospitals/charles-s-curtis-memorial-hospital/
Labrador Health Centre,TYPE 1,Labrador-Grenfell Health,,25,,,227,hamilton river rd,227 Hamilton River Rd,Happy Valley – Goose Bay,NL,A0P1C0,Labrador-Grenfell Health,53.29653352,-60.33745711,709-897-2000,,https://www.lghealth.ca/facilities/hospitals/labrador-health-centre/
Labrador West Health Centre,TYPE 1,Labrador-Grenfell Health,,28,,,1700,nichols-adam highway,1700 Nichols-Adam Highway,Labrador City,NL,A2V0B2,Labrador-Grenfell Health,52.9467621,-66.90962068,709-285-8100,,https://www.lghealth.ca/facilities/hospitals/labrador-west-health-centre/
Labrador South Health Centre,Health centre,Labrador-Grenfell Health,,,,,,,,Forteau,NL,A0K2P0,Labrador-Grenfell Health,,,709-931-2450,,https://www.lghealth.ca/facilities/health-centres/labrador-south-health-centre/
Strait of Belle Isle Health Centre,Health centre,Labrador-Grenfell Health,,,,,259,viking trail,259 Viking Trail,Flowers Cove,NL,A0K2N0,Labrador-Grenfell Health,51.30818047,-56.71477155,709-456-2401,,https://www.lghealth.ca/facilities/health-centres/strait-of-belle-isle/
White Bay Central Health Centre,Health centre,Labrador-Grenfell Health,,,,,63,cloud dr,63 Cloud Dr,Roddickton-Bide Arm,NL,A0K4P0,Labrador-Grenfell Health,50.86783991,-56.11390002,709-457-2215,,https://www.lghealth.ca/facilities/health-centres/white-bay-central/
John M. Gray Centre & Complex,TYPE 2,Labrador-Grenfell Health,,47,,,176,west st,176 West St,St. Anthony,NL,A0K4S0,Labrador-Grenfell Health,51.36368604,-55.58852975,709-454-0371,,https://www.lghealth.ca/facilities/long-term-care/john-m-gray-centre-complex/
Happy Valley-Goose Bay Long Term Care,TYPE 2,Labrador-Grenfell Health,,70,,,229,hamilton river rd,229 Hamilton River Rd,Happy Valley – Goose Bay,NL,A0P1E0,Labrador-Grenfell Health,53.29647269,-60.3465936,709-896-2469,,https://www.lghealth.ca/facilities/long-term-care/happy-valley-goose-bay-long-term-care/
KIPLING & QUEENSWAY PHARMACY,TYPE 0,,,,,,1255,the queensway,"1255 THE QUEENSWAY, UNIT-20",Toronto,ON,,Toronto,43.621073842,-79.524809007,647-508-3550,,
GLENCADE PHARMACY,TYPE 0,,,,,,290,the west mall,"290 THE WEST MALL ETOBICOKE, ON M9C1C6",Toronto,ON,M9C1C6,Toronto,43.634647842,-79.561801833,416-622-2111,,https://www.GLENCADEPHARMACY.CA
Whitehorse General Hospital,TYPE 1,,,,,,5,hospital road,5 Hospital Road,Whitehorse,YK,Y1A3H7,Yukon,60.71933555,-135.0435648,867-393-8700,,https://yukonhospitals.ca/whitehorse-general-hospital/programs-and-services/emergency-services
Watson Lake Community Hospital,TYPE 1,,,,,,817,ravenhill drive,817 Ravenhill Drive,Watson Lake,YK,Y0A1C0,Yukon,60.07077394,-128.7101567,867-536-4444,,https://yukonhospitals.ca/watson-lake-community-hospital/programs-and-services/emergency-services
Dawson City Community Hospital,TYPE 1,,,,,,501,sixth avenue,501 Sixth Avenue,Dawson City,YK,Y0B1G0,Yukon,64.05725428,-139.4329756,867-993-4444,,https://yukonhospitals.ca/dawson-city-hospital/programs-and-services/emergency-services
CENTRE DE SOINS PROLONGÉS GRACE DART,,RLS de Hochelaga - Mercier-Ouest - Rosemont,Centre de soins prolongés Grace Dart,,,,5155,rue sainte-catherine est,"5155, rue Sainte-Catherine Est",Montréal,QC,H1V2A5,Province of Quebec,45.5594596863,-73.5289077759,,,
HÔPITAL JUIF DE RÉADAPTATION,,RLS de Laval,Hôpital juif de réadaptation,,,,3205,place alton-goldbloom,"3205, place Alton-Goldbloom",Laval,QC,H7V1R2,Province of Quebec,45.5487289429,-73.7376403809,,,
CHSLD PROVIDENCE NOTRE-DAME DE LOURDES,,RLS de Hochelaga - Mercier-Ouest - Rosemont,CHSLD Providence Notre-Dame de Lourdes inc.,,,,1870,boulevard pie-ix,"1870, boulevard Pie-IX",Montréal,QC,H1V2C6,Province of Quebec,45.549785614,-73.5406951904,,,
ATELIER LE FIL D'ARIANE,,RLS des Faubourgs - Plateau-Mont-Royal - St-Louis-du-Parc,Atelier le fil d'Ariane Inc.,,,App. 100,4837,rue boyer,"4837, rue Boyer, app. 100",Montréal,QC,H2J3E6,Province of Quebec,45.5294494629,-73.5838394165,,,
C.H.S.L.D. BAYVIEW,,RLS de Pierrefonds - Lac Saint-Louis,CHSLD Bayview Inc.,,,,27,lakeshore,"27, Lakeshore",Montréal,QC,H9S4H1,Province of Quebec,45.4486465454,-73.786567688,,,
RESIDENCE BERTHIAUME-DU TREMBLAY,,RLS d'Ahuntsic - Montréal-Nord,Résidence Berthiaume-Du Tremblay,,,,1635,boulevard gouin est,"1635, boulevard Gouin Est",Montréal,QC,H2C1C2,Province of Quebec,45.5674171448,-73.6630554199,,,
CHSLD POLONAIS MARIE-CURIE-SKLODOWSKA,,RLS de Hochelaga - Mercier-Ouest - Rosemont,Centre intégré universitaire de santé et de services sociaux de l'Est-de-l'Île-de-Montréal,,,,5655,rue bélanger,"5655, rue Bélanger",Montréal,QC,H1T1G2,Province of Quebec,45.5810432434,-73.5743331909,,,
LA CHAMPENOISE,,RLS de Québec-Sud,La corporation Notre-Dame de Bon-Secours,,,,990,rue gérard-morisset,"990, rue Gérard-Morisset",Québec,QC,G1S1X6,Province of Quebec,46.788066864,-71.2566070557,,,
INSTITUT DE CARDIOLOGIE DE MONTRÉAL,,RLS de Hochelaga - Mercier-Ouest - Rosemont,Institut de Cardiologie de Montréal,,,,5000,rue bélanger,"5000, rue Bélanger",Montréal,QC,H1T1C8,Province of Quebec,45.573764801,-73.5778198242,,,
HÔPITAL MARIE-CLARAC,,RLS d'Ahuntsic - Montréal-Nord,Hôpital Marie-Clarac des Soeurs de Charité de Ste-Marie (1995) Inc.,,,,3530,boulevard gouin est,"3530, boulevard Gouin Est",Montréal,QC,H1H1B7,Province of Quebec,45.5908355713,-73.6497421265,,,
CLINIQUE COMMUNAUTAIRE DE POINTE ST-CHARLES,,RLS de Verdun - Côte St-Paul - St-Henri - Pointe-St-Charles,Clinique communautaire de Pointe St-Charles,,,,500,avenue ash,"500, avenue Ash",Montréal,QC,H3K2R4,Province of Quebec,45.4783477783,-73.556892395,,,
SERVICES D'HEBERGEMENT INTERNES SERVICES DE READAPTATION EXTERNES - SOUS-REGION D'AMOS,,RLS de l'Abitibi,Centre intégré de santé et de services sociaux de l'Abitibi-Témiscamingue,,,,841,3e rue ouest,"841, 3e Rue Ouest",Abitibi,QC,J9T2T4,Province of Quebec,48.5773849487,-78.1251831055,,,
HÔPITAL DU SACRÉ-CŒUR DE MONTRÉAL,,RLS du Nord de l'Île - Saint-Laurent,Centre intégré universitaire de santé et de services sociaux du Nord-de-l'Île-de-Montréal,,,,5400,boulevard gouin ouest,"5400, boulevard Gouin Ouest",Montréal,QC,H4J1C5,Province of Quebec,45.5325775146,-73.7140350342,,,
MAISON ELIZABETH,,RLS de Côte-Saint-Luc - NDG - Montréal-Ouest,Maison Elizabeth,,,,2131,avenue de marlowe,"2131, avenue de Marlowe",Montréal,QC,H4A3L4,Province of Quebec,45.4752159119,-73.606880188,,,
CENTRE MIRIAM,,RLS de Côte-des-Neiges - Métro - Parc-Extension,Centre Miriam,,,,8160,chemin royden,"8160, chemin Royden",Montréal,QC,H4P2T2,Province of Quebec,45.4963607788,-73.6618652344,,,
HÔPITAL GÉNÉRAL DE MONTRÉAL,,RLS de Côte-des-Neiges - Métro - Parc-Extension,Centre universitaire de santé McGill,,,,1650,avenue cedar,"1650, avenue Cedar",Montréal,QC,H3G1A4,Province of Quebec,45.4970474243,-73.5890350342,,,
CHSLD HEATHER I,,RLS de Lanaudière-Nord,Centre d'hébergement et de soins de longue durée Heather Inc.,,,,3931,lakeshore drive,"3931, Lakeshore Drive",Matawinie,QC,J0K1S0,Province of Quebec,46.0508613586,-73.7022247314,,,
HÔPITAL GÉNÉRAL JUIF,,RLS de Côte-des-Neiges - Métro - Parc-Extension,L'Hôpital général juif Sir Mortimer B. Davis,,,,3755,chemin de la côte-sainte-catherin,"3755, chemin de la Côte-Sainte-Catherin",Montréal,QC,H3T1E2,Province of Quebec,45.4978103638,-73.6288070679,,,
LA RÉSIDENCE DE LACHUTE,,RLS d'Argenteuil,La résidence de Lachute,,,,377,rue principale,"377, rue Principale",Argenteuil,QC,J8H1Y1,Province of Quebec,45.6566467285,-74.339263916,,,
CENTRE DE SANTÉ TULATTAVIK DE L'UNGAVA,,,Centre de santé Tulattavik de l'Ungava,,,,,,Kuujjuaq,Administration régionale Kativik,QC,J0M1C0,Province of Quebec,58.1070480347,-68.4052734375,,,
CENTRE HOSPITALIER DE ST. MARY,,RLS de Côte-des-Neiges - Métro - Parc-Extension,Centre hospitalier de St. Mary,,,,3830,avenue lacombe,"3830, avenue Lacombe",Montréal,QC,H3T1M5,Province of Quebec,45.4949417114,-73.6241378784,,,
INSTITUT NATIONAL DE PSYCHIATRIE LÉGALE PHILIPPE-PINEL,,RLS de Rivière-des-Prairies - Anjou - Montréal-Est,Institut national de psychiatrie légale Philippe-Pinel,,,,10905,boulevard henri-bourassa est,"10905, boulevard Henri-Bourassa Est",Montréal,QC,H1C1H1,Province of Quebec,45.6560554504,-73.5336151123,,,
L'HÔPITAL CHINOIS DE MONTRÉAL (1963),,RLS des Faubourgs - Plateau-Mont-Royal - St-Louis-du-Parc,L'Hôpital chinois de Montréal (1963),,,,189,avenue viger est,"189, avenue Viger Est",Montréal,QC,H2X3Y9,Province of Quebec,45.5095558167,-73.5581207275,,,
HÔPITAL MAISONNEUVE-ROSEMONT,,RLS de Hochelaga - Mercier-Ouest - Rosemont,Centre intégré universitaire de santé et de services sociaux de l'Est-de-l'Île-de-Montréal,,,,5415,boulevard de l'assomption,"5415, boulevard de l'Assomption",Montréal,QC,H1T2M4,Province of Quebec,45.5742149353,-73.5584640503,,,
PAVILLON STE-MARIE,,RLS de la Rivière-du-Nord - Mirabel-Nord,Pavillon Ste-Marie Inc.,,,,45,rue du pavillon,"45, rue du Pavillon",La Rivière-du-Nord,QC,J7Y3R6,Province of Quebec,45.8080062866,-74.0083770752,,,
LES CEDRES-CENTRE D'ACCUEIL POUR PERSONNES AGEES,,RLS du Nord de l'Île - Saint-Laurent,Les cèdres - Centre d'accueil pour personnes agées,,,,1275,boulevard de la côte-vertu,"1275, boulevard de la Côte-Vertu",Montréal,QC,H4L4V2,Province of Quebec,45.5170021057,-73.6799240112,,,
CENTRE HOSPITALIER GERIATRIQUE MAIMONIDES,,RLS de Côte-Saint-Luc - NDG - Montréal-Ouest,La corporation du Centre hospitalier gériatrique Maimonides,,,,5795,avenue caldwell,"5795, avenue Caldwell",Montréal,QC,H4W1W3,Province of Quebec,45.4715499878,-73.6684265137,,,
PAVILLON BELLEVUE,,RLS Alphonse-Desjardins,Pavillon Bellevue Inc.,,,,99,rue monseigneur-bourget,"99, rue Monseigneur-Bourget",Lévis,QC,G6V9V2,Province of Quebec,46.819103241,-71.1567382813,,,
CENTRE METROPOLITAIN DE CHIRURGIE PLASTIQUE,,RLS d'Ahuntsic - Montréal-Nord,Centre métropolitain de chirurgie plastique Inc.,,,,999,rue de salaberry,"999, rue de Salaberry",Montréal,QC,H3L1L2,Province of Quebec,45.5454483032,-73.6929397583,,,
HÔPITAL MONT SINAÏ,,RLS de Côte-Saint-Luc - NDG - Montréal-Ouest,Hôpital Mont-Sinai,,,,5690,boulevard cavendish,"5690, boulevard Cavendish",Montréal,QC,H4W1S7,Province of Quebec,45.4738426208,-73.6573410034,,,
ACCUEIL DU RIVAGE,,RLS de Richelieu-Yamaska,Accueil du Rivage Inc.,,,,1008,rue du rivage,"1008, rue du Rivage",La Vallée-du-Richelieu,QC,J0L1R0,Province of Quebec,45.7780685425,-73.1733551025,,,
MANOIR ST-PATRICE,,RLS de Laval,Manoir St-Patrice inc.,,,,3615,boulevard perron,"3615, boulevard Perron",Laval,QC,H7V1P4,Province of Quebec,45.5418167114,-73.7410354614,,,
INSTITUT UNIVERSITAIRE DE GÉRIATRIE DE MONTRÉAL,,RLS de Côte-des-Neiges - Métro - Parc-Extension,Centre intégré universitaire de santé et de services sociaux du Centre-Sud-de-l'Île-de-Montréal,,,,4565,chemin queen-mary,"4565, chemin Queen-Mary",Montréal,QC,H3W1W5,Province of Quebec,45.4910316467,-73.6238174438,,,
LA MAISON MICHEL SARRAZIN,,RLS de Québec-Sud,La Maison Michel Sarrazin,,,,2101,chemin saint-louis,"2101, chemin Saint-Louis",Québec,QC,G1T1P5,Province of Quebec,46.7734794617,-71.2515945435,,,
MANOIR BEACONSFIELD,,RLS de Pierrefonds - Lac Saint-Louis,88980 Canada Inc.,,,,34,avenue woodland,"34, avenue Woodland",Montréal,QC,H9W4V9,Province of Quebec,45.4189491272,-73.8835525513,,,
MANOIR SOLEIL,,RLS du Haut-Richelieu - Rouville,Manoir Soleil Inc.,,,,125,rue daigneault,"125, rue Daigneault",La Vallée-du-Richelieu,QC,J3L1G7,Province of Quebec,45.4613571167,-73.2959899902,,,
HÔPITAL STE-MONIQUE,,RLS de Québec-Sud,Hôpital Ste-Monique inc.,,,,4805,boulevard wilfrid-hamel,"4805, boulevard Wilfrid-Hamel",Québec,QC,G1P2J7,Province of Quebec,46.8044166565,-71.3263092041,,,
CENTRE D'ACCUEIL SAINT-JOSEPH DE LÉVIS,,RLS Alphonse-Desjardins,Centre d'accueil Saint-Joseph de Lévis Inc.,,,,5445,rue saint-louis,"5445, rue Saint-Louis",Lévis,QC,G6V4G9,Province of Quebec,46.7991447449,-71.1886901855,,,
RESIDENCE SOREL-TRACY,,RLS Pierre-De Saurel,Résidence Sorel-Tracy Inc.,,,,4025,rue frontenac,"4025, rue Frontenac",Pierre-De Saurel,QC,J3R4G8,Province of Quebec,46.0282249451,-73.1436767578,,,
CENTRE HOSPITALIER SAINT-FRANÇOIS,,RLS de Québec-Sud,Centre hospitalier Saint-François inc.,,,,1604,1re avenue,"1604, 1re Avenue",Québec,QC,G1L3L6,Province of Quebec,46.8290405273,-71.2359771729,,,
CHSLD DE LA MAISON-LEGAULT,,RLS de Québec-Sud,Centre d'hébergement et de soins de longue durée de La Maison Legault inc.,,,,3035,chemin saint-louis,"3035, chemin Saint-Louis",Québec,QC,G1W1R5,Province of Quebec,46.7577552795,-71.2886199951,,,
FOYER SAINTS-ANGES DE HAM-NORD,,RLS d’Arthabaska-et-de-L’Érable,Foyer Saints-Anges de Ham-Nord Inc.,,,,493,rue principale,"493, rue Principale",Arthabaska,QC,G0P1A0,Province of Quebec,45.9038162231,-71.6477737427,,,
CHSLD BOURGET,,RLS de Rivière-des-Prairies - Anjou - Montréal-Est,Centre d'hébergement et de soins de longue durée Bourget inc.,,,,11570,rue notre-dame est,"11570, rue Notre-Dame Est",Montréal,QC,H1B2X4,Province of Quebec,45.6338005066,-73.4927597046,,,
CENTRE D'HÉBERGEMENT ET DE SOINS DE LONGUE DURÉE BUSSEY (QUÉBEC),,RLS de Dorval - Lachine - Lasalle,Centre d'hébergement et de soins de longue durée Bussey (Québec) inc.,,,,2069,boulevard saint-joseph,"2069, boulevard Saint-Joseph",Montréal,QC,H8S4B7,Province of Quebec,45.4330787659,-73.683303833,,,
VILLA MEDICA,,RLS des Faubourgs - Plateau-Mont-Royal - St-Louis-du-Parc,Villa Medica Inc.,,,,225,rue sherbrooke est,"225, rue Sherbrooke Est",Montréal,QC,H2X1C9,Province of Quebec,45.5149726868,-73.5687408447,,,
POINT DE SERVICE DE LA MRC DE LA HAUTE-GASPESIE,,RLS de la Haute-Gaspésie,Centre intégré de santé et de services sociaux de la Gaspésie,,,,230,route du parc,"230, route du Parc",La Haute-Gaspésie,QC,G4V2C4,Province of Quebec,49.1200561523,-66.4782028198,,,
SERVICES PROFESSIONNELS - MRC MITIS,,RLS de La Mitis,Centre intégré de santé et de services sociaux du Bas-Saint-Laurent,,,,1312,boulevard jacques-cartier,"1312, boulevard Jacques-Cartier",La Mitis,QC,G5H2T1,Province of Quebec,48.5911827087,-68.1970062256,,,
ATELIER DE TRAVAIL EN DÉFICIENCE INTELLECTUELLE ET DU TROUBLE DU SPECTRE DE L'AUTISME DE SAINT-FÉLICIEN,,RLS du Domaine-du-Roy,Centre intégré universitaire de santé et de services sociaux du Saguenay – Lac-Saint-Jean,,,1441,b,boulevard industriel,"1441-B, boulevard Industriel",Le Domaine-du-Roy,QC,G8K1W1,Province of Quebec,48.6403160095,-72.4509124756,,,
CENTRE DE RÉADAPTATION EN DÉFICIENCE INTELLECTUELLE ET DU TROUBLE DU SPECTRE DE L'AUTISME DE TROIS-RIVIÈRES,,RLS de Trois-Rivières,Centre intégré universitaire de santé et de services sociaux de la Mauricie-et-du-Centre-du-Québec,,,,920,place boland,"920, place Boland",Trois-Rivières,QC,G8Z4H2,Province of Quebec,46.3412246704,-72.580947876,,,
CENTRE D'ACTIVITÉS DE JOUR EN DÉFICIENCE INTELLECTUELLE ET DU TROUBLE DU SPECTRE DE L'AUTISME BOLAND,,RLS de Trois-Rivières,Centre intégré universitaire de santé et de services sociaux de la Mauricie-et-du-Centre-du-Québec,,,,1000,place boland,"1000, place Boland",Trois-Rivières,QC,G8Z4H2,Province of Quebec,46.3402252197,-72.5802764893,,,
CENTRE D'ACTIVITÉS DE JOUR EN DÉFICIENCE INTELLECTUELLE ET DU TROUBLE DU SPECTRE DE L'AUTISME DE LA FONTAINE,,RLS de Trois-Rivières,Centre intégré universitaire de santé et de services sociaux de la Mauricie-et-du-Centre-du-Québec,,,,1485,place de la fontaine,"1485, place de la Fontaine",Trois-Rivières,QC,G8Y2S9,Province of Quebec,46.357624054,-72.584564209,,,
CENTRE DE RÉADAPTATION EN DÉFICIENCE INTELLECTUELLE ET DU TROUBLE DU SPECTRE DE L'AUTISME DE BÉCANCOUR,,RLS de Bécancour–Nicolet-Yamaska,Centre intégré universitaire de santé et de services sociaux de la Mauricie-et-du-Centre-du-Québec,,,,1582,boulevard de port-royal,"1582, boulevard de Port-Royal",Bécancour,QC,G9H1X6,Province of Quebec,46.2925453186,-72.5419006348,,,
CENTRE DE RÉADAPTATION EN DÉFICIENCE INTELLECTUELLE ET DU TROUBLE DU SPECTRE DE L'AUTISME DE PLESSISVILLE,,RLS d’Arthabaska-et-de-L’Érable,Centre intégré universitaire de santé et de services sociaux de la Mauricie-et-du-Centre-du-Québec,,,Bureau 201,1500,avenue saint-louis,"1500, avenue Saint-Louis, bureau 201",L'Érable,QC,G6L2M8,Province of Quebec,46.219291687,-71.7708206177,,,
CENTRE DE RÉADAPTATION EN DÉFICIENCE INTELLECTUELLE ET DU TROUBLE DU SPECTRE DE L'AUTISME DES BOIS-FRANCS-NORD,,RLS d’Arthabaska-et-de-L’Érable,Centre intégré universitaire de santé et de services sociaux de la Mauricie-et-du-Centre-du-Québec,,,,466,boulevard des bois-francs nord,"466, boulevard des Bois-Francs Nord",Arthabaska,QC,G6P1H3,Province of Quebec,46.0669975281,-71.9680938721,,,
CENTRE D'ACTIVITÉS DE JOUR EN DÉFICIENCE INTELLECTUELLE ET DU TROUBLE DU SPECTRE DE L'AUTISME DE GRAND-MÈRE,,RLS du Centre-de-la-Mauricie,Centre intégré universitaire de santé et de services sociaux de la Mauricie-et-du-Centre-du-Québec,,,,1697,3e avenue,"1697, 3e Avenue",Shawinigan,QC,G9T2W6,Province of Quebec,46.6034812927,-72.7027740479,,,
CLSC DE BARACHOIS,,RLS de La Côte-de-Gaspé,Centre intégré de santé et de services sociaux de la Gaspésie,,,,1070,route 132 est,"1070, Route 132 Est",Le Rocher-Percé,QC,G0C1A0,Province of Quebec,48.6179504395,-64.2795791626,,,
CENTRE D'ACTIVITÉS DE JOUR EN DÉFICIENCE INTELLECTUELLE ET DU TROUBLE DU SPECTRE DE L'AUTISME DE BERTHIER-SUR-MER,,RLS de Montmagny-L'Islet,Centre intégré de santé et de services sociaux de Chaudière-Appalaches,,,,38,route saint-françois,"38, route Saint-François",Montmagny,QC,G0R1E0,Province of Quebec,46.922203064,-70.7281494141,,,
CHUS - HÔPITAL FLEURIMONT,,RLS de Sherbrooke,Centre intégré universitaire de santé et de services sociaux de l'Estrie – Centre hospitalier universitaire de Sherbrooke,,,,3001,12e avenue nord,"3001, 12e Avenue Nord",Sherbrooke,QC,J1H5N4,Province of Quebec,45.4478340149,-71.8690109253,,,
CHUS - HÔTEL-DIEU DE SHERBROOKE,,RLS de Sherbrooke,Centre intégré universitaire de santé et de services sociaux de l'Estrie – Centre hospitalier universitaire de Sherbrooke,,,,580,rue bowen sud,"580, rue Bowen Sud",Sherbrooke,QC,J1G2E8,Province of Quebec,45.3984413147,-71.8779449463,,,
CENTRE LE CARDINAL,,RLS de Rivière-des-Prairies - Anjou - Montréal-Est,Centre Le Cardinal inc.,,,,12900,rue notre-dame est,"12900, rue Notre-Dame Est",Montréal,QC,H1A1R9,Province of Quebec,45.6524505615,-73.4883346558,,,
CENTRE DE RÉADAPTATION EN DÉPENDANCE CAVENDISH / CAVENDISH ADDICTION READAPTATION CENTRE,,RLS de Côte-Saint-Luc - NDG - Montréal-Ouest,Centre intégré de santé et de services sociaux de la Montérégie-Ouest,,,Bureau 100,3285,boulevard cavendish,"3285, boulevard Cavendish, bureau 100",Montréal,QC,H4B2L9,Province of Quebec,45.4634170532,-73.6270904541,,,
CENTRE DE RÉADAPTATION EN DÉFICIENCE INTELLECTUELLE ET EN TROUBLE DU SPECTRE DE L'AUTISME DE BOUCHERVILLE,,RLS Pierre-Boucher,Centre intégré de santé et de services sociaux de la Montérégie-Ouest,,,,1335,rue gay-lussac,"1335, rue Gay-Lussac",Longueuil,QC,J4B7K1,Province of Quebec,45.5718307495,-73.4292602539,,,
CHSLD RICHARD-BUSQUE,,RLS de Beauce,Centre intégré de santé et de services sociaux de Chaudière-Appalaches,,,,405,18e rue,"405, 18e rue",Beauce-Sartigan,QC,G5Y4T2,Province of Quebec,46.1157875061,-70.6744766235,,,
CHSLD DU SÉMINAIRE,,RLS de Beauce,Centre intégré de santé et de services sociaux de Chaudière-Appalaches,,,,11515,8e avenue,"11515, 8e avenue",Beauce-Sartigan,QC,G5Y1J5,Province of Quebec,46.1248893738,-70.6714477539,,,
CENTRE D'HÉBERGEMENT JACQUES-CARTIER,,RLS de Chicoutimi,Centre intégré universitaire de santé et de services sociaux du Saguenay – Lac-Saint-Jean,,,,904,rue jacques-cartier est,"904, rue Jacques-Cartier Est",Saguenay,QC,G7H2A9,Province of Quebec,48.4233360291,-71.0409088135,,,
CLSC ET CENTRE DE PROTECTION DE L'ENFANCE ET DE LA JEUNESSE DE L'OUTAOUAIS,,RLS de Grande-Rivière - Hull - Gatineau,Centre intégré de santé et de services sociaux de l'Outaouais,,,,105,boulevard sacré-coeur,"105, boulevard Sacré-Coeur, Édifice Ma",Gatineau,QC,J8X1C5,Province of Quebec,45.4377288818,-75.71509552,,,
CENTRE DE RÉADAPTATION POUR LES JEUNES EN DIFFICULTÉ D'ADAPTATION DE RIMOUSKI-NEIGETTE,,RLS de Rimouski,Centre intégré de santé et de services sociaux du Bas-Saint-Laurent,,,,404,avenue ross,"404, avenue Ross",Rimouski-Neigette,QC,G5L6J2,Province of Quebec,48.432975769,-68.5257415771,,,
CENTRE DE RÉADAPTATION POUR LES JEUNES EN DIFFICULTÉ D'ADAPTATION LIMOGES,,RLS Pierre-Boucher,Centre intégré de santé et de services sociaux de la Montérégie-Est,,,,2010,rue limoges,"2010, rue Limoges",Longueuil,QC,J4G1C3,Province of Quebec,45.5697822571,-73.4805526733,,,
CENTRE DE RÉADAPTATION POUR LES JEUNES EN DIFFICULTÉ D'ADAPTATION DE CHAMBLY,,RLS du Haut-Richelieu - Rouville,Centre intégré de santé et de services sociaux de la Montérégie-Est,,,,1501,avenue de salaberry,"1501, avenue de Salaberry",La Vallée-du-Richelieu,QC,J3L4V8,Province of Quebec,45.4439888,-73.3103408813,,,
CENTRE DE RÉADAPTATION POUR LES JEUNES EN DIFFICULTÉ D'ADAPTATION DE SAINT-HYACINTHE,,RLS de Richelieu-Yamaska,Centre intégré de santé et de services sociaux de la Montérégie-Est,,,,3000,avenue pratte,"3000, avenue Pratte",Les Maskoutains,QC,J2S4C7,Province of Quebec,45.6415214539,-72.9598617554,,,
HÔPITAL DU SAINT-SACREMENT,,RLS de Québec-Sud,CHU de Québec – Université Laval,,,,1050,chemin sainte-foy,"1050, chemin Sainte-Foy",Québec,QC,G1S4L8,Province of Quebec,46.7993583679,-71.2464141846,,,
CENTRE DE PROTECTION ET DE RÉADAPTATION POUR LES JEUNES EN DIFFICULTÉ D'ADAPTATION DE CHICOUTIMI,,RLS de Chicoutimi,Centre intégré universitaire de santé et de services sociaux du Saguenay – Lac-Saint-Jean,,,,1109,rue bégin,"1109, rue Bégin",Saguenay,QC,G7H4P1,Province of Quebec,48.4107513428,-71.0676651001,,,
CENTRE DE PROTECTION ET DE RÉADAPTATION POUR LES JEUNES EN DIFFICULTÉ D'ADAPTATION DE ROBERVAL,,RLS du Domaine-du-Roy,Centre intégré universitaire de santé et de services sociaux du Saguenay – Lac-Saint-Jean,,,,254,boulevard sauvé,"254, boulevard Sauvé",Le Domaine-du-Roy,QC,G8H1A7,Province of Quebec,48.4987945557,-72.2274017334,,,
PAVILLON L'HÔTEL-DIEU DE QUÉBEC,,RLS de Québec-Sud,CHU de Québec – Université Laval,,,,11,côte du palais,"11, Côte du Palais",Québec,QC,G1R2J6,Province of Quebec,46.8153915405,-71.2109909058,,,
PAVILLON CENTRE HOSPITALIER DE L'UNIVERSITÉ LAVAL,,RLS de Québec-Sud,CHU de Québec – Université Laval,,,,2705,boulevard laurier,"2705, boulevard Laurier",Québec,QC,G1V4G2,Province of Quebec,46.7678718567,-71.2823410034,,,
PAVILLON SAINT-FRANÇOIS D'ASSISE,,RLS de Québec-Sud,CHU de Québec – Université Laval,,,,10,rue de l'espinay,"10, rue de l'Espinay",Québec,QC,G1L3L5,Province of Quebec,46.8277931213,-71.2366104126,,,
HÔPITAL DE MONT-LAURIER,,RLS d'Antoine-Labelle,Centre intégré de santé et de services sociaux des Laurentides,,,,2561,chemin de la lièvre sud,"2561, chemin de la Lièvre Sud",Antoine-Labelle,QC,J9L3G3,Province of Quebec,46.5492095947,-75.5176544189,,,
CENTRE DE SERVICES DE RIVIÈRE-ROUGE,,RLS d'Antoine-Labelle,Centre intégré de santé et de services sociaux des Laurentides,,,,1525,rue de l'annonciation nord,"1525, rue de L'Annonciation Nord",Antoine-Labelle,QC,J0T1T0,Province of Quebec,46.4207992554,-74.8846817017,,,
POINT DE SERVICE VAL SAINT-FRANCOIS,,RLS de Val Saint-François,Centre intégré universitaire de santé et de services sociaux de l'Estrie – Centre hospitalier universitaire de Sherbrooke,,,,5,rue des sources,"5, rue des Sources",Le Val-Saint-François,QC,J1S2X3,Province of Quebec,45.5656547546,-72.0137329102,,,
CENTRE DE RÉADAPTATION POUR LES JEUNES EN DIFFICULTÉ D'ADAPTATION VAL-DU-LAC,,RLS de Sherbrooke,Centre intégré universitaire de santé et de services sociaux de l'Estrie – Centre hospitalier universitaire de Sherbrooke,,,,8475,chemin blanchette,"8475, chemin Blanchette",Sherbrooke,QC,J1N3A3,Province of Quebec,45.3144874573,-72.0210037231,,,
CENTRE MULTISERVICES DE SANTÉ ET DE SERVICES SOCIAUX DE LAVAL,,RLS de Laval,Centre intégré de santé et de services sociaux de Laval,,,,308,boulevard cartier ouest,"308, boulevard Cartier Ouest",Laval,QC,H7N2J2,Province of Quebec,45.5541229248,-73.6995315552,,,
CENTRE DE RÉADAPTATION POUR LES JEUNES EN DIFFICULTÉ D'ADAPTATION CARTIER,,RLS de Laval,Centre intégré de santé et de services sociaux de Laval,,,,306,boulevard cartier ouest,"306, boulevard Cartier Ouest",Laval,QC,H7N2J2,Province of Quebec,45.5559196472,-73.6980056763,,,
CENTRE DE RÉADAPTATION POUR LES JEUNES EN DIFFICULTÉ D'ADAPTATION DE LAVAL,,RLS de Laval,Centre intégré de santé et de services sociaux de Laval,,,,310,boulevard cartier ouest,"310, boulevard Cartier Ouest",Laval,QC,H7N2J2,Province of Quebec,45.5549583435,-73.6976852417,,,
CHSLD DE VAL-DES-ARBRES,,RLS de Laval,Centre d'hébergement et de soins de longue durée de la Villa-de-Val-des-Arbres Inc.,,,,3245,boulevard saint-martin est,"3245, boulevard Saint-Martin Est",Laval,QC,H7E4T6,Province of Quebec,45.6056060791,-73.6773605347,,,
CENTRE D'HÉBERGEMENT JEAN-DE-LA-LANDE,,RLS des Faubourgs - Plateau-Mont-Royal - St-Louis-du-Parc,Centre intégré universitaire de santé et de services sociaux du Centre-Sud-de-l'Île-de-Montréal,,,,4255,avenue papineau,"4255, avenue Papineau",Montréal,QC,H2H2P6,Province of Quebec,45.5312614441,-73.5699386597,,,
CENTRE D'HÉBERGEMENT DE SAINT-PACÔME,,RLS de Kamouraska,Centre intégré de santé et de services sociaux du Bas-Saint-Laurent,,,,127,rue galarneau,"127, rue Galarneau",Kamouraska,QC,G0L3X0,Province of Quebec,47.4029426575,-69.950958252,,,
CENTRE D'HEBERGEMENT VILLA MARIA,,RLS de Kamouraska,Centre intégré de santé et de services sociaux du Bas-Saint-Laurent,,,,404,avenue du foyer,"404, avenue du Foyer",Kamouraska,QC,G0L2G0,Province of Quebec,47.6856575012,-69.6201400757,,,
CENTRE DE JOUR SAINT-PASCAL,,RLS de Kamouraska,Centre intégré de santé et de services sociaux du Bas-Saint-Laurent,,,,575,avenue martin,"575, avenue Martin",Kamouraska,QC,G0L3Y0,Province of Quebec,47.5294036865,-69.8034057617,,,
CENTRE D'HÉBERGEMENT SAINTE-MARIE,,RLS de Jonquière,Centre intégré universitaire de santé et de services sociaux du Saguenay – Lac-Saint-Jean,,,,2184,rue perrier,"2184, rue Perrier",Saguenay,QC,G7X9C9,Province of Quebec,48.4146766663,-71.2395782471,,,
CENTRE D'HEBERGEMENT DE RIVIERE-BLEUE,,RLS de Témiscouata,Centre intégré de santé et de services sociaux du Bas-Saint-Laurent,,,,45,rue du foyer sud,"45, rue du Foyer Sud",Témiscouata,QC,G0L2B0,Province of Quebec,47.4323921204,-69.0385131836,,,
CENTRE D'HÉBERGEMENT DE SAINT-LOUIS-DU-HA! HA!,,RLS de Témiscouata,Centre intégré de santé et de services sociaux du Bas-Saint-Laurent,,,,25,rue saint-philippe,"25, rue Saint-Philippe",Témiscouata,QC,G0L3S0,Province of Quebec,47.6745529175,-68.9791183472,,,
CENTRE D'HÉBERGEMENT DE SQUATEC,,RLS de Témiscouata,Centre intégré de santé et de services sociaux du Bas-Saint-Laurent,,,,10,rue saint-andré,"10, rue Saint-André",Témiscouata,QC,G0L4H0,Province of Quebec,47.877368927,-68.7231140137,,,
CENTRE MULTISERVICES DE SANTÉ ET DE SERVICES SOCIAUX DES BOIS-FRANCS,,RLS d’Arthabaska-et-de-L’Érable,Centre intégré universitaire de santé et de services sociaux de la Mauricie-et-du-Centre-du-Québec,,,,61,rue de l'ermitage,"61, rue de l'Ermitage",Arthabaska,QC,G6P6X4,Province of Quebec,46.0620918274,-71.9627380371,,,
CENTRE D'HÉBERGEMENT DE WARWICK,,RLS d’Arthabaska-et-de-L’Érable,Centre intégré universitaire de santé et de services sociaux de la Mauricie-et-du-Centre-du-Québec,,,,10,rue l'heureux,"10, rue l'Heureux",Arthabaska,QC,J0A1M0,Province of Quebec,45.9458351135,-71.9856567383,,,
CENTRE DE PROTECTION ET DE RÉADAPTATION POUR LES JEUNES ET LES MÈRES EN DIFFICULTÉ D'ADAPTATION DE TROIS-RIVIÈRES,,RLS de Trois-Rivières,Centre intégré universitaire de santé et de services sociaux de la Mauricie-et-du-Centre-du-Québec,,,,1455,boulevard du carmel,"1455, boulevard du Carmel",Trois-Rivières,QC,G8Z3R7,Province of Quebec,46.3494033813,-72.5577468872,,,
CENTRE DE PROTECTION ET DE RÉADAPTATION POUR LES JEUNES ET LES MÈRES EN DIFFICULTÉ D'ADAPTATION EDGAR-LAFOREST,,RLS de Drummond,Centre intégré universitaire de santé et de services sociaux de la Mauricie-et-du-Centre-du-Québec,,,,3100,boulevard lemire,"3100, boulevard Lemire",Drummond,QC,J2B7R2,Province of Quebec,45.8538131714,-72.4821929932,,,
CENTRE D'HÉBERGEMENT DE DOLBEAU-MISTASSINI,,RLS de Maria-Chapdelaine,Centre intégré universitaire de santé et de services sociaux du Saguenay – Lac-Saint-Jean,,,,116,avenue des chutes,"116, avenue des Chutes",Maria-Chapdelaine,QC,G8L3X4,Province of Quebec,48.8911209106,-72.2123641968,,,
CLSC DE CÔTE-DES-NEIGES,,RLS de Côte-des-Neiges - Métro - Parc-Extension,Centre intégré universitaire de santé et de services sociaux du Centre-Ouest-de-l'Île-de-Montréal,,,,6560,chemin de la côte-des-neiges,"6560, chemin de la Côte-des-Neiges",Montréal,QC,H3S2A7,Province of Quebec,45.501865387,-73.6354064941,,,
CENTRE DE RÉADAPTATION EN DÉFICIENCE PHYSIQUE ET DE SERVICES EXTERNES POUR LES AÎNÉS D'YOUVILLE,,RLS de la Rivière-du-Nord - Mirabel-Nord,Centre intégré de santé et de services sociaux des Laurentides,,,,531,rue laviolette,"531, rue Laviolette",La Rivière-du-Nord,QC,J7Y2T8,Province of Quebec,45.7831420898,-74.0061645508,,,
HÔPITAL ET CHSLD D'YOUVILLE,,RLS de Sherbrooke,Centre de santé et de services sociaux - Institut universitaire de gériatrie de Sherbrooke,,,,1036,rue belvédère sud,"1036, rue Belvédère Sud",Sherbrooke,QC,J1H4C4,Province of Quebec,45.3906669617,-71.8951034546,,,
CHSLD D'EAST-ANGUS,,RLS du Haut-Saint-François,Centre intégré universitaire de santé et de services sociaux de l'Estrie – Centre hospitalier universitaire de Sherbrooke,,,,120,rue rousseau,"120, rue Rousseau",Le Haut-Saint-François,QC,J0B1R0,Province of Quebec,45.4769515991,-71.669883728,,,
CHSLD DE WEEDON,,RLS du Haut-Saint-François,Centre intégré universitaire de santé et de services sociaux de l'Estrie – Centre hospitalier universitaire de Sherbrooke,,,,245,rue saint-janvier,"245, rue Saint-Janvier",Le Haut-Saint-François,QC,J0B3J0,Province of Quebec,45.7009086609,-71.4636077881,,,
CENTRE D'HÉBERGEMENT DE FORTIERVILLE,,RLS de Bécancour–Nicolet-Yamaska,Centre intégré universitaire de santé et de services sociaux de la Mauricie-et-du-Centre-du-Québec,,,,521,avenue du foyer,"521, avenue du Foyer",Bécancour,QC,G0S1J0,Province of Quebec,46.4854812622,-72.0322036743,,,
CENTRE D'HÉBERGEMENT ROMAIN-BECQUET,,RLS de Bécancour–Nicolet-Yamaska,Centre intégré universitaire de santé et de services sociaux de la Mauricie-et-du-Centre-du-Québec,,,,255,route marie-victorin,"255, route Marie-Victorin",Bécancour,QC,G0X2Z0,Province of Quebec,46.5066452026,-72.2043228149,,,
CENTRE D'HÉBERGEMENT CHAMPLAIN,,RLS de Verdun - Côte St-Paul - St-Henri - Pointe-St-Charles,Centre intégré universitaire de santé et de services sociaux du Centre-Sud-de-l'Île-de-Montréal,,,,1325,rue crawford,"1325, rue Crawford",Montréal,QC,H4H2N6,Province of Quebec,45.4388465881,-73.586769104,,,
CLSC ET CENTRE D'HÉBERGEMENT DE MÉTABETCHOUAN-LAC-À-LA-CROIX,,RLS de Lac-Saint-Jean-Est,Centre intégré universitaire de santé et de services sociaux du Saguenay – Lac-Saint-Jean,,,,1895,route 169,"1895, Route 169",Lac-Saint-Jean-Est,QC,G8G1B4,Province of Quebec,48.4258270264,-71.8660507202,,,
CENTRE D'HÉBERGEMENT D'ALMA,,RLS de Lac-Saint-Jean-Est,Centre intégré universitaire de santé et de services sociaux du Saguenay – Lac-Saint-Jean,,,,50,chemin du foyer nord,"50, chemin du Foyer Nord",Lac-Saint-Jean-Est,QC,G8B5V6,Province of Quebec,48.5520515442,-71.6462554932,,,
CENTRE D'HÉBERGEMENT ISIDORE-GAUTHIER,,RLS de Lac-Saint-Jean-Est,Centre intégré universitaire de santé et de services sociaux du Saguenay – Lac-Saint-Jean,,,,5731,avenue du pont nord,"5731, avenue du Pont Nord",Lac-Saint-Jean-Est,QC,G8E1W8,Province of Quebec,48.6324424744,-71.6977996826,,,
CENTRE DE RÉADAPTATION EN DÉFICIENCE INTELLECTUELLE ET DU TROUBLE DU SPECTRE DE L'AUTISME MANSEAU,,RLS de Lanaudière-Nord,Centre intégré de santé et de services sociaux de Lanaudière,,,,1180,boulevard manseau,"1180, boulevard Manseau",Joliette,QC,J6E3G8,Province of Quebec,46.0167655945,-73.4524307251,,,
HÔPITAL DE VERDUN,,RLS de Verdun - Côte St-Paul - St-Henri - Pointe-St-Charles,Centre intégré universitaire de santé et de services sociaux du Centre-Sud-de-l'Île-de-Montréal,,,,4000,boulevard lasalle,"4000, boulevard LaSalle",Montréal,QC,H4G2A3,Province of Quebec,45.464099884,-73.5639877319,,,
CENTRE DE PROTECTION DE L'ENFANCE ET DE LA JEUNESSE DE JOLIETTE,,RLS de Lanaudière-Nord,Centre intégré de santé et de services sociaux de Lanaudière,,,,260,rue lavaltrie sud,"260, rue Lavaltrie Sud",Joliette,QC,J6E5X7,Province of Quebec,46.0181846619,-73.4410705566,,,
CENTRE DE RÉADAPTATION POUR LES JEUNES EN DIFFICULTÉ D'ADAPTATION DE JOLIETTE,,RLS de Lanaudière-Nord,Centre intégré de santé et de services sociaux de Lanaudière,,,,1170,rue ladouceur,"1170, rue Ladouceur",Joliette,QC,J6E3W7,Province of Quebec,46.0329170227,-73.4199676514,,,
CHSLD LE ROYER,,RLS de Rivière-des-Prairies - Anjou - Montréal-Est,Groupe Roy santé Inc.,,,,7351,rue jean-desprez,"7351, rue Jean-Desprez",Montréal,QC,H1K5A6,Province of Quebec,45.6175384521,-73.5476455688,,,
CLSC DE LA VISITATION ET GROUPE DE MÉDECINE DE FAMILLE UNIVERSITAIRE DES FAUBOURGS,,RLS des Faubourgs - Plateau-Mont-Royal - St-Louis-du-Parc,Centre intégré universitaire de santé et de services sociaux du Centre-Sud-de-l'Île-de-Montréal,,,,1705,rue de la visitation,"1705, rue de la Visitation",Montréal,QC,H2L3C3,Province of Quebec,45.5211143494,-73.5588607788,,,
FOYER UIKUPESHAKAN (ARC-EN-CIEL),,RLS de Sept-Îles,Bande Indienne des Montagnais de Sept-Iles et Maliotenam,,,,2,rue shimun,"2, rue Shimun",Sept-Rivières,QC,G4R4L9,Province of Quebec,50.2241134644,-66.4025650024,,,
CLSC DE SAINT-BRUNO-DE-MONTARVILLE,,RLS de Richelieu-Yamaska,Centre intégré de santé et de services sociaux de la Montérégie-Est,,,Bur.,50,chemin de la rabastalière est,"50, chemin de La Rabastalière Est, bur.",Longueuil,QC,J3V2A5,Province of Quebec,45.5281562805,-73.3408508301,,,
CENTRE D'HÉBERGEMENT HUBERT-MAISONNEUVE,,RLS de Thérèse-De Blainville,Centre intégré de santé et de services sociaux des Laurentides,,,,365,chemin de la grande-côte,"365, chemin de la Grande-Côte",Thérèse-De Blainville,QC,J7A1K4,Province of Quebec,45.6376495361,-73.7911911011,,,
CENTRE D'HÉBERGEMENT DE MARIA,,RLS de la Baie-des-Chaleurs,Centre intégré de santé et de services sociaux de la Gaspésie,,,,491,boulevard perron,"491, boulevard Perron",Avignon,QC,G0C1Y0,Province of Quebec,48.1736297607,-65.9857559204,,,
CENTRE HOSPITALIER RÉGIONAL DU GRAND-PORTAGE,,RLS de Rivière-du-Loup,Centre intégré de santé et de services sociaux du Bas-Saint-Laurent,,,,75,rue saint-henri,"75, rue Saint-Henri",Rivière-du-Loup,QC,G5R2A4,Province of Quebec,47.8187026978,-69.5402679443,,,
CENTRE D'HÉBERGEMENT DE RIVIÈRE-DU-LOUP,,RLS de Rivière-du-Loup,Centre intégré de santé et de services sociaux du Bas-Saint-Laurent,,,,28,rue joly,"28, rue Joly",Rivière-du-Loup,QC,G5R3H2,Province of Quebec,47.8340454102,-69.5423812866,,,
CENTRE D'HÉBERGEMENT DE SAINT-ANTONIN,,RLS de Rivière-du-Loup,Centre intégré de santé et de services sociaux du Bas-Saint-Laurent,,,,286,rue principale,"286, rue Principale",Rivière-du-Loup,QC,G0L2J0,Province of Quebec,47.7624282837,-69.4786758423,,,
HÔPITAL DE CHICOUTIMI,,RLS de Chicoutimi,Centre intégré universitaire de santé et de services sociaux du Saguenay – Lac-Saint-Jean,,,,305,rue saint-vallier,"305, rue Saint-Vallier,",Saguenay,QC,G7H5H6,Province of Quebec,48.4259757996,-71.0485992432,,,
CLSC DE LA BASSE-VILLE,,RLS de Québec-Sud,Centre intégré universitaire de santé et de services sociaux de la Capitale-Nationale,,,,50,rue saint-joseph est,"50, rue Saint-Joseph Est",Québec,QC,G1K3A5,Province of Quebec,46.8126144409,-71.2303161621,,,
CENTRE D'HÉBERGEMENT DE LORETTEVILLE,,RLS de Québec-Nord,Centre intégré universitaire de santé et de services sociaux de la Capitale-Nationale,,,,165,rue lessard,"165, rue Lessard",Québec,QC,G2B2V9,Province of Quebec,46.8501777649,-71.350440979,,,
CENTRE DE RÉADAPTATION EN DÉFICIENCE INTELLECTUELLE ET TROUBLE ENVAHISSANT DU DÉVELOPPEMENT,,RLS des Îles-de-la-Madeleine,Centre intégré de santé et de services sociaux des Îles,,,,695,chemin des caps,"695, chemin des Caps (Fatima)",Communauté maritime des Îles-de-la-Madeleine,QC,G4T2S9,Province of Quebec,47.4044113159,-61.8976898193,,,
CENTRE DE SANTÉ DE CHIBOUGAMAU,,,Centre régional de santé et de services sociaux de la Baie-James,,,,51,3e rue,"51, 3e Rue",Jamésie,QC,G8P1N1,Province of Quebec,49.9159507751,-74.3491821289,,,
CENTRE DE SANTE RENE-RICARD,,,Centre régional de santé et de services sociaux de la Baie-James,,,,32,3e avenue,"32, 3e Avenue",Jamésie,QC,G0W1H0,Province of Quebec,49.7807579041,-74.8543930054,,,
CENTRE DE SANTÉ LEBEL,,,Centre régional de santé et de services sociaux de la Baie-James,,,,950,boulevard quévillon nord,"950, boulevard Quévillon Nord",Jamésie,QC,J0Y1X0,Province of Quebec,49.0560798645,-76.9833145142,,,
CENTRE DE SANTÉ ISLE-DIEU,,,Centre régional de santé et de services sociaux de la Baie-James,,,,130,boulevard matagami,"130, boulevard Matagami",Jamésie,QC,J0Y2A0,Province of Quebec,49.7568397522,-77.628288269,,,
CENTRE DE SANTE DE RADISSON,,,Centre régional de santé et de services sociaux de la Baie-James,,,,199,rue jolliet,"199, rue Jolliet",Jamésie,QC,J0Y2X0,Province of Quebec,53.7918052673,-77.6195907593,,,
BUREAU D'AMOS,,RLS de l'Abitibi,Centre intégré de santé et de services sociaux de l'Abitibi-Témiscamingue,,,,341,rue principale nord,"341, rue Principale Nord, 5e ét.",Abitibi,QC,J9T2L8,Province of Quebec,48.5783653259,-78.1173019409,,,
CENTRE D'ORIENTATION L'ETAPE,,RLS de la Vallée-de-l'Or,Centre intégré de santé et de services sociaux de l'Abitibi-Témiscamingue,,,,700,boulevard forest,"700, boulevard Forest",La Vallée-de-l'Or,QC,J9P2L3,Province of Quebec,48.0981292725,-77.7888259888,,,
CLSC DE CHICOUTIMI,,RLS de Chicoutimi,Centre intégré universitaire de santé et de services sociaux du Saguenay – Lac-Saint-Jean,,,,411,rue de l'hôtel-dieu,"411, rue de l'Hôtel-Dieu",Saguenay,QC,G7H7Z5,Province of Quebec,48.4277038574,-71.0555648804,,,
CLSC DE CHICOUTIMI-NORD,,RLS de Chicoutimi,Centre intégré universitaire de santé et de services sociaux du Saguenay – Lac-Saint-Jean,,,,222,rue saint-éphrem,"222, rue Saint-Éphrem",Saguenay,QC,G7G2W5,Province of Quebec,48.439037323,-71.0624542236,,,
CHSLD DE LA PRAIRIE,,RLS de Jardins-Roussillon,Centre intégré de santé et de services sociaux de la Montérégie-Ouest,,,,500,avenue balmoral,"500, avenue Balmoral",Roussillon,QC,J5R4N5,Province of Quebec,45.4211158752,-73.4913101196,,,
CHSLD DE CHÂTEAUGUAY,,RLS de Jardins-Roussillon,Centre intégré de santé et de services sociaux de la Montérégie-Ouest,,,,95,chemin de la haute-rivière,"95, chemin de la Haute-Rivière",Roussillon,QC,J6K3P1,Province of Quebec,45.3534545898,-73.74193573,,,
CHSLD PIERRE-RÉMI-NARBONNE,,RLS de Jardins-Roussillon,Centre intégré de santé et de services sociaux de la Montérégie-Ouest,,,,110,rue du collège,"110, rue du Collège",Les Jardins-de-Napierville,QC,J0L2L0,Province of Quebec,45.258644104,-73.6167526245,,,
CENTRE MULTISERVICES DE SANTÉ ET DE SERVICES SOCIAUX DE LAC-ETCHEMIN,,RLS des Etchemins,Centre intégré de santé et de services sociaux de Chaudière-Appalaches,,,,331,place du sanatorium,"331, place du Sanatorium",Les Etchemins,QC,G0R1S0,Province of Quebec,46.400478363,-70.4980697632,,,
CLSC ET CHSLD DE SAINT-PROSPER,,RLS des Etchemins,Centre intégré de santé et de services sociaux de Chaudière-Appalaches,,,,2770,20e avenue,"2770, 20e avenue",Les Etchemins,QC,G0M1Y0,Province of Quebec,46.2110137939,-70.4839401245,,,
CLSC ET CHSLD DE SAINT-JEAN-PORT-JOLI,,RLS de Montmagny-L'Islet,Centre intégré de santé et de services sociaux de Chaudière-Appalaches,,,,430,rue jean-leclerc,"430, rue Jean-Leclerc",L'Islet,QC,G0R3G0,Province of Quebec,47.2084274292,-70.2577819824,,,
CLSC ET CENTRE DE SERVICES EXTERNES POUR LES AÎNÉS DE SAINT-PAMPHILE,,RLS de Montmagny-L'Islet,Centre intégré de santé et de services sociaux de Chaudière-Appalaches,,,,103,rue du foyer nord,"103, rue du Foyer Nord",L'Islet,QC,G0R3X0,Province of Quebec,46.9607276917,-69.7832489014,,,
CENTRE MULTISERVICES DE SANTÉ ET DE SERVICES SOCIAUX DES ESCOUMINS,,RLS de la Haute-Côte-Nord - Manicouagan,Centre intégré de santé et de services sociaux de la Côte-Nord,,,,4,rue de l'hôpital,"4, rue de l'Hôpital",La Haute-Côte-Nord,QC,G0T1K0,Province of Quebec,48.3520622253,-69.4070968628,,,
CENTRE MULTISERVICES DE SANTÉ ET DE SERVICES SOCIAUX DE FORESTVILLE,,RLS de la Haute-Côte-Nord - Manicouagan,Centre intégré de santé et de services sociaux de la Côte-Nord,,,,2,7e rue,"2, 7e rue",La Haute-Côte-Nord,QC,G0T1E0,Province of Quebec,48.7372131348,-69.0741882324,,,
CHSLD DES BERGERONNES,,RLS de la Haute-Côte-Nord - Manicouagan,Centre intégré de santé et de services sociaux de la Côte-Nord,,,,450,rue de la mer,"450, rue de la Mer",La Haute-Côte-Nord,QC,G0T1G0,Province of Quebec,48.2387886047,-69.5446243286,,,
CLSC ET CENTRE DE SERVICES EXTERNES POUR LES AÎNÉS DE LAURIER-STATION,,RLS Alphonse-Desjardins,Centre intégré de santé et de services sociaux de Chaudière-Appalaches,,,,135,rue de la station,"135, rue de la Station",Lotbinière,QC,G0S1N0,Province of Quebec,46.5398635864,-71.6296691895,,,
CHSLD ET CENTRE DE RÉADAPTATION EN DÉFICIENCE INTELLECTUELLE ET EN TROUBLE DU SPECTRE DE L'AUTISME DE SAINT-APOLLINAIRE,,RLS Alphonse-Desjardins,Centre intégré de santé et de services sociaux de Chaudière-Appalaches,,,,12,rue industrielle,"12, rue Industrielle",Lotbinière,QC,G0S2E0,Province of Quebec,46.6164398193,-71.5099258423,,,
CHSLD DE SAINT-SYLVESTRE,,RLS Alphonse-Desjardins,Centre intégré de santé et de services sociaux de Chaudière-Appalaches,,,,828,rue principale,"828, rue Principale",Lotbinière,QC,G0S3C0,Province of Quebec,46.363117218,-71.2294235229,,,
CLSC DES PATRIOTES,,RLS de Richelieu-Yamaska,Centre intégré de santé et de services sociaux de la Montérégie-Est,,,,300,rue serge-pépin,"300, rue Serge-Pépin",La Vallée-du-Richelieu,QC,J3G0B8,Province of Quebec,45.591003418,-73.1999206543,,,
CENTRE D'HÉBERGEMENT ANDRÉE-PERRAULT,,RLS de Richelieu-Yamaska,Centre intégré de santé et de services sociaux de la Montérégie-Est,,,,1955,avenue pratte,"1955, avenue Pratte",Les Maskoutains,QC,J2S7W5,Province of Quebec,45.6328926086,-72.9452209473,,,
PAVILLON SAINTE-FAMILLE,,RLS du Témiscaming,Centre intégré de santé et de services sociaux de l'Abitibi-Témiscamingue,,,,22,rue notre-dame nord,"22, rue Notre-Dame Nord",Témiscamingue,QC,J9V1W8,Province of Quebec,47.3329353333,-79.4442672729,,,
CHSLD DE VILLE-MARIE,,RLS du Témiscaming,Centre intégré de santé et de services sociaux de l'Abitibi-Témiscamingue,,,,37,rue saint-jean-baptiste sud,"37, rue Saint-Jean-Baptiste Sud",Témiscamingue,QC,J9V2A9,Province of Quebec,47.327003479,-79.4378585815,,,
CLSC DE SAINT-LAZARE-DE-BELLECHASSE,,RLS Alphonse-Desjardins,Centre intégré de santé et de services sociaux de Chaudière-Appalaches,,,100,a,rue monseigneur-bilodeau,"100-A, rue Monseigneur-Bilodeau",Bellechasse,QC,G0R3J0,Province of Quebec,46.6577415466,-70.8111572266,,,
CHSLD ET CLSC DE SAINT-GERVAIS,,RLS Alphonse-Desjardins,Centre intégré de santé et de services sociaux de Chaudière-Appalaches,,,,70,rue saint-étienne,"70, rue Saint-Étienne",Bellechasse,QC,G0R3C0,Province of Quebec,46.7123718262,-70.8947677612,,,
CHSLD DE SAINT-RAPHAËL,,RLS Alphonse-Desjardins,Centre intégré de santé et de services sociaux de Chaudière-Appalaches,,,,84,rue du foyer,"84, rue du Foyer",Bellechasse,QC,G0R4C0,Province of Quebec,46.7927284241,-70.7516708374,,,
CHSLD ET CLSC DE SAINT-ANSELME,,RLS Alphonse-Desjardins,Centre intégré de santé et de services sociaux de Chaudière-Appalaches,,,,40,chemin saint-marc,"40, chemin Saint-Marc",Bellechasse,QC,G0R2N0,Province of Quebec,46.6297225952,-70.9716720581,,,
CHSLD ET CLSC DE SAINTE-CLAIRE,,RLS Alphonse-Desjardins,Centre intégré de santé et de services sociaux de Chaudière-Appalaches,,,,80,boulevard bégin,"80, boulevard Bégin",Bellechasse,QC,G0R2V0,Province of Quebec,46.5998840332,-70.8712997437,,,
FOYER DE GROUPE POUR LES JEUNES EN DIFFICULTÉ D'ADAPTATION LENNOX,,RLS de Laval,Centre intégré de santé et de services sociaux de Laval,,,,1445,rue lennox,"1445, rue Lennox",Laval,QC,H7W2Y4,Province of Quebec,45.5469093323,-73.7579956055,,,
FOYER DE GROUPE POUR LES JEUNES EN DIFFICULTÉ D'ADAPTATION DE HONFLEUR,,RLS de Laval,Centre intégré de santé et de services sociaux de Laval,,,,2405,rue de honfleur,"2405, rue de Honfleur",Laval,QC,H7E1Y2,Province of Quebec,45.5889930725,-73.6767120361,,,
CENTRE D'HÉBERGEMENT DE SAINT-EUSÈBE,,RLS d’Arthabaska-et-de-L’Érable,Centre intégré universitaire de santé et de services sociaux de la Mauricie-et-du-Centre-du-Québec,,,,435,rue saint-jacques est,"435, rue Saint-Jacques Est",L'Érable,QC,G6L5C5,Province of Quebec,46.1777687073,-71.8693161011,,,
CENTRE D'HÉBERGEMENT DE LYSTER,,RLS d’Arthabaska-et-de-L’Érable,Centre intégré universitaire de santé et de services sociaux de la Mauricie-et-du-Centre-du-Québec,,,,2180,rue bécancour,"2180, rue Bécancour",L'Érable,QC,G0S1V0,Province of Quebec,46.3706550598,-71.620475769,,,
CENTRE DE PROTECTION DE L'ENFANCE ET DE LA JEUNESSE DE BAIE-COMEAU,,RLS de la Haute-Côte-Nord - Manicouagan,Centre intégré de santé et de services sociaux de la Côte-Nord,,,,835,boulevard jolliet,"835, boulevard Jolliet",Manicouagan,QC,G5C1P5,Province of Quebec,49.1904411316,-68.2569503784,,,
HÔPITAL DE MATANE,,RLS de Matane,Centre intégré de santé et de services sociaux du Bas-Saint-Laurent,,,,333,rue thibault,"333, rue Thibault",La Matanie,QC,G4W2W5,Province of Quebec,48.8435668945,-67.5244140625,,,
CENTRE D'HÉBERGEMENT DE MATANE,,RLS de Matane,Centre intégré de santé et de services sociaux du Bas-Saint-Laurent,,,,150,avenue saint-jérôme,"150, avenue Saint-Jérôme",La Matanie,QC,G4W3A2,Province of Quebec,48.840927124,-67.5320129395,,,
CHSLD DE HAVRE-SAINT-PIERRE,,RLS de la Minganie,Centre intégré de santé et de services sociaux de la Côte-Nord,,,,933,rue boréale,"933, rue Boréale",Minganie,QC,G0G1P0,Province of Quebec,50.2380065918,-63.6077156067,,,
CLSC DE CHANDLER,,RLS du Rocher-Percé,Centre intégré de santé et de services sociaux de la Gaspésie,,,,633,avenue dr-g.-daignault,"633, avenue Dr-G.-Daignault",Le Rocher-Percé,QC,G0C1K0,Province of Quebec,48.3537864685,-64.6699523926,,,
CENTRE D'HÉBERGEMENT DU ROCHER-PERCÉ,,RLS du Rocher-Percé,Centre intégré de santé et de services sociaux de la Gaspésie,,,,75,rue des cèdres,"75, rue des Cèdres",Le Rocher-Percé,QC,G0C1K0,Province of Quebec,48.34948349,-64.674041748,,,
CENTRE DE SANTÉ ET DE SERVICES SOCIAUX DE MEMPHRÉMAGOG,,RLS de Memphrémagog,Centre intégré universitaire de santé et de services sociaux de l'Estrie – Centre hospitalier universitaire de Sherbrooke,,,,50,rue saint-patrice est,"50, rue Saint-Patrice Est",Memphrémagog,QC,J1X3X3,Province of Quebec,45.2650642395,-72.1450500488,,,
CENTRE DE PROTECTION ET DE RÉADAPTATION POUR LES JEUNES ET LES MÈRES EN DIFFICULTÉ D'ADAPTATION CHAREST,,RLS de Québec-Sud,Centre intégré universitaire de santé et de services sociaux de la Capitale-Nationale,,,,540,boulevard charest est,"540, boulevard Charest Est",Québec,QC,G1K8L1,Province of Quebec,46.8143157959,-71.2226867676,,,
CENTRE DE PROTECTION ET DE RÉADAPTATION POUR LES JEUNES ET LES MÈRES EN DIFFICULTÉ D'ADAPTATION MONT-D'YOUVILLE,,RLS de Québec-Nord,Centre intégré universitaire de santé et de services sociaux de la Capitale-Nationale,,,,2915,avenue du bourg-royal,"2915, avenue du Bourg-Royal",Québec,QC,G1C3S2,Province of Quebec,46.8566360474,-71.2197647095,,,
CENTRE MULTISERVICES DE SANTÉ ET DE SERVICES SOCIAUX LAFLÈCHE,,RLS du Centre-de-la-Mauricie,Centre intégré universitaire de santé et de services sociaux de la Mauricie-et-du-Centre-du-Québec,,,,1650,avenue de grand-mère,"1650, avenue de Grand-Mère",Shawinigan,QC,G9T2K4,Province of Quebec,46.6063842773,-72.7073822021,,,
CENTRE MULTISERVICES DE SANTÉ ET DE SERVICES SOCIAUX DE FORTIERVILLE,,RLS de Bécancour–Nicolet-Yamaska,Centre intégré universitaire de santé et de services sociaux de la Mauricie-et-du-Centre-du-Québec,,,,216,rue principale,"216, rue Principale",Bécancour,QC,G0S1J0,Province of Quebec,46.4863586426,-72.030380249,,,
SERVICES DE READAPTATION AUX ADULTES ET AUX AINES,,RLS de Québec-Sud,Centre intégré universitaire de santé et de services sociaux de la Capitale-Nationale,,,,525,boulevard wilfrid-hamel,"525, boulevard Wilfrid-Hamel",Québec,QC,G1M2S8,Province of Quebec,46.8197555542,-71.2459564209,,,
CENTRE DE RÉADAPTATION EN DÉFICIENCE PHYSIQUE SAINT-LOUIS,,RLS de Québec-Sud,Centre intégré universitaire de santé et de services sociaux de la Capitale-Nationale,,,,2975,chemin saint-louis,"2975, chemin Saint-Louis",Québec,QC,G1W1P9,Province of Quebec,46.759475708,-71.2857284546,,,
HÔTEL-DIEU DU CENTRE HOSPITALIER DE L'UNIVERSITÉ DE MONTRÉAL,,RLS des Faubourgs - Plateau-Mont-Royal - St-Louis-du-Parc,Centre hospitalier de l'Université de Montréal,,,,3840,rue saint-urbain,"3840, rue Saint-Urbain",Montréal,QC,H2W1T8,Province of Quebec,45.5139427185,-73.5781097412,,,
CLSC DE WEEDON,,RLS du Haut-Saint-François,Centre intégré universitaire de santé et de services sociaux de l'Estrie – Centre hospitalier universitaire de Sherbrooke,,,,460,2e avenue,"460, 2e Avenue",Le Haut-Saint-François,QC,J0B3J0,Province of Quebec,45.7055206299,-71.462020874,,,
CENTRE DE SERVICES POUR LES AÎNÉS DE SAINT-LAMBERT,,RLS de Champlain,Centre intégré de santé et de services sociaux de la Montérégie-Centre,,,,831,avenue notre-dame,"831, avenue Notre-Dame",Longueuil,QC,J4R1S1,Province of Quebec,45.4983100891,-73.503616333,,,
CHSLD CHAMPLAIN,,RLS de Champlain,Centre intégré de santé et de services sociaux de la Montérégie-Centre,,,,5050,place,"5050, place Nogent",Longueuil,QC,J4Y2K3,Province of Quebec,45.4472618103,-73.4531555176,,,
CHSLD HENRIETTE-CÉRÉ,,RLS de Champlain,Centre intégré de santé et de services sociaux de la Montérégie-Centre,,,,6435,chemin de chambly,"6435, chemin de Chambly",Longueuil,QC,J3Y3R6,Province of Quebec,45.4966125488,-73.4040374756,,,
"HÔPITAL, CLSC ET CENTRE D'HÉBERGEMENT D'ASBESTOS",,RLS d'Asbestos,Centre intégré universitaire de santé et de services sociaux de l'Estrie – Centre hospitalier universitaire de Sherbrooke,,,,475,3e avenue,"475, 3e Avenue",Les Sources,QC,J1T1X6,Province of Quebec,45.7717666626,-71.9260787964,,,
CLSC DE RICHMOND,,RLS de Val Saint-François,Centre intégré universitaire de santé et de services sociaux de l'Estrie – Centre hospitalier universitaire de Sherbrooke,,,,110,rue barlow,"110, rue Barlow",Le Val-Saint-François,QC,J0B2H0,Province of Quebec,45.6601638794,-72.1400909424,,,
CHSLD SAINT-JOSEPH,,RLS de Sherbrooke,Centre de santé et de services sociaux - Institut universitaire de gériatrie de Sherbrooke,,,,611,boulevard queen-victoria,"611, boulevard Queen-Victoria",Sherbrooke,QC,J1H3R6,Province of Quebec,45.4081115723,-71.9028320313,,,
CENTRE DE SANTÉ ET DE SERVICES SOCIAUX DE LA MRC-DE-COATICOOK,,RLS de Coaticook,Centre intégré universitaire de santé et de services sociaux de l'Estrie – Centre hospitalier universitaire de Sherbrooke,,,,138,rue jeanne-mance,"138, rue Jeanne-Mance",Coaticook,QC,J1A1W3,Province of Quebec,45.134979248,-71.8123321533,,,
HÔPITAL DE DOLBEAU-MISTASSINI,,RLS de Maria-Chapdelaine,Centre intégré universitaire de santé et de services sociaux du Saguenay – Lac-Saint-Jean,,,,2000,boulevard sacré-coeur,"2000, boulevard Sacré-Coeur",Maria-Chapdelaine,QC,G8L2R5,Province of Quebec,48.8858337402,-72.239364624,,,
CLSC LES JARDINS DU MONASTERE,,RLS de Maria-Chapdelaine,Centre intégré universitaire de santé et de services sociaux du Saguenay – Lac-Saint-Jean,,,,201,boulevard des pères,"201, boulevard des Pères",Maria-Chapdelaine,QC,G8L5K6,Province of Quebec,48.8904571533,-72.2261962891,,,
HÔPITAL D'ALMA,,RLS de Lac-Saint-Jean-Est,Centre intégré universitaire de santé et de services sociaux du Saguenay – Lac-Saint-Jean,,,,300,boulevard champlain sud,"300, boulevard Champlain Sud",Lac-Saint-Jean-Est,QC,G8B5W3,Province of Quebec,48.5506210327,-71.6650772095,,,
CLSC DE POHENEGAMOOK,,RLS de Témiscouata,Centre intégré de santé et de services sociaux du Bas-Saint-Laurent,,,,1922,rue saint-vallier,"1922, rue Saint-Vallier",Témiscouata,QC,G0L1J0,Province of Quebec,47.4897575378,-69.2813339233,,,
HÔPITAL ET CHSLD DU PONTIAC,,RLS du Pontiac,Centre intégré de santé et de services sociaux de l'Outaouais,,,,200,rue argue,"200, rue Argue",Pontiac,QC,J0X2Y0,Province of Quebec,45.6059684753,-76.4840087891,,,
CLSC ET CENTRE DE SERVICES EXTERNES POUR LES AÎNÉS DE SHAWVILLE,,RLS du Pontiac,Centre intégré de santé et de services sociaux de l'Outaouais,,,,290,rue marion,"290, rue Marion",Pontiac,QC,J0X2Y0,Province of Quebec,45.6057777405,-76.4865493774,,,
CENTRE D'HÉBERGEMENT DE MANSFIELD-ET-PONTEFRACT,,RLS du Pontiac,Centre intégré de santé et de services sociaux de l'Outaouais,,,,230,chemin de la chute,"230, chemin de la Chute",Pontiac,QC,J0X1R0,Province of Quebec,45.8539428711,-76.7219238281,,,
CLSC ET CENTRE D'HÉBERGEMENT DE LA PETITE-NATION,,RLS de la Vallée-de-la-Lièvre et de la Petite-Nation,Centre intégré de santé et de services sociaux de l'Outaouais,,,,14,rue saint-andré,"14, rue Saint-André",Papineau,QC,J0V1W0,Province of Quebec,45.7224998474,-75.0584716797,,,
CLSC LEGUERRIER,,RLS de Grande-Rivière - Hull - Gatineau,Centre intégré de santé et de services sociaux de l'Outaouais,,,,425,rue leguerrier,"425, rue Leguerrier",Gatineau,QC,J9H6N8,Province of Quebec,45.3996124268,-75.8360366821,,,
CENTRE D'HÉBERGEMENT D'AYLMER,,RLS de Grande-Rivière - Hull - Gatineau,Centre intégré de santé et de services sociaux de l'Outaouais,,,,445,boulevard wilfrid-lavigne,"445, boulevard Wilfrid-Lavigne",Gatineau,QC,J9H6H9,Province of Quebec,45.3991088867,-75.8382797241,,,
CENTRE MULTISERVICES DE SANTÉ ET DE SERVICES SOCIAUX CLOUTIER,,RLS de Trois-Rivières,Centre intégré universitaire de santé et de services sociaux de la Mauricie-et-du-Centre-du-Québec,,,,155,rue toupin,"155, rue Toupin",Trois-Rivières,QC,G8T3Z8,Province of Quebec,46.3652687073,-72.5049819946,,,
CENTRE DE RÉADAPTATION EN DÉFICIENCE PHYSIQUE DE GRANBY,,RLS de la Haute-Yamaska,Centre intégré de santé et de services sociaux de la Montérégie-Ouest,,,,10,rue saint-hubert,"10, rue Saint-Hubert",La Haute-Yamaska,QC,J2G5L9,Province of Quebec,45.4032058716,-72.7332382202,,,
CENTRE DE RÉADAPTATION EN DÉFICIENCE PHYSIQUE DE SALABERRY-DE-VALLEYFIELD,,RLS du Suroît,Centre intégré de santé et de services sociaux de la Montérégie-Ouest,,,Bureau 210,30,avenue du centenaire,"30, avenue du Centenaire, bureau 210",Beauharnois-Salaberry,QC,J6S5X4,Province of Quebec,45.2595787048,-74.1277008057,,,
CHSLD DE VAL-D'OR,,RLS de la Vallée-de-l'Or,Centre intégré de santé et de services sociaux de l'Abitibi-Témiscamingue,,,,1212,avenue brébeuf,"1212, avenue Brébeuf",La Vallée-de-l'Or,QC,J9P2C9,Province of Quebec,48.1017990112,-77.7987670898,,,
CLSC DE SENNETERRE,,RLS de la Vallée-de-l'Or,Centre intégré de santé et de services sociaux de l'Abitibi-Témiscamingue,,,,961,rue de la clinique,"961, rue de la Clinique",La Vallée-de-l'Or,QC,J0Y2M0,Province of Quebec,48.38438797,-77.2529983521,,,
CHSLD D'AMOS,,RLS de l'Abitibi,Centre intégré de santé et de services sociaux de l'Abitibi-Témiscamingue,,,,612,5e avenue ouest,"612, 5e Avenue Ouest",Abitibi,QC,J9T4L3,Province of Quebec,48.5758628845,-78.1251296997,,,
CHSLD CHAMPAGNAT,,RLS du Haut-Richelieu - Rouville,Centre intégré de santé et de services sociaux de la Montérégie-Centre,,,,370,5e avenue,"370, 5e Avenue",Le Haut-Richelieu,QC,J2X1V1,Province of Quebec,45.3078575134,-73.2330627441,,,
CENTRE MULTISERVICES DE SANTÉ ET DE SERVICES SOCIAUX DU HAUT-SAINT-MAURICE,,RLS du Haut-Saint-Maurice,Centre intégré universitaire de santé et de services sociaux de la Mauricie-et-du-Centre-du-Québec,,,,885,boulevard ducharme,"885, boulevard Ducharme",La Tuque,QC,G9X3C1,Province of Quebec,47.4284515381,-72.7856903076,,,
FOYER DE GROUPE POUR LES JEUNES EN DIFFICULTÉ D'ADAPTATION DE CHARLESBOURG,,RLS de Québec-Nord,Centre intégré universitaire de santé et de services sociaux de la Capitale-Nationale,,,,1085,rue de sologne,"1085, rue de Sologne",Québec,QC,G1H1K8,Province of Quebec,46.8638572693,-71.2498931885,,,
"CLSC, HOPITAL ET CENTRE D'HEBERGEMENT CHRIST-ROI",,RLS de Québec-Sud,Centre intégré universitaire de santé et de services sociaux de la Capitale-Nationale,,,,900,boulevard wilfrid-hamel,"900, boulevard Wilfrid-Hamel",Québec,QC,G1M2R9,Province of Quebec,46.8107833862,-71.2582092285,,,
CENTRE D'HÉBERGEMENT DE CHARLESBOURG,,RLS de Québec-Nord,Centre intégré universitaire de santé et de services sociaux de la Capitale-Nationale,,,,7150,boulevard cloutier,"7150, boulevard Cloutier",Québec,QC,G1H5V5,Province of Quebec,46.8513717651,-71.2742538452,,,
CLSC D'OTTER LAKE,,RLS du Pontiac,Centre intégré de santé et de services sociaux de l'Outaouais,,,,340,avenue martineau,"340, avenue Martineau",Pontiac,QC,J0X2P0,Province of Quebec,45.8447189331,-76.4334030151,,,
CHSLD DENIS-MARCOTTE,,RLS de la région de Thetford,Centre intégré de santé et de services sociaux de Chaudière-Appalaches,,,,56,9e rue sud,"56, 9e rue Sud",Les Appalaches,QC,G6G5H6,Province of Quebec,46.1036758423,-71.2816085815,,,
CHSLD MARC-ANDRÉ-JACQUES,,RLS de la région de Thetford,Centre intégré de santé et de services sociaux de Chaudière-Appalaches,,,,272,rue principale,"272, rue Principale",Les Appalaches,QC,G0N1G0,Province of Quebec,46.2159423828,-71.0742416382,,,
CHSLD DU LAC-NOIR,,RLS de la région de Thetford,Centre intégré de santé et de services sociaux de Chaudière-Appalaches,,,,4064,rue du foyer,"4064, rue du Foyer",Les Appalaches,QC,G6H2A1,Province of Quebec,46.0464782715,-71.3616409302,,,
CHSLD RENÉ-LAVOIE,,RLS du Granit,Centre intégré de santé et de services sociaux de Chaudière-Appalaches,,,,260,avenue champlain,"260, avenue Champlain",Les Appalaches,QC,G0N1E0,Province of Quebec,45.8990249634,-71.3553619385,,,
CENTRE D'HÉBERGEMENT DE SAINT-FÉLICIEN,,RLS du Domaine-du-Roy,Centre intégré universitaire de santé et de services sociaux du Saguenay – Lac-Saint-Jean,,,,1229,boulevard sacré-coeur,"1229, boulevard Sacré-Coeur",Le Domaine-du-Roy,QC,G8K1A5,Province of Quebec,48.6526145935,-72.4481124878,,,
CENTRE D'HÉBERGEMENT LUCIEN-G. ROLLAND,,RLS de la Rivière-du-Nord - Mirabel-Nord,Centre intégré de santé et de services sociaux des Laurentides,,,,175,rue durand,"175, rue Durand",La Rivière-du-Nord,QC,J7Z2V4,Province of Quebec,45.7641677856,-74.002204895,,,
RÉSIDENCE BOURG-JOLI,,RLS de Richelieu-Yamaska,CHSLD Résidence Bourg-Joli Inc.,,,,2915,boulevard laframboise,"2915, boulevard Laframboise",Les Maskoutains,QC,J2S4Z3,Province of Quebec,45.6335144043,-72.964225769,,,
CLSC DE SAINT-PAULIN,,RLS de Maskinongé,Centre intégré universitaire de santé et de services sociaux de la Mauricie-et-du-Centre-du-Québec,,,,2841,rue laflèche,"2841, rue Laflèche",Maskinongé,QC,J0K3G0,Province of Quebec,46.4183998108,-73.0135421753,,,
CLSC DE SAINT-FABIEN-DE-PANET,,RLS de Montmagny-L'Islet,Centre intégré de santé et de services sociaux de Chaudière-Appalaches,,,,10,rue alphonse,"10, rue Alphonse",Montmagny,QC,G0R2J0,Province of Quebec,46.6576080322,-70.1524353027,,,
CHSLD DE SAINT-FABIEN-DE-PANET,,RLS de Montmagny-L'Islet,Centre intégré de santé et de services sociaux de Chaudière-Appalaches,,,,19,rue principale est,"19, rue Principale Est",Montmagny,QC,G0R2J0,Province of Quebec,46.6558074951,-70.1459503174,,,
CLSC ET CHSLD DE MONTMAGNY,,RLS de Montmagny-L'Islet,Centre intégré de santé et de services sociaux de Chaudière-Appalaches,,,,168,rue saint-joseph,"168, rue Saint-Joseph",Montmagny,QC,G5V1H8,Province of Quebec,46.982219696,-70.5540084839,,,
HÔPITAL DU CENTRE-DE-LA-MAURICIE,,RLS du Centre-de-la-Mauricie,Centre intégré universitaire de santé et de services sociaux de la Mauricie-et-du-Centre-du-Québec,,,,50,119e rue,"50, 119e Rue",Shawinigan,QC,G9P5K1,Province of Quebec,46.5255851746,-72.7433929443,,,
HÔPITAL ET CENTRE D'HÉBERGEMENT EN SANTÉ MENTALE DE LA MAURICIE-ET-DU-CENTRE-DU-QUÉBEC,,RLS du Centre-de-la-Mauricie,Centre intégré universitaire de santé et de services sociaux de la Mauricie-et-du-Centre-du-Québec,,,,1705,avenue georges,"1705, avenue Georges",Shawinigan,QC,G9N2N1,Province of Quebec,46.5530319214,-72.7471466064,,,
CENTRE DE RÉADAPTATION EN DÉFICIENCE INTELLECTUELLE ET EN TROUBLE DU SPECTRE DE L’AUTISME DE LA RUE MACDONALD,,RLS du Haut-Richelieu - Rouville,Centre intégré de santé et de services sociaux de la Montérégie-Ouest,,,Bureau 105,315,rue macdonald,"315, rue MacDonald, bureau 105",Le Haut-Richelieu,QC,J3B8J3,Province of Quebec,45.3259544373,-73.2657470703,,,
CLSC ET CENTRE D'HEBERGEMENT DE BEDFORD,,RLS de la Pommeraie,Centre intégré universitaire de santé et de services sociaux de l'Estrie – Centre hospitalier universitaire de Sherbrooke,,,,34,rue saint-joseph,"34, rue Saint-Joseph",Brome-Missisquoi,QC,J0J1A0,Province of Quebec,45.125541687,-72.9834518433,,,
CHSLD DE COWANSVILLE,,RLS de la Pommeraie,Centre intégré universitaire de santé et de services sociaux de l'Estrie – Centre hospitalier universitaire de Sherbrooke,,,,200,rue principale,"200, rue Principale",Brome-Missisquoi,QC,J2K1J2,Province of Quebec,45.2078437805,-72.7430343628,,,
CHSLD DE FARNHAM,,RLS de la Pommeraie,Centre intégré universitaire de santé et de services sociaux de l'Estrie – Centre hospitalier universitaire de Sherbrooke,,,,800,rue saint-paul,"800, rue Saint-Paul",Brome-Missisquoi,QC,J2N2K6,Province of Quebec,45.2876701355,-72.9720001221,,,
CHSLD DE SUTTON,,RLS de la Pommeraie,Centre intégré universitaire de santé et de services sociaux de l'Estrie – Centre hospitalier universitaire de Sherbrooke,,,,50,rue western,"50, rue Western",Brome-Missisquoi,QC,J0E2K0,Province of Quebec,45.109916687,-72.6188964844,,,
CLSC DE FARNHAM,,RLS de la Pommeraie,Centre intégré universitaire de santé et de services sociaux de l'Estrie – Centre hospitalier universitaire de Sherbrooke,,,,660,rue saint-paul,"660, rue Saint-Paul",Brome-Missisquoi,QC,J2N3B9,Province of Quebec,45.2857894897,-72.9733428955,,,
MISHTA-AN-AUASS,,RLS de Sept-Îles,Bande Indienne des Montagnais de Sept-Iles et Maliotenam,,,,1126,avenue de quen,"1126, avenue de Quen",Sept-Rivières,QC,G4R5P8,Province of Quebec,50.2235107422,-66.406288147,,,
PAVILLON SAINTE-MARIE,,RLS de Trois-Rivières,Centre intégré universitaire de santé et de services sociaux de la Mauricie-et-du-Centre-du-Québec,,,,1991,boulevard du carmel,"1991, boulevard du Carmel",Trois-Rivières,QC,G8Z3R9,Province of Quebec,46.3543586731,-72.5631866455,,,
CENTRE D'HÉBERGEMENT DE VALLÉE-DE-LA-LIÈVRE,,RLS de la Vallée-de-la-Lièvre et de la Petite-Nation,Centre intégré de santé et de services sociaux de l'Outaouais,,,,111,rue gérard-gauthier,"111, rue Gérard-Gauthier",Gatineau,QC,J8L3C9,Province of Quebec,45.5804176331,-75.4228057861,,,
CENTRE D'HÉBERGEMENT ERNEST-BRISSON,,RLS de Grande-Rivière - Hull - Gatineau,Centre intégré de santé et de services sociaux de l'Outaouais,,,,134,rue jean-rené-monette,"134, rue Jean-René-Monette",Gatineau,QC,J8P7C3,Province of Quebec,45.4815864563,-75.6474075317,,,
CLSC ET CENTRE DE RÉADAPTATION EN DÉPENDANCE DE SAINT-TITE,,RLS de la Vallée-de-la-Batiscan,Centre intégré universitaire de santé et de services sociaux de la Mauricie-et-du-Centre-du-Québec,,,,750,rue du couvent,"750, rue du Couvent",Mékinac,QC,G0X3H0,Province of Quebec,46.7286720276,-72.5581588745,,,
CENTRE D'HÉBERGEMENT FREDERICK-GEORGE-HERIOT,,RLS de Drummond,Centre intégré universitaire de santé et de services sociaux de la Mauricie-et-du-Centre-du-Québec,,,,75,rue saint-georges,"75, rue Saint-Georges",Drummond,QC,J2C4G6,Province of Quebec,45.8880615234,-72.4925613403,,,
CENTRE D'HÉBERGEMENT ET CLSC DE NOTRE-DAME-DU-BON-CONSEIL,,RLS de Drummond,Centre intégré universitaire de santé et de services sociaux de la Mauricie-et-du-Centre-du-Québec,,,,91,rue saint-thomas,"91, rue Saint-Thomas",Drummond,QC,J0C1A0,Province of Quebec,45.9990501404,-72.3401107788,,,
CLSC DE SEPT-ÎLES,,RLS de Sept-Îles,Centre intégré de santé et de services sociaux de la Côte-Nord,,,,405,avenue brochu,"405, avenue Brochu",Sept-Rivières,QC,G4R2W9,Province of Quebec,50.2054252625,-66.3845062256,,,
CENTRE DE RÉADAPTATION POUR LES JEUNES EN DIFFICULTÉ D'ADAPTATION DU MONT SAINT-ANTOINE,,RLS de Rivière-des-Prairies - Anjou - Montréal-Est,Centre intégré universitaire de santé et de services sociaux du Centre-Sud-de-l'Île-de-Montréal,,,,8147,rue sherbrooke est,"8147, rue Sherbrooke Est",Montréal,QC,H1L1A7,Province of Quebec,45.5990180969,-73.53565979,,,
CENTRE D'HÉBERGEMENT JEANNE-MANCE,,RLS de Côte-des-Neiges - Métro - Parc-Extension,Centre intégré universitaire de santé et de services sociaux du Centre-Sud-de-l'Île-de-Montréal,,,,3430,rue jeanne-mance,"3430, rue Jeanne-Mance",Montréal,QC,H2X2J9,Province of Quebec,45.5094566345,-73.5719451904,,,
CLSC MEILLEUR DE REPENTIGNY,,RLS de Lanaudière-Sud,Centre intégré de santé et de services sociaux de Lanaudière,,,,193,boulevard lacombe,"193, boulevard Lacombe",L'Assomption,QC,J5Z3C4,Province of Quebec,45.7448883057,-73.4798736572,,,
CENTRE D'HÉBERGEMENT DE SAINT-GABRIEL-DE-BRANDON,,RLS de Lanaudière-Nord,Centre intégré de santé et de services sociaux de Lanaudière,,,,90,rue maskinongé,"90, rue Maskinongé",D'Autray,QC,J0K2N0,Province of Quebec,46.2954788208,-73.3869857788,,,
CLSC DE LOW,,RLS de la Vallée-de-la-Gatineau,Centre intégré de santé et de services sociaux de l'Outaouais,,,,334,route 105,"334, route 105",La Vallée-de-la-Gatineau,QC,J0X2C0,Province of Quebec,45.809211731,-75.9496612549,,,
CENTRE DE SERVICES AMBULATOIRES DE LÉVIS,,RLS Alphonse-Desjardins,Centre intégré de santé et de services sociaux de Chaudière-Appalaches,,,,106,rue jean-xxiii,"106, rue Jean-XXIII",Lévis,QC,G6V2K1,Province of Quebec,46.8156814575,-71.1749343872,,,
CENTRE D'ACTIVITÉS DE JOUR EN DÉFICIENCE INTELLECTUELLE ET DU TROUBLE DU SPECTRE DE L'AUTISME DUMAIS-NORD,,RLS de la région de Thetford,Centre intégré de santé et de services sociaux de Chaudière-Appalaches,,,,31,rue dumais nord,"31, rue Dumais Nord",Les Appalaches,QC,G6G3R2,Province of Quebec,46.0904998779,-71.301322937,,,
CLSC DE SAINT-JEAN-DE-DIEU,,RLS des Basques,Centre intégré de santé et de services sociaux du Bas-Saint-Laurent,,,,20,rue de la villa,"20, rue de la Villa",Les Basques,QC,G0L3M0,Province of Quebec,48.0064086914,-69.0412216187,,,
CENTRE D'HÉBERGEMENT ET CLSC LUCIEN-SHOONER,,RLS de Bécancour–Nicolet-Yamaska,Centre intégré universitaire de santé et de services sociaux de la Mauricie-et-du-Centre-du-Québec,,,,50,rue du lieut.-gouverneur-paul-comtoi,"50, rue du Lieut.-Gouverneur-Paul-Comtoi",Nicolet-Yamaska,QC,J0G1J0,Province of Quebec,46.0681724548,-72.8113479614,,,
CENTRE D'HÉBERGEMENT ET CLSC DE SAINT-CÉLESTIN,,RLS de Bécancour–Nicolet-Yamaska,Centre intégré universitaire de santé et de services sociaux de la Mauricie-et-du-Centre-du-Québec,,,,475,rue houde,"475, rue Houde",Nicolet-Yamaska,QC,J0C1G0,Province of Quebec,46.2136688232,-72.4315719604,,,
