,idx,facility_name,facility_type,longitude,latitude,street_addr,city,province,phone,website,provider,filename
0,0,SIX08 PHARMACY,covid_vaccination_centres,-112.837636398284,49.692741976171,608 5 AVE S,LETHBRIDGE,AB,403-694-3352,,Calgary,AB_Calgary_covid_vaccination_centres.csv
1,1,PENHOLD PHARMACY,covid_vaccination_centres,-113.868841727683,52.139603574175,3-1380 ROBINSON AVE,PENHOLD,AB,403-886-4466,,Calgary,AB_Calgary_covid_vaccination_centres.csv
2,2,MANNING PHARMACY,covid_vaccination_centres,-113.423700179554,53.60039277954,228 MANNING CROSS NW,EDMONTON,AB,780-758-9595,,Calgary,AB_Calgary_covid_vaccination_centres.csv
3,3,WHITEMUD PHARMACY,covid_vaccination_centres,-113.503608272575,53.478009981513,101-4075 106 ST NW,EDMONTON,AB,780-395-0788,,Calgary,AB_Calgary_covid_vaccination_centres.csv
4,4,UNIVERSAL HEALTH PHARMACY #6,covid_vaccination_centres,-113.988956744033,51.275632907198,3-1861 MEADOWBROOK DR SE,AIRDRIE,AB,403-980-7001,,Calgary,AB_Calgary_covid_vaccination_centres.csv
5,5,THORHILD DRUG STORE,covid_vaccination_centres,-113.124249072787,54.160244347264,722 1 ST,THORHILD,AB,780-398-3883,,Calgary,AB_Calgary_covid_vaccination_centres.csv
6,6,STURGEON PHARMACY,covid_vaccination_centres,,,150-625 ST ALBERT TR,ST ALBERT,AB,780-569-1722,,Calgary,AB_Calgary_covid_vaccination_centres.csv
7,7,BURNEWOOD SQUARE PHARMACY,covid_vaccination_centres,,,3416 43 AVE NW,EDMONTON,AB,780-757-0098,,Calgary,AB_Calgary_covid_vaccination_centres.csv
8,8,APPLE DRUGS,covid_vaccination_centres,-112.704778943631,52.323887330839,4825 50 ST,STETTLER,AB,403-742-8688,,Calgary,AB_Calgary_covid_vaccination_centres.csv
9,9,LONDON DRUGS #45,covid_vaccination_centres,-113.523632130245,53.547637370297,11704 104 AVE NW,EDMONTON,AB,780-488-2600,https://www.londondrugs.com/covid19,Calgary,AB_Calgary_covid_vaccination_centres.csv
10,10,HEALTHY CHOICE PHARMACY 101,covid_vaccination_centres,-113.638955501271,53.639539141704,9430 MCKENNEY AVE,ST ALBERT,AB,780-460-0579,https://www.hcpedmonton.ca,Calgary,AB_Calgary_covid_vaccination_centres.csv
11,11,CRESCENT DRUGS LTD.,covid_vaccination_centres,-111.974598916588,54.770882569618,10029 101 AVE,LAC LA BICHE,AB,780-623-4059,,Calgary,AB_Calgary_covid_vaccination_centres.csv
12,12,PHARMASAVE BEVERLY,covid_vaccination_centres,-113.399925717115,53.57032061795,3729 118 AVE NW,EDMONTON,AB,780-474-9344,https://pharmasave.com/edmonton-beverly/location/,Calgary,AB_Calgary_covid_vaccination_centres.csv
13,13,MEDHOUSE PHARMACY & TRAVEL CLINIC,covid_vaccination_centres,-115.672300001753,54.142137254261,2B-4439 52 AVE,WHITECOURT,AB,780-779-9900,,Calgary,AB_Calgary_covid_vaccination_centres.csv
14,14,MEDICINE SHOPPE PHARMACY 127,covid_vaccination_centres,-112.813221173083,49.683126226389,1016A 20 ST S,LETHBRIDGE,AB,403-380-3282,https://www.medicineshoppebyhospital.ca,Calgary,AB_Calgary_covid_vaccination_centres.csv
15,15,DRUGSTORE PHARMACY #9021,covid_vaccination_centres,-111.325091464844,54.005315733262,5701 50 AVE,ST PAUL,AB,780-645-7035,https://www.extrafoods.ca/covid19,Calgary,AB_Calgary_covid_vaccination_centres.csv
16,16,PHARMASAVE #364,covid_vaccination_centres,-114.234068781603,50.688597383873,124 CENTRE AVE W,BLACK DIAMOND,AB,,https://pharmasave.com/black-diamond/covid-vaccinations/,Calgary,AB_Calgary_covid_vaccination_centres.csv
17,17,SHOPPERS DRUG MART #2448,covid_vaccination_centres,-113.476514590714,53.424564756072,924 91 ST SW,EDMONTON,AB,780-485-5550,https://www1.shoppersdrugmart.ca/en/health-and-pharmacy/covid-19?ShortURL=covid,Calgary,AB_Calgary_covid_vaccination_centres.csv
18,18,SAFEWAY PHARMACY #8928,covid_vaccination_centres,-113.390521685516,53.571622813917,146-3210 118 AVE NW,EDMONTON,AB,780-477-0855,https://www.safeway.ca/vaccine-registration/,Calgary,AB_Calgary_covid_vaccination_centres.csv
19,19,MEDICINE SHOPPE PHARMACY 274,covid_vaccination_centres,-113.524161202349,53.453244283322,831 SADDLEBACK RD NW,EDMONTON,AB,780-435-3345,https://www.medicineshoppe.ca/en/alberta/edmonton/the-medicine-shoppe-pharmacy-274-7041890,Calgary,AB_Calgary_covid_vaccination_centres.csv
20,20,MEDICINE SHOPPE PHARMACY 390,covid_vaccination_centres,-113.376443459449,53.455095944726,2356 23 AVE NW,EDMONTON,AB,780-485-1378,https://www.medicineshoppe.ca/en/alberta/edmonton/the-medicine-shoppe-pharmacy-390-7028732,Calgary,AB_Calgary_covid_vaccination_centres.csv
21,21,SHOPPERS DRUG MART #350,covid_vaccination_centres,-113.955696303554,51.098037970341,5500 FALSBRIDGE DR NE,CALGARY,AB,403-293-2560,https://www1.shoppersdrugmart.ca/en/health-and-pharmacy/covid-19?ShortURL=covid,Calgary,AB_Calgary_covid_vaccination_centres.csv
22,22,SHOPPERS DRUG MART #2311,covid_vaccination_centres,-118.818335357741,55.152181284874,10720 78 AVE,GRANDE PRAIRIE,AB,780-814-9028,https://www1.shoppersdrugmart.ca/en/health-and-pharmacy/covid-19?ShortURL=covid,Calgary,AB_Calgary_covid_vaccination_centres.csv
23,23,ALPINE DRUG MART,covid_vaccination_centres,-114.918034857121,52.377331062776,5132 49 ST,ROCKY MOUNTAIN HOUSE,AB,403-845-6904,https://alpinevaluedrugmart.medmeapp.com/schedule,Calgary,AB_Calgary_covid_vaccination_centres.csv
24,24,WEST HEALTH PHARMACY,covid_vaccination_centres,-113.590327663329,53.550704859209,10660 156 ST NW,EDMONTON,AB,780-244-1390,,Calgary,AB_Calgary_covid_vaccination_centres.csv
25,25,LIFECARE PHARMACY,covid_vaccination_centres,-113.618087899443,53.433752289036,1332 WINDERMERE WAY SW,EDMONTON,AB,780-710-7107,,Calgary,AB_Calgary_covid_vaccination_centres.csv
26,26,SAFEWAY PHARMACY #8874,covid_vaccination_centres,-113.323712186619,53.513508954399,985 FIR ST,SHERWOOD PARK,AB,780-467-0153,https://www.safeway.ca/vaccine-registration/,Calgary,AB_Calgary_covid_vaccination_centres.csv
27,27,SAFEWAY PHARMACY #8907,covid_vaccination_centres,-111.373985053452,56.723376621491,9601 FRANKLIN AVE,FORT MCMURRAY,AB,780-790-2388,https://www.safeway.ca/vaccine-registration/,Calgary,AB_Calgary_covid_vaccination_centres.csv
28,28,SHOPPERS DRUG MART #2325,covid_vaccination_centres,-114.455939228236,55.33570302024,300-1500 MAIN ST SW,SLAVE LAKE,AB,780-849-4556,https://www1.shoppersdrugmart.ca/en/health-and-pharmacy/covid-19?ShortURL=covid,Calgary,AB_Calgary_covid_vaccination_centres.csv
29,29,WALDINS PHARMACY LTD.,covid_vaccination_centres,-113.469594459312,53.452702924343,9124 23 AVE NW,EDMONTON,AB,780-756-3350,,Calgary,AB_Calgary_covid_vaccination_centres.csv
30,30,WAL-MART PHARMACY #3151,covid_vaccination_centres,-114.060665581292,50.901019934276,100-310 SHAWVILLE BLVD SE,CALGARY,AB,403-201-5426,https://portal.healthmyself.net/walmartab/forms/a66,Calgary,AB_Calgary_covid_vaccination_centres.csv
31,31,LOBLAW PHARMACY #1541,covid_vaccination_centres,-112.789107414996,49.659238907706,3515 MAYOR MAGRATH DR S,LETHBRIDGE,AB,403-331-2535,https://www.realcanadiansuperstore.ca/covid19,Calgary,AB_Calgary_covid_vaccination_centres.csv
32,32,MEDICINE SHOPPE PHARMACY 411,covid_vaccination_centres,-114.012208840625,51.286574660334,3-704 MAIN ST SE,AIRDRIE,AB,403-980-1587,https://www.medicineshoppe.ca/en/alberta/airdrie/the-medicine-shoppe-pharmacy-411-7046160,Calgary,AB_Calgary_covid_vaccination_centres.csv
33,33,MACMILLAN'S PHARMACY,covid_vaccination_centres,-114.974677830623,53.228599951943,108-4930 55 AVE,DRAYTON VALLEY,AB,780-542-5102,,Calgary,AB_Calgary_covid_vaccination_centres.csv
34,34,PACIFIC PLACE PHARMASAVE #393,covid_vaccination_centres,-113.984034880581,51.062295807405,958B-999 36 ST NE,CALGARY,AB,403-768-0202,https://www.pacificplacepharmasave.com,Calgary,AB_Calgary_covid_vaccination_centres.csv
35,35,SHOPPERS DRUG MART #323,covid_vaccination_centres,-113.628150686585,53.644420761707,108-392 ST. ALBERT TR,ST ALBERT,AB,780-458-5880,https://www1.shoppersdrugmart.ca/en/health-and-pharmacy/covid-19?ShortURL=covid,Calgary,AB_Calgary_covid_vaccination_centres.csv
36,36,SHOPPERS DRUG MART #2405,covid_vaccination_centres,-113.409828928627,53.597712755115,4940 137 AVE NW,EDMONTON,AB,780-670-5097,https://www1.shoppersdrugmart.ca/en/health-and-pharmacy/covid-19?ShortURL=covid,Calgary,AB_Calgary_covid_vaccination_centres.csv
37,37,SHOPPERS DRUG MART #349,covid_vaccination_centres,-114.082480730546,50.986009735507,7606 ELBOW DRIVE SW,CALGARY,AB,403-255-1851,https://www1.shoppersdrugmart.ca/en/health-and-pharmacy/covid-19?ShortURL=covid,Calgary,AB_Calgary_covid_vaccination_centres.csv
38,38,ZENRX PHARMACY,covid_vaccination_centres,-114.094329459806,51.056612096818,450 14 ST NW,CALGARY,AB,403-270-7444,,Calgary,AB_Calgary_covid_vaccination_centres.csv
39,39,CROWBOROUGH PHARMACY,covid_vaccination_centres,-113.591434814768,53.429818018834,111-6055 ANDREWS WAY SW,EDMONTON,AB,587-735-3492,https://www.crowboroughpharmacy.com,Calgary,AB_Calgary_covid_vaccination_centres.csv
40,40,LOBLAW PHARMACY #4410,covid_vaccination_centres,-113.389639959308,49.722390628055,1906 8 AVE,FORT MACLEOD,AB,403-553-7905,https://www.yourindependentgrocer.ca/covid19,Calgary,AB_Calgary_covid_vaccination_centres.csv
41,41,SHOPPERS DRUG MART #341,covid_vaccination_centres,-113.914592815134,53.542823113697,WESTLAND MALL,SPRUCE GROVE,AB,780-962-5202,https://www1.shoppersdrugmart.ca/en/health-and-pharmacy/covid-19?ShortURL=covid,Calgary,AB_Calgary_covid_vaccination_centres.csv
42,42,CO-OP PHARMACY STONY PLAIN,covid_vaccination_centres,-114.00669961495,53.530084965389,4917A 50 AVE,STONY PLAIN,AB,780-963-8432,,Calgary,AB_Calgary_covid_vaccination_centres.csv
43,43,Macleod South,covid_vaccination_centres,-114.069365771431,50.919813432719,14815 Bannister Road SE,CALGARY,AB,811,https://www.albertahealthservices.ca/topics/Page17295.aspx,Calgary,AB_Calgary_covid_vaccination_centres.csv
44,44,REXALL #7517,covid_vaccination_centres,-112.90179382959,49.673255665416,20-12 AQUITANIA BLVD W,LETHBRIDGE,AB,587-486-9357,https://www.rexall.ca/covid-19/alberta-vaccine,Calgary,AB_Calgary_covid_vaccination_centres.csv
45,45,SRX PHARMACY #2,covid_vaccination_centres,-113.52042454397,53.522827365083,B01-8625 112 ST,EDMONTON,AB,587-454-2413,,Calgary,AB_Calgary_covid_vaccination_centres.csv
46,46,WILLOW PARK PHARMASAVE #362,covid_vaccination_centres,-113.548897557789,53.273045475192,5905 50 ST,LEDUC,AB,780-612-6994,https://leducpharmasave.com,Calgary,AB_Calgary_covid_vaccination_centres.csv
47,47,SAVE-ON-FOODS PHARMACY #6628,covid_vaccination_centres,-118.821734447946,55.175161657248,10819 106 AVE,GRANDE PRAIRIE,AB,780-402-2530,https://saveonfoodspharmacy.medmeapp.com/schedule/,Calgary,AB_Calgary_covid_vaccination_centres.csv
48,48,WOODS DISPENSARY,covid_vaccination_centres,-112.797677109449,49.673373272921,2931 20 AVE S,LETHBRIDGE,AB,403-328-0822,,Calgary,AB_Calgary_covid_vaccination_centres.csv
49,49,MORINVILLE PHARMACY,covid_vaccination_centres,-113.654470967571,53.801596933093,103-10507 100 AVE,MORINVILLE,AB,780-572-6155,,Calgary,AB_Calgary_covid_vaccination_centres.csv
50,50,REXALL #7228,covid_vaccination_centres,-114.068216005857,51.140796689248,300-9650 HARVEST HILLS BLVD NE,CALGARY,AB,403-567-9102,https://www.rexall.ca/covid-19/alberta-vaccine,Calgary,AB_Calgary_covid_vaccination_centres.csv
51,51,SHOPPERS DRUG MART #2396,covid_vaccination_centres,-113.431485216983,53.4603311367,6428 28 AVE NW,EDMONTON,AB,780-463-8833,https://www1.shoppersdrugmart.ca/en/health-and-pharmacy/covid-19?ShortURL=covid,Calgary,AB_Calgary_covid_vaccination_centres.csv
52,52,REXALL #7215,covid_vaccination_centres,-113.240820078668,53.682000121159,116 TOWN CREST RD,FORT SASKATCHEWAN,AB,780-998-3217,https://www.rexall.ca/covid-19/alberta-vaccine,Calgary,AB_Calgary_covid_vaccination_centres.csv
53,53,LUKES DRUG MART-KILLARNEY,covid_vaccination_centres,-114.135938230545,51.029796382965,3407 26 AVE SW,CALGARY,AB,403-242-1566,https://www.lukesdrugmart.com,Calgary,AB_Calgary_covid_vaccination_centres.csv
54,54,WAL-MART PHARMACY #1094,covid_vaccination_centres,-113.599932740043,53.438863726373,6110 CURRENTS DR NW,EDMONTON,AB,780-438-1161,https://portal.healthmyself.net/walmartab/forms/a66,Calgary,AB_Calgary_covid_vaccination_centres.csv
55,55,SAFEWAY PHARMACY #8915,covid_vaccination_centres,-110.684512000196,50.033078595228,615 DIVISION AVE SE,MEDICINE HAT,AB,403-504-2925,https://www.safeway.ca/vaccine-registration/,Calgary,AB_Calgary_covid_vaccination_centres.csv
56,56,DOAN PHARMACY LTD,covid_vaccination_centres,-113.509822116618,53.551704229591,10920 107 AVE NW,EDMONTON,AB,780-423-8088,,Calgary,AB_Calgary_covid_vaccination_centres.csv
57,57,DISCOVERY RIDGE COMPOUNDING PHARMACY AND TRAVEL CLINIC,covid_vaccination_centres,-114.213629830169,51.015641071732,712-10 DISCOVERY RIDGE HILL SW,CALGARY,AB,403-475-4325,https://www.discoveryridgepharmacy.ca,Calgary,AB_Calgary_covid_vaccination_centres.csv
58,58,CONNECTCARE PHARMACY SPRUCE GROVE,covid_vaccination_centres,-113.883540499607,53.566282446392,214-20 WESTWIND DR,SPRUCE GROVE,AB,587-461-2060,,Calgary,AB_Calgary_covid_vaccination_centres.csv
59,59,WAL-MART PHARMACY #3029,covid_vaccination_centres,-113.46745029672,53.442677602762,1203 PARSONS RD NW,EDMONTON,AB,780-465-1595,https://portal.healthmyself.net/walmartab/forms/a66,Calgary,AB_Calgary_covid_vaccination_centres.csv
60,60,CO-OP PHARMACY TRADER RIDGE,covid_vaccination_centres,-118.799997030238,55.200462671368,13201 102 ST,GRANDE PRAIRIE,AB,780-402-8299,,Calgary,AB_Calgary_covid_vaccination_centres.csv
61,61,HEALTH WAY PHARMACY,covid_vaccination_centres,-114.072461487842,51.001876063419,109-5809 MACLEOD TR SW,CALGARY,AB,403-460-3825,,Calgary,AB_Calgary_covid_vaccination_centres.csv
62,62,RX DRUG MART #2021,covid_vaccination_centres,-116.495813124816,55.43343175495,5004 53 AVE,HIGH PRAIRIE,AB,780-523-3878,,Calgary,AB_Calgary_covid_vaccination_centres.csv
63,63,SHOPPERS DRUG MART #2341,covid_vaccination_centres,-113.860229882354,54.156388348525,10015 107 ST,WESTLOCK,AB,780-349-3388,https://www1.shoppersdrugmart.ca/en/health-and-pharmacy/covid-19?ShortURL=covid,Calgary,AB_Calgary_covid_vaccination_centres.csv
64,64,SAFEWAY PHARMACY #8989,covid_vaccination_centres,-113.963109561544,50.930452981572,100-4915 130 AVE SE,CALGARY,AB,403-257-8520,https://www.safeway.ca/vaccine-registration/,Calgary,AB_Calgary_covid_vaccination_centres.csv
65,65,STAFFORD PHARMACY & HOME HEALTHCARE,covid_vaccination_centres,-112.831444088251,49.718390713074,5-1475 ST. EDWARD BLVD N,LETHBRIDGE,AB,403-320-6500,https://www.book.pharmachoice.com/%28403%29320-6500,Calgary,AB_Calgary_covid_vaccination_centres.csv
66,66,MEDICINE SHOPPE PHARMACY 370,covid_vaccination_centres,-113.527751786438,53.475632110504,11407 40 AVE NW,EDMONTON,AB,780-468-1557,https://www.medicineshoppe.ca/en/alberta/edmonton/the-medicine-shoppe-pharmacy-370-7010470,Calgary,AB_Calgary_covid_vaccination_centres.csv
67,67,SHOPPERS DRUG MART #325,covid_vaccination_centres,-114.205719907548,51.116949155658,198-8060 SILVER SPRINGS BLVD,CALGARY,AB,403-288-1125,https://www1.shoppersdrugmart.ca/en/health-and-pharmacy/covid-19?ShortURL=covid,Calgary,AB_Calgary_covid_vaccination_centres.csv
68,68,Deerfoot North Clinic,covid_vaccination_centres,-114.043151983058,51.080715254995,911 32 Avenue NE,CALGARY,AB,811,https://www.albertahealthservices.ca/topics/Page17295.aspx,Calgary,AB_Calgary_covid_vaccination_centres.csv
69,69,RX DRUG MART #2023,covid_vaccination_centres,-112.855993476578,53.015857891251,1-6601 48 AVE,CAMROSE,AB,780-672-0100,https://www.remedys.ca,Calgary,AB_Calgary_covid_vaccination_centres.csv
70,70,MEDICINE SHOPPE PHARMACY 349,covid_vaccination_centres,-111.428587001652,56.752882035554,141B-355 LOUTIT RD,FORT MCMURRAY,AB,780-790-1234,https://www.medicineshoppe.ca/en/alberta/fort-mcmurray/the-medicine-shoppe-pharmacy-349-7000617,Calgary,AB_Calgary_covid_vaccination_centres.csv
71,71,MELL PHARMACY,covid_vaccination_centres,-114.095937273032,51.082603666912,771 NORTH MOUNT DR NW,CALGARY,AB,403-454-5244,https://mellpharmacy.medmeapp.ca/schedule,Calgary,AB_Calgary_covid_vaccination_centres.csv
72,72,LOBLAW PHARMACY #4202,covid_vaccination_centres,-115.672239843723,54.142987702579,4420 52 AVE,WHITECOURT,AB,780-706-4091,https://www.nofrills.ca/covid19,Calgary,AB_Calgary_covid_vaccination_centres.csv
73,73,LONDONDALE GUARDIAN PHARMACY,covid_vaccination_centres,-113.458251414901,53.607757987354,7606 144 AVE NW,EDMONTON,AB,780-475-0040,https://www.bookyourvisit.ca/londondale,Calgary,AB_Calgary_covid_vaccination_centres.csv
74,74,PHARMASAVE HIDDEN VALLEY,covid_vaccination_centres,-114.1037701307,51.155092700742,311-11 HIDDEN CREEK DR NW,CALGARY,AB,403-275-1000,https://hiddenvalley.medmeapp.ca/schedule/,Calgary,AB_Calgary_covid_vaccination_centres.csv
75,75,KAI HEALTH (KENSINGTON) PHARMACY,covid_vaccination_centres,-113.53905949942,53.593309172888,12620A 132 AVE NW,EDMONTON,AB,780-488-6699,,Calgary,AB_Calgary_covid_vaccination_centres.csv
76,76,REXALL #7248,covid_vaccination_centres,-113.44180565824,53.600391310113,13709 66 ST NW,EDMONTON,AB,780-456-5706,https://www.rexall.ca/covid-19/alberta-vaccine,Calgary,AB_Calgary_covid_vaccination_centres.csv
77,77,SOUTHBANK REMEDY'S RX,covid_vaccination_centres,-113.944449801719,50.705910260577,120-158 SOUTHBANK ST,OKOTOKS,AB,403-982-9779,https://southbankpharmacy.myappts.ca,Calgary,AB_Calgary_covid_vaccination_centres.csv
78,78,SAFEWAY PHARMACY #8883,covid_vaccination_centres,-112.872363982933,53.018085699236,200 CORNERSTONE,CAMROSE,AB,780-672-1680,https://www.safeway.ca/vaccine-registration/,Calgary,AB_Calgary_covid_vaccination_centres.csv
79,79,WEST POINTE PHARMACY,covid_vaccination_centres,-113.963778378731,51.101015548694,124-4850 WESTWINDS DR NE,CALGARY,AB,403-285-6555,,Calgary,AB_Calgary_covid_vaccination_centres.csv
80,80,FOURNIER DRUGS,covid_vaccination_centres,-119.11662083776,53.888389258155,1306 SHOPPERS PARK MALL,GRANDE CACHE,AB,780-827-3230,,Calgary,AB_Calgary_covid_vaccination_centres.csv
81,81,SAFEWAY PHARMACY #8895,covid_vaccination_centres,-113.513419984219,53.518886284891,10930 82 AVE NW,EDMONTON,AB,780-439-9767,https://www.safeway.ca/vaccine-registration/,Calgary,AB_Calgary_covid_vaccination_centres.csv
82,82,GLENGARRY PHARMACY,covid_vaccination_centres,-113.532978758944,53.60060701202,115-12222 137 AVE NW,EDMONTON,AB,780-473-6636,https://glengarrypharmacy.myappts.ca/src/,Calgary,AB_Calgary_covid_vaccination_centres.csv
83,83,MEDICINE SHOPPE PHARMACY 377,covid_vaccination_centres,-113.44449610362,53.592134050171,6610 132 AVE NW,EDMONTON,AB,780-705-7150,https://www.medicineshoppe.ca/en/alberta/edmonton/the-medicine-shoppe-pharmacy-377-7022763,Calgary,AB_Calgary_covid_vaccination_centres.csv
84,84,PHARMASAVE MILLIGAN DRIVE,covid_vaccination_centres,-113.96674805955,50.732716216874,2-100 MILLIGAN DR,OKOTOKS,AB,403-982-7663,https://okotokspharmasave.medmeapp.com/schedule/,Calgary,AB_Calgary_covid_vaccination_centres.csv
85,85,ROSEWOOD PHARMACY,covid_vaccination_centres,-113.297680613605,53.527933931222,120-201 FESTIVAL WAY,SHERWOOD PARK,AB,587-200-0159,,Calgary,AB_Calgary_covid_vaccination_centres.csv
86,86,PHARMASAVE #377,covid_vaccination_centres,-113.452092701773,53.628235248133,ROYAL CENTRE NORTH,EDMONTON,AB,780-705-2528,,Calgary,AB_Calgary_covid_vaccination_centres.csv
87,87,PHARMASAVE #397,covid_vaccination_centres,-118.385627886225,56.066591542102,11015 102 AVE,FAIRVIEW,AB,780-835-3485,,Calgary,AB_Calgary_covid_vaccination_centres.csv
88,88,MONTROSE PHARMACY,covid_vaccination_centres,-113.451476716981,53.571027154189,7240 118 AVE NE,EDMONTON,AB,780-249-4833,,Calgary,AB_Calgary_covid_vaccination_centres.csv
89,89,BERWYN PHARMACY LTD,covid_vaccination_centres,-117.736206831898,56.14709753687,5115 51 ST,BERWYN,AB,780-338-3071,,Calgary,AB_Calgary_covid_vaccination_centres.csv
90,90,LONDON DRUGS #33,covid_vaccination_centres,-114.123641530305,51.085049569587,3630 BRENTWOOD RD NW,CALGARY,AB,403-289-4512,https://www.londondrugs.com/covid19,Calgary,AB_Calgary_covid_vaccination_centres.csv
91,91,REXALL #7282,covid_vaccination_centres,-114.085676039869,50.948796417903,14-11625 ELBOW DR SW,CALGARY,AB,403-281-7333,https://www.rexall.ca/covid-19/alberta-vaccine,Calgary,AB_Calgary_covid_vaccination_centres.csv
92,92,VILLAGE LANE PHARMACY,covid_vaccination_centres,-113.983487115213,50.719695787059,15-1300 VILLAGE LANE,OKOTOKS,AB,403-938-0110,,Calgary,AB_Calgary_covid_vaccination_centres.csv
93,93,MEDICINE SHOPPE PHARMACY 251,covid_vaccination_centres,-113.785123306087,52.266591185737,3805 ROSS ST,RED DEER,AB,403-343-8088,https://www.medicineshoppe.ca/en/alberta/red-deer/the-medicine-shoppe-pharmacy-251-7040887,Calgary,AB_Calgary_covid_vaccination_centres.csv
94,94,MINT HEALTH + DRUGS: LANGDON,covid_vaccination_centres,-113.680182401109,50.974118782111,107-355 CENTRE ST,LANGDON,AB,403-936-0448,https://www.mintdrugs.com,Calgary,AB_Calgary_covid_vaccination_centres.csv
95,95,CHAPARRAL PHARMACY,covid_vaccination_centres,-114.036155617336,50.88771768681,210-10 CHAPARRAL DR SE,CALGARY,AB,403-475-5544,https://www.chaparralpharmacy.ca/book-your-pfizer-covid-19-immunization/,Calgary,AB_Calgary_covid_vaccination_centres.csv
96,96,NOTTINGHAM PHARMACY,covid_vaccination_centres,-113.274800778197,53.512702358121,300-664 WYE RD,SHERWOOD PARK,AB,780-570-0995,,Calgary,AB_Calgary_covid_vaccination_centres.csv
97,97,TWIN BROOKS PHARMACY,covid_vaccination_centres,-113.517144530478,53.439233380019,11029 9 AVE NW,EDMONTON,AB,780-784-0462,http://www.twinbrookspharmacy.com,Calgary,AB_Calgary_covid_vaccination_centres.csv
98,98,WAL-MART PHARMACY #1089,covid_vaccination_centres,-114.04513136764,50.984264354681,7979 11 ST SE,CALGARY,AB,403-251-2671,https://portal.healthmyself.net/walmartab/forms/a66,Calgary,AB_Calgary_covid_vaccination_centres.csv
99,99,KINSOL PHARMACY,covid_vaccination_centres,-114.045299414964,51.053204850657,803 1 AVE NE,CALGARY,AB,587-351-8923,,Calgary,AB_Calgary_covid_vaccination_centres.csv
100,100,SHOPPERS DRUG MART #326,covid_vaccination_centres,-113.809833745851,52.243003187315,A6-4900 MOLLY BANNISTER DR,RED DEER,AB,403-343-3355,https://www1.shoppersdrugmart.ca/en/health-and-pharmacy/covid-19?ShortURL=covid,Calgary,AB_Calgary_covid_vaccination_centres.csv
101,101,PHARMASAVE #3011,covid_vaccination_centres,-113.689787735044,53.551686569679,10652 WINTERBURN RD NW,EDMONTON,AB,825-202-8450,,Calgary,AB_Calgary_covid_vaccination_centres.csv
102,102,LOBLAW PHARMACY #1566,covid_vaccination_centres,-113.411122872572,53.598640852037,4950 137 AVE,EDMONTON,AB,780-472-4735,https://www.realcanadiansuperstore.ca/covid19,Calgary,AB_Calgary_covid_vaccination_centres.csv
103,103,PINERIDGE PHARMACY,covid_vaccination_centres,-113.946368947731,51.081127099762,7-3250 60 ST NE,CALGARY,AB,403-568-0095,,Calgary,AB_Calgary_covid_vaccination_centres.csv
104,104,Brentwood Village Mall,covid_vaccination_centres,-114.126276215059,51.085152769287,3630 Brentwood Road NW,CALGARY,AB,811,https://www.albertahealthservices.ca/topics/Page17295.aspx,Calgary,AB_Calgary_covid_vaccination_centres.csv
105,105,GATEWAY PHARMACY,covid_vaccination_centres,-113.494821822752,53.477515287887,942-3803 CALGARY TR NW,EDMONTON,AB,780-466-6337,,Calgary,AB_Calgary_covid_vaccination_centres.csv
106,106,REXALL #7513,covid_vaccination_centres,-113.731234770253,53.353256386987,101-180 MIQUELON AVE,DEVON,AB,780-987-3793,https://www.rexall.ca/covid-19/alberta-vaccine,Calgary,AB_Calgary_covid_vaccination_centres.csv
107,107,SHOPPERS DRUG MART #385,covid_vaccination_centres,-114.094396457533,51.05269886383,1436 KENSINGTON RD NW,CALGARY,AB,403-521-0329,https://www1.shoppersdrugmart.ca/en/health-and-pharmacy/covid-19?ShortURL=covid,Calgary,AB_Calgary_covid_vaccination_centres.csv
108,108,PHARMASAVE #308,covid_vaccination_centres,-113.582251976908,50.025439697552,114 49 AVE W,CLARESHOLM,AB,403-625-2727,,Calgary,AB_Calgary_covid_vaccination_centres.csv
109,109,EXCELHEALTH PHARMACY,covid_vaccination_centres,-114.062178916677,51.01890955539,100-3916 MACLEOD TR SW,CALGARY,AB,587-351-4036,https://bookyourvisit.ca/excelhealth,Calgary,AB_Calgary_covid_vaccination_centres.csv
110,110,RITA'S APOTHECARY & HOME HEALTHCARE,covid_vaccination_centres,-114.404312824431,54.120222895667,5036A 50 ST,BARRHEAD,AB,780-674-6656,,Calgary,AB_Calgary_covid_vaccination_centres.csv
111,111,SHOPPERS DRUG MART #2402,covid_vaccination_centres,-113.980077086299,53.538673995076,400-4300 SOUTH PARK DR,STONY PLAIN,AB,780-963-6946,https://www1.shoppersdrugmart.ca/en/health-and-pharmacy/covid-19?ShortURL=covid,Calgary,AB_Calgary_covid_vaccination_centres.csv
112,112,SHOPPERS DRUG MART #2370,covid_vaccination_centres,-113.543234253532,53.616598356705,12955 153 AVE NW,EDMONTON,AB,780-476-3738,https://www1.shoppersdrugmart.ca/en/health-and-pharmacy/covid-19?ShortURL=covid,Calgary,AB_Calgary_covid_vaccination_centres.csv
113,113,BRINTNELL PHARMACY & TRAVEL CLINIC,covid_vaccination_centres,-113.407555814763,53.628658415754,3-4303 167 AVE NW,EDMONTON,AB,587-525-8650,https://www.brintnellpharmacy.com,Calgary,AB_Calgary_covid_vaccination_centres.csv
114,114,VISTA HEIGHTS PHARMACY,covid_vaccination_centres,-114.012548287977,51.069493080727,110-2066 18 AVE NE,CALGARY,AB,403-291-4525,,Calgary,AB_Calgary_covid_vaccination_centres.csv
115,115,ABEX PHARMACY,covid_vaccination_centres,-113.239079730429,53.682062035116,103-121 TOWN CREST RD,FORT SASKATCHEWAN,AB,780-589-2239,,Calgary,AB_Calgary_covid_vaccination_centres.csv
116,116,SHOPPERS DRUG MART #344,covid_vaccination_centres,-113.494094645815,53.543869234978,EDMONTON CITY CENTRE WEST,EDMONTON,AB,780-428-7110,https://www1.shoppersdrugmart.ca/en/health-and-pharmacy/covid-19?ShortURL=covid,Calgary,AB_Calgary_covid_vaccination_centres.csv
117,117,SHOPPERS DRUG MART #2301,covid_vaccination_centres,-113.563185201962,53.453473532897,14135 23 AVE NW,EDMONTON,AB,780-436-5135,https://www1.shoppersdrugmart.ca/en/health-and-pharmacy/covid-19?ShortURL=covid,Calgary,AB_Calgary_covid_vaccination_centres.csv
118,118,OKOTOKS H.C. PHARMACY,covid_vaccination_centres,-113.978440730864,50.726004721434,1-74 ELIZABETH ST,OKOTOKS,AB,403-995-1080,https://www.okotokshcpharmacy.ca,Calgary,AB_Calgary_covid_vaccination_centres.csv
119,119,TOWER DRUGS,covid_vaccination_centres,-114.06505991705,51.044461460373,137-131 9 AVE SW,CALGARY,AB,403-261-2006,,Calgary,AB_Calgary_covid_vaccination_centres.csv
120,120,WAL-MART PHARMACY #5708,covid_vaccination_centres,-113.971400655452,50.703883372141,500-201 SOUTHRIDGE DR,OKOTOKS,AB,403-995-1375,https://portal.healthmyself.net/walmartab/forms/a66,Calgary,AB_Calgary_covid_vaccination_centres.csv
121,121,CLEARWATER PHARMACY,covid_vaccination_centres,-113.490405239535,53.615199183593,15345 97 ST NW,EDMONTON,AB,780-476-8383,,Calgary,AB_Calgary_covid_vaccination_centres.csv
122,122,RABBIT HILL PHARMACY,covid_vaccination_centres,-113.562534847989,53.454986027892,14030 23 AVE NW,EDMONTON,AB,780-989-5100,,Calgary,AB_Calgary_covid_vaccination_centres.csv
123,123,SAFEWAY PHARMACY #8912,covid_vaccination_centres,-114.115708863941,51.022818459413,2425 34 AVE SW,CALGARY,AB,403-217-1011,https://www.safeway.ca/vaccine-registration/,Calgary,AB_Calgary_covid_vaccination_centres.csv
124,124,SOBEYS PHARMACY #5020,covid_vaccination_centres,-113.97745854589,50.880294626745,3000-356 CRANSTON RD SE,CALGARY,AB,403-257-9800,https://www.safeway.ca/vaccine-registration/,Calgary,AB_Calgary_covid_vaccination_centres.csv
125,125,TARADALE PHARMACY,covid_vaccination_centres,-113.946279130543,51.099901462466,525-6520 FALCONRIDGE DR NE,CALGARY,AB,587-349-4250,https://www.travelcliniccalgary.ca/,Calgary,AB_Calgary_covid_vaccination_centres.csv
126,126,MEDICINE SHOPPE PHARMACY 410,covid_vaccination_centres,-113.933568001775,53.553466520011,108-1 HAWTHORNE GATE,SPRUCE GROVE,AB,780-760-7621,https://www.medicineshoppe.ca/en/alberta/spruce-grove/medicine-shoppe-pharmacy-410-7045340,Calgary,AB_Calgary_covid_vaccination_centres.csv
127,127,SAFEWAY PHARMACY #8826,covid_vaccination_centres,-114.013701982982,50.984124538243,7740 18 ST SE,CALGARY,AB,403-279-2220,https://www.safeway.ca/vaccine-registration/,Calgary,AB_Calgary_covid_vaccination_centres.csv
128,128,MEDICINE SHOPPE PHARMACY 314,covid_vaccination_centres,-114.110163730709,50.908839369513,3105-230 EVERSYDE BLVD SW,CALGARY,AB,403-201-0180,https://www.medicineshoppe.ca/en/alberta/calgary/the-medicine-shoppe-pharmacy-314-7012400,Calgary,AB_Calgary_covid_vaccination_centres.csv
129,129,PHARMASAVE WHITEHORN #3018,covid_vaccination_centres,-113.958600629007,51.092013087792,BAY 17-4525 52 ST NE,CALGARY,AB,403-888-1551,,Calgary,AB_Calgary_covid_vaccination_centres.csv
130,130,PELICAN PLACE PHARMACY,covid_vaccination_centres,-114.095972338773,52.299413128754,110-10 PELICAN PL,SYLVAN LAKE,AB,403-864-5192,,Calgary,AB_Calgary_covid_vaccination_centres.csv
131,131,GIROUX PHARMASAVE,covid_vaccination_centres,-113.671425832647,53.639986806715,215-4 VERSAILLES AVE,ST ALBERT,AB,780-569-3302,,Calgary,AB_Calgary_covid_vaccination_centres.csv
132,132,SAFEWAY PHARMACY #8924,covid_vaccination_centres,-113.293059390316,53.531134652851,110-2020 SHERWOOD DR,SHERWOOD PARK,AB,780-467-3222,https://www.safeway.ca/vaccine-registration/,Calgary,AB_Calgary_covid_vaccination_centres.csv
133,133,Northgate Village Mall,covid_vaccination_centres,-113.985298057389,51.055832554703,495 36 Street NE,CALGARY,AB,811,https://www.albertahealthservices.ca/topics/Page17295.aspx,Calgary,AB_Calgary_covid_vaccination_centres.csv
134,134,ARROWWOOD PHARMACY,covid_vaccination_centres,-113.152292777906,50.737475345324,3-6 RAILWAY AVE W,ARROWWOOD,AB,403-534-3333,,Calgary,AB_Calgary_covid_vaccination_centres.csv
135,135,SOBEYS PHARMACY #1139,covid_vaccination_centres,-114.057939626849,51.155556580981,200-500 COUNTRY HILLS BLVD NE,CALGARY,AB,403-567-9302,https://www.safeway.ca/vaccine-registration/,Calgary,AB_Calgary_covid_vaccination_centres.csv
136,136,D&M PHARMACY AND TRAVEL CLINIC,covid_vaccination_centres,-114.106986228685,51.07046504501,1505 19 ST NW,CALGARY,AB,587-353-0377,https://www.travelpharmacy.ca,Calgary,AB_Calgary_covid_vaccination_centres.csv
137,137,WAINWRIGHT VALUE DRUG MART,covid_vaccination_centres,-110.859875357484,52.834979267468,306 10 ST,WAINWRIGHT,AB,780-842-4488,,Calgary,AB_Calgary_covid_vaccination_centres.csv
138,138,LANDMARK PHARMACY,covid_vaccination_centres,-114.063570472634,51.066821417881,283-1623 CENTRE ST NW,CALGARY,AB,587-349-3727,,Calgary,AB_Calgary_covid_vaccination_centres.csv
139,139,COVENTRY PHARMACY,covid_vaccination_centres,-114.042543352117,51.158115254585,110-790 COVENTRY DR NE,CALGARY,AB,403-453-9194,https://www.calgarytravelclinics.com,Calgary,AB_Calgary_covid_vaccination_centres.csv
140,140,PETRA PHARMACY,covid_vaccination_centres,-112.80552872904,49.683569395904,1010 MAYOR MAGRATH DR S,LETHBRIDGE,AB,403-942-3731,https://www.pharmachoice.com,Calgary,AB_Calgary_covid_vaccination_centres.csv
141,141,SHOPPERS DRUG MART #340,covid_vaccination_centres,-113.718384476946,52.473901488556,2-5700 HWY 2A,LACOMBE,AB,403-782-3220,https://www1.shoppersdrugmart.ca/en/health-and-pharmacy/covid-19?ShortURL=covid,Calgary,AB_Calgary_covid_vaccination_centres.csv
142,142,SHOPPERS DRUG MART #2379,covid_vaccination_centres,-113.499946001639,53.540717619661,10405 JASPER AVE NW,EDMONTON,AB,780-670-3690,https://www1.shoppersdrugmart.ca/en/health-and-pharmacy/covid-19?ShortURL=covid,Calgary,AB_Calgary_covid_vaccination_centres.csv
143,143,COALDALE PHARMASAVE,covid_vaccination_centres,-112.621790245754,49.728132226356,1910 20 AVE,COALDALE,AB,403-345-3744,,Calgary,AB_Calgary_covid_vaccination_centres.csv
144,144,MEDICINE SHOPPE PHARMACY 225,covid_vaccination_centres,-113.466043559445,53.570287846857,8111 118 AVE NW,EDMONTON,AB,780-477-1192,https://www.medicineshoppe.ca/en/alberta/edmonton/the-medicine-shoppe-pharmacy-225-7002977,Calgary,AB_Calgary_covid_vaccination_centres.csv
145,145,ROYAL OAK PHARMACY,covid_vaccination_centres,-114.23291117873,51.139591831551,228-500 ROYAL OAK DR NW,CALGARY,AB,403-455-3565,https://royaloakpharmacy.medmeapp.ca/schedule,Calgary,AB_Calgary_covid_vaccination_centres.csv
146,146,COPPERSTONE PHARMACY,covid_vaccination_centres,-113.933672903389,50.915939710517,115-10 COPPERSTONE ST SE,CALGARY,AB,403-724-9744,,Calgary,AB_Calgary_covid_vaccination_centres.csv
147,147,GLENBROOK PHARMACY,covid_vaccination_centres,-113.443178346577,53.586107319277,12718 66 ST NW,EDMONTON,AB,7804789093,https://bookyourvisit.ca/glenbrook,Calgary,AB_Calgary_covid_vaccination_centres.csv
148,148,SAFEWAY PHARMACY #8908,covid_vaccination_centres,-113.451683971297,53.471631843163,38 AVE & MILLWOODS RD NW,EDMONTON,AB,780-461-5152,https://www.safeway.ca/vaccine-registration/,Calgary,AB_Calgary_covid_vaccination_centres.csv
149,149,SAFEWAY PHARMACY #8880,covid_vaccination_centres,-113.617545898262,53.534289135471,9710 170 ST NW,EDMONTON,AB,780-486-4248,https://www.safeway.ca/vaccine-registration/,Calgary,AB_Calgary_covid_vaccination_centres.csv
150,150,SOUTH COUNTRY CO-OP LTD. @TABER PHARMACY,covid_vaccination_centres,-112.129016854961,49.785683110809,4926 46 AVE,TABER,AB,403-223-5984,,Calgary,AB_Calgary_covid_vaccination_centres.csv
151,151,WESTMOUNT REMEDY'S RX PHARMACY,covid_vaccination_centres,-113.977852373194,50.706749868936,1031-200 SOUTHRIDGE DR,OKOTOKS,AB,403-917-0655,https://westmountremedys.business.site/,Calgary,AB_Calgary_covid_vaccination_centres.csv
152,152,KOEGLER'S PHARMASAVE,covid_vaccination_centres,-113.946596701507,49.495379397169,1334 VETERANS ST,PINCHER CREEK,AB,403-627-2444,,Calgary,AB_Calgary_covid_vaccination_centres.csv
153,153,LEIBEL'S PHARMACY,covid_vaccination_centres,-114.027979170739,52.961273469497,7B VILLAGE DR RR2,WESTEROSE,AB,780-586-0796,,Calgary,AB_Calgary_covid_vaccination_centres.csv
154,154,SHOPPERS DRUG MART #2366,covid_vaccination_centres,-113.959722291404,50.88138986766,106-19489 SETON CRES. SE,CALGARY,AB,403-279-7726,https://www1.shoppersdrugmart.ca/en/health-and-pharmacy/covid-19?ShortURL=covid,Calgary,AB_Calgary_covid_vaccination_centres.csv
155,155,NORTH EAST PHARMACY,covid_vaccination_centres,-113.451815086297,53.60639459208,7210 144 AVE NW,EDMONTON,AB,780-478-3322,,Calgary,AB_Calgary_covid_vaccination_centres.csv
156,156,HEWES WAY PHARMACY,covid_vaccination_centres,-113.424633732647,53.456702875388,101-2551 HEWES WAY NW,EDMONTON,AB,780-462-8757,,Calgary,AB_Calgary_covid_vaccination_centres.csv
157,157,DRUGSTORE PHARMACY #9043,covid_vaccination_centres,-112.702388158181,51.44539758729,1252 HWY 9 S,DRUMHELLER,AB,403-823-4795,https://www.extrafoods.ca/covid19,Calgary,AB_Calgary_covid_vaccination_centres.csv
158,158,BEAUMONT CENTRE PHARMACY,covid_vaccination_centres,-113.41570817059,53.352338079324,5003 50 AVE,BEAUMONT,AB,780-929-9299,https://beaumontcentrepharmacy.medmeapp.ca/schedule/,Calgary,AB_Calgary_covid_vaccination_centres.csv
159,159,BLACKFALDS PROFESSIONAL PHARMACY,covid_vaccination_centres,-113.787581387584,52.381926707602,1-5049 PARKWOOD RD,BLACKFALDS,AB,403-600-2280,https://blackfaldsprofessionalpharmacy.ca,Calgary,AB_Calgary_covid_vaccination_centres.csv
160,160,SHOPPERS DRUG MART #352,covid_vaccination_centres,-113.589123043971,53.46875528232,584 RIVERBEND SQ NW,EDMONTON,AB,780-988-6657,https://www1.shoppersdrugmart.ca/en/health-and-pharmacy/covid-19?ShortURL=covid,Calgary,AB_Calgary_covid_vaccination_centres.csv
161,161,SAVE-ON-FOODS PHARMACY #6661,covid_vaccination_centres,-113.447128942438,53.601742640484,LONDONDERRY MALL,EDMONTON,AB,780-473-8351,https://saveonfoodspharmacy.medmeapp.com/schedule/,Calgary,AB_Calgary_covid_vaccination_centres.csv
162,162,SHOPPERS DRUG MART #2386,covid_vaccination_centres,-114.015109357506,51.288711795083,310-505 MAIN ST,AIRDRIE,AB,403-948-5858,https://www1.shoppersdrugmart.ca/en/health-and-pharmacy/covid-19?ShortURL=covid,Calgary,AB_Calgary_covid_vaccination_centres.csv
163,163,MILLWOODS ARP DRUGS,covid_vaccination_centres,-113.407478544109,53.454865922572,4213 23 AVE NW,EDMONTON,AB,780-461-9823,,Calgary,AB_Calgary_covid_vaccination_centres.csv
164,164,MINT HEALTH + DRUGS: CRYSTAL RIDGE,covid_vaccination_centres,-113.399183559538,51.059222932841,2-55 WHEATLAND TR,STRATHMORE,AB,403-901-2244,https://www.mintdrugs.com,Calgary,AB_Calgary_covid_vaccination_centres.csv
165,165,SAMS DRUG MART,covid_vaccination_centres,-114.002247355933,53.533040501468,102-4620 48 ST,STONY PLAIN,AB,780-571-1221,https://www.samsdrugmart.com,Calgary,AB_Calgary_covid_vaccination_centres.csv
166,166,ATHABASCA VALUE DRUG MART,covid_vaccination_centres,-113.286209187753,54.72048468234,4911 50 ST,ATHABASCA,AB,780-675-2188,,Calgary,AB_Calgary_covid_vaccination_centres.csv
167,167,MINT HEALTH + DRUGS MAIN STREET,covid_vaccination_centres,-114.007443030612,53.528441085962,5106 50 ST,STONY PLAIN,AB,780-963-3728,https://www.mintdrugs.com,Calgary,AB_Calgary_covid_vaccination_centres.csv
168,168,WAL-MART PHARMACY #3154,covid_vaccination_centres,-113.316875494014,53.511202001514,239 WYE RD,SHERWOOD PARK,AB,780-464-5107,https://portal.healthmyself.net/walmartab/forms/a66,Calgary,AB_Calgary_covid_vaccination_centres.csv
169,169,"PHARM, DRUGSTORE + MORE",covid_vaccination_centres,-114.094366013666,51.027315337745,103A-3009 14 ST SW,CALGARY,AB,403-764-3080,https://www.thepharmdrugstore.com/,Calgary,AB_Calgary_covid_vaccination_centres.csv
170,170,GRANDE BANKS PHARMACY,covid_vaccination_centres,-118.805375187743,55.141112326975,105-10302 67 AVE,GRANDE PRAIRIE,AB,780-533-5200,,Calgary,AB_Calgary_covid_vaccination_centres.csv
171,171,SHOPPERS DRUG MART #356,covid_vaccination_centres,-114.157181785933,51.085005518409,3625 SHAGANAPPI TRAIL NW,CALGARY,AB,403-288-0111,https://www1.shoppersdrugmart.ca/en/health-and-pharmacy/covid-19?ShortURL=covid,Calgary,AB_Calgary_covid_vaccination_centres.csv
172,172,LOBLAW PHARMACY #4971,covid_vaccination_centres,-114.475518601467,51.187791420941,210 5 AVE W,COCHRANE,AB,403-932-0415,https://www.nofrills.ca/covid19,Calgary,AB_Calgary_covid_vaccination_centres.csv
173,173,IMAGINE HEALTH PHARMACY-DOWNTOWN CALGARY,covid_vaccination_centres,-114.057374191808,51.047557680092,100-300 6 AVE SE,CALGARY,AB,403-775-9669,,Calgary,AB_Calgary_covid_vaccination_centres.csv
174,174,WAL-MART PHARMACY #3147,covid_vaccination_centres,-118.827205190274,55.172832971395,11050 103 AVE,GRANDE PRAIRIE,AB,780-513-3745,https://portal.healthmyself.net/walmartab/forms/a66,Calgary,AB_Calgary_covid_vaccination_centres.csv
175,175,SHOPPERS DRUG MART #328,covid_vaccination_centres,-113.511797525801,53.453284010252,10955 23 AVE NW,EDMONTON,AB,780-436-3055,https://www1.shoppersdrugmart.ca/en/health-and-pharmacy/covid-19?ShortURL=covid,Calgary,AB_Calgary_covid_vaccination_centres.csv
176,176,CALGARY CO-OP PHARMACY #8,covid_vaccination_centres,-114.12098155285,50.96274095625,2580 SOUTHLAND DR SW,CALGARY,AB,403-299-5400,https://www.calgarycoop.com/covid19vaccination,Calgary,AB_Calgary_covid_vaccination_centres.csv
177,177,DIDSBURY VALUE DRUG MART,covid_vaccination_centres,-114.137798045499,51.658797868981,1710 20 ST,DIDSBURY,AB,403-335-3307,,Calgary,AB_Calgary_covid_vaccination_centres.csv
178,178,PLAZA IDA DISPENSARY,covid_vaccination_centres,-113.805530848018,52.270117115068,6A-5030 47 AVE,RED DEER,AB,403-340-3784,,Calgary,AB_Calgary_covid_vaccination_centres.csv
179,179,EXALAN PHARMACY,covid_vaccination_centres,-114.062989678629,51.071314814783,7-2111 CENTRE ST NW,CALGARY,AB,403-276-7076,,Calgary,AB_Calgary_covid_vaccination_centres.csv
180,180,SYNERGY PHARMACY,covid_vaccination_centres,-113.303477143969,53.545146379301,153-501 BETHEL DR,SHERWOOD PARK,AB,780-449-2017,,Calgary,AB_Calgary_covid_vaccination_centres.csv
181,181,MEDICINE CIRCLE PHARMACY,covid_vaccination_centres,-113.536198745951,53.560433110379,11148 124 ST,EDMONTON,AB,780-509-0230,,Calgary,AB_Calgary_covid_vaccination_centres.csv
182,182,NUAID ONE6 PHARMACY,covid_vaccination_centres,-114.096658815203,51.067203047919,1506 16 AVE NW,CALGARY,AB,403-696-9966,,Calgary,AB_Calgary_covid_vaccination_centres.csv
183,183,CALGARY CO-OP PHARMACY #20,covid_vaccination_centres,-114.255210060086,51.147733915813,1000-11595 ROCKYVALLEY DR NW,CALGARY,AB,403-299-5454,https://www.calgarycoop.com/covid19vaccination,Calgary,AB_Calgary_covid_vaccination_centres.csv
184,184,WAL-MART PHARMACY #1050,covid_vaccination_centres,-114.006991001703,51.262604801336,2881 MAIN ST SW,AIRDRIE,AB,403-945-1648,https://portal.healthmyself.net/walmartab/forms/a66,Calgary,AB_Calgary_covid_vaccination_centres.csv
185,185,D&M PHARMACY AND TRAVEL CLINIC 1,covid_vaccination_centres,-114.023617122752,50.882885787495,2105-1800 194 AVE SE,CALGARY,AB,403-457-7110,https://www.travelpharmacy.ca,Calgary,AB_Calgary_covid_vaccination_centres.csv
186,186,MARKET DRUGS MEDICAL LTD,covid_vaccination_centres,-113.486053072941,53.544324318814,10203 97 ST NW,EDMONTON,AB,780-422-1397,https://www.marketdrugsmedical.store/,Calgary,AB_Calgary_covid_vaccination_centres.csv
187,187,FORT STATION PHARMACY,covid_vaccination_centres,-113.204767957089,53.711581826743,629-10490 98 AVE,FORT SASKATCHEWAN,AB,780-589-1314,,Calgary,AB_Calgary_covid_vaccination_centres.csv
188,188,LONDON DRUGS #34,covid_vaccination_centres,-118.822115272533,55.174489293844,10820 104B AVE,GRANDE PRAIRIE,AB,780-538-3715,https://www.londondrugs.com/covid19,Calgary,AB_Calgary_covid_vaccination_centres.csv
189,189,SHOPPERS DRUG MART #314,covid_vaccination_centres,-113.988719272874,51.038861396605,5-3012 17 AVE SE,CALGARY,AB,403-248-4757,https://www1.shoppersdrugmart.ca/en/health-and-pharmacy/covid-19?ShortURL=covid,Calgary,AB_Calgary_covid_vaccination_centres.csv
190,190,UNIVERSAL HEALTH PHARMACY #1,covid_vaccination_centres,-113.9513800152,51.168550098803,150-630 REDSTONE DR NE,CALGARY,AB,587-440-0041,https://www.universalhealthcentre.com,Calgary,AB_Calgary_covid_vaccination_centres.csv
191,191,SCRIPTS MEDICAL PHARMACY,covid_vaccination_centres,-113.493543886619,53.506217200819,201-6925 GATEWAY BLVD,EDMONTON,AB,780-306-5660,https://www.calendly.com/scriptsmedicalonline/15min?month=2021-02,Calgary,AB_Calgary_covid_vaccination_centres.csv
192,192,SHOPPERS DRUG MART #373,covid_vaccination_centres,-114.055338732388,51.154720271988,725-500 COUNTRY HILLS BLVD NE,CALGARY,AB,403-226-5712,https://www1.shoppersdrugmart.ca/en/health-and-pharmacy/covid-19?ShortURL=covid,Calgary,AB_Calgary_covid_vaccination_centres.csv
193,193,TERRALOSA PHARMACY,covid_vaccination_centres,-113.619544188145,53.536174022422,17314 99 AVE,EDMONTON,AB,587-462-1500,,Calgary,AB_Calgary_covid_vaccination_centres.csv
194,194,SHOPPERS DRUG MART #310,covid_vaccination_centres,-113.548989272812,53.276136119095,7-6108 50 ST,LEDUC,AB,780-986-2422,https://www1.shoppersdrugmart.ca/en/health-and-pharmacy/covid-19?ShortURL=covid,Calgary,AB_Calgary_covid_vaccination_centres.csv
195,195,PHARMASAVE GRIMSHAW 3006,covid_vaccination_centres,-117.606242272839,56.19055951382,5304 50 ST,GRIMSHAW,AB,780-332-2125,,Calgary,AB_Calgary_covid_vaccination_centres.csv
196,196,WESTLOCK PRESCRIPTION CENTRE,covid_vaccination_centres,-113.858303627082,54.157339345783,102-10124 107 ST,WESTLOCK,AB,780-349-2882,https://www.remedys.ca/en/alberta/westlock/westlock-prescription-centre-7008724,Calgary,AB_Calgary_covid_vaccination_centres.csv
197,197,BRENTWOOD PHARMASAVE,covid_vaccination_centres,-113.294653099422,53.514629007899,101-50 BRENTWOOD BLVD,SHERWOOD PARK,AB,780-570-0633,https://brentwoodpharmasave.medmeapp.ca/schedule,Calgary,AB_Calgary_covid_vaccination_centres.csv
198,198,LONDON DRUGS #38,covid_vaccination_centres,-112.829155788009,49.700319521804,65-1240 2A AVE N,LETHBRIDGE,AB,403-320-5151,https://www.londondrugs.com/covid19,Calgary,AB_Calgary_covid_vaccination_centres.csv
199,199,ZINOHA PHARMACY & TRAVEL HEALTH SERVICES,covid_vaccination_centres,-114.119108403872,50.97144610802,OAK BAY PLAZA,CALGARY,AB,403-238-2250,http://www.zinohapharmacy.com,Calgary,AB_Calgary_covid_vaccination_centres.csv
200,200,SHOPPERS DRUG MART #2383,covid_vaccination_centres,-114.118993580546,50.996677191501,6449 CROWCHILD TR SW,CALGARY,AB,403-242-4755,https://www1.shoppersdrugmart.ca/en/health-and-pharmacy/covid-19?ShortURL=covid,Calgary,AB_Calgary_covid_vaccination_centres.csv
201,201,SHOPPERS DRUG MART #2387,covid_vaccination_centres,-114.109287630545,51.024017444147,2067 33 AVE SW,CALGARY,AB,403-685-6807,https://www1.shoppersdrugmart.ca/en/health-and-pharmacy/covid-19?ShortURL=covid,Calgary,AB_Calgary_covid_vaccination_centres.csv
202,202,MEDICINE SHOPPE PHARMACY 260,covid_vaccination_centres,-114.203942730701,51.129793073713,11-600 CROWFOOT CRES NW,CALGARY,AB,403-455-9939,https://www.medicineshoppe.ca/en/alberta/calgary/the-medicine-shoppe-pharmacy-260-7001085,Calgary,AB_Calgary_covid_vaccination_centres.csv
203,203,SHOPPERS DRUG MART #2331,covid_vaccination_centres,-113.726719119156,53.351704465388,100-106 ERIE ST S,DEVON,AB,780-987-3412,https://www1.shoppersdrugmart.ca/en/health-and-pharmacy/covid-19?ShortURL=covid,Calgary,AB_Calgary_covid_vaccination_centres.csv
204,204,MEDIMAX PHARMACY,covid_vaccination_centres,-114.068852221472,51.050730796762,240-520 3 AVE SW,CALGARY,AB,403-454-4412,,Calgary,AB_Calgary_covid_vaccination_centres.csv
205,205,LOBLAW PHARMACY #1574,covid_vaccination_centres,-114.074604330308,50.962137299634,PHARMACY DEPARTMENT,CALGARY,AB,403-225-6207,https://www.realcanadiansuperstore.ca/covid19,Calgary,AB_Calgary_covid_vaccination_centres.csv
206,206,SAFEWAY PHARMACY #8841,covid_vaccination_centres,-114.061155017365,50.952863154394,11011 BONAVENTURE DR SE,CALGARY,AB,403-278-8585,https://www.safeway.ca/vaccine-registration/,Calgary,AB_Calgary_covid_vaccination_centres.csv
207,207,REXALL #7507,covid_vaccination_centres,-119.431009793971,55.211621601719,1032 1 AVE,BEAVERLODGE,AB,780-354-2088,https://www.rexall.ca/covid-19/alberta-vaccine,Calgary,AB_Calgary_covid_vaccination_centres.csv
208,208,PRIMECARE PHARMACY,covid_vaccination_centres,-113.524640359088,53.251169863172,103-3610 ROLLYVIEW RD,LEDUC,AB,780-769-1090,,Calgary,AB_Calgary_covid_vaccination_centres.csv
209,209,MACLEOD GUARDIAN PHARMACY,covid_vaccination_centres,-114.058117544198,51.04290306309,1010 MACLEOD TR SE,CALGARY,AB,403-276-8829,,Calgary,AB_Calgary_covid_vaccination_centres.csv
210,210,CHAMPLAIN PHARMACY,covid_vaccination_centres,-113.645797543777,53.801193388551,111-9918 100 ST,MORINVILLE,AB,780-939-2438,,Calgary,AB_Calgary_covid_vaccination_centres.csv
211,211,AVENIDA PHARMACY,covid_vaccination_centres,-114.069319559007,50.942175666398,309-12445 LAKE FRASER DR SE,CALGARY,AB,403-720-6337,http://www.pharmachoice.ca,Calgary,AB_Calgary_covid_vaccination_centres.csv
212,212,BEAUMONT MEDX DRUGS,covid_vaccination_centres,-113.430671501279,53.339368080589,108-6202 29 AVE,BEAUMONT,AB,780-737-5323,https://www.medxdrugs.ca,Calgary,AB_Calgary_covid_vaccination_centres.csv
213,213,SAVE-ON-FOODS PHARMACY #6620 - 50TH ST MARKET,covid_vaccination_centres,-113.408667574971,53.627437806235,4805 167 AVE NW,EDMONTON,AB,587-459-7683,https://saveonfoodspharmacy.medmeapp.com/schedule/,Calgary,AB_Calgary_covid_vaccination_centres.csv
214,214,NOLAN DRUGS,covid_vaccination_centres,-113.475995086298,53.570419832076,8731 118 AVE NW,EDMONTON,AB,780-477-2748,https://bookyourvisit.ca/nolandrugs,Calgary,AB_Calgary_covid_vaccination_centres.csv
215,215,ASPIRE REMEDY'S RX PHARMACY,covid_vaccination_centres,-113.810602401304,52.245500837121,120-2810 BREMNER AVE,RED DEER,AB,403-986-0444,,Calgary,AB_Calgary_covid_vaccination_centres.csv
216,216,SPRUCE GROVE PHARMACY,covid_vaccination_centres,-113.928785608889,53.539796110395,113-187 HWY 16A,SPRUCE GROVE,AB,780-960-5490,https://sgpharm.com,Calgary,AB_Calgary_covid_vaccination_centres.csv
217,217,AIRDRIE DRUG MART,covid_vaccination_centres,-114.012111601682,51.292983963272,101-124 1 AVE NE,AIRDRIE,AB,403-948-0475,,Calgary,AB_Calgary_covid_vaccination_centres.csv
218,218,SAVE-ON-FOODS PHARMACY #6650,covid_vaccination_centres,-112.896272234586,49.694861420631,401 HIGHLANDS BLVD W,LETHBRIDGE,AB,403-381-2759,https://saveonfoodspharmacy.medmeapp.com/schedule/,Calgary,AB_Calgary_covid_vaccination_centres.csv
219,219,LOBLAW PHARMACY #4972,covid_vaccination_centres,-112.706418559111,52.32097713727,5106 47 AVE,STETTLER,AB,403-742-9180,https://www.nofrills.ca/covid19,Calgary,AB_Calgary_covid_vaccination_centres.csv
220,220,MEDICINE SHOPPE PHARMACY 200,covid_vaccination_centres,-113.624432001772,53.634481583338,102-25 ST MICHAEL ST,ST ALBERT,AB,780-459-8545,https://www.medicineshoppe.ca/en/alberta/st-albert/the-medicine-shoppe-pharmacy-200-7009780,Calgary,AB_Calgary_covid_vaccination_centres.csv
221,221,WAL-MART PHARMACY #1136,covid_vaccination_centres,-113.910792349897,51.038762941939,255 EAST HILLS BLVD SE,CALGARY,AB,403-387-0853,https://portal.healthmyself.net/walmartab/forms/a66,Calgary,AB_Calgary_covid_vaccination_centres.csv
222,222,CO-OP PHARMACY DOWNTOWN,covid_vaccination_centres,-118.791100969315,55.170996125711,9831 100 AVE,GRANDE PRAIRIE,AB,780-532-2652,,Calgary,AB_Calgary_covid_vaccination_centres.csv
223,223,SHOPPERS DRUG MART #2304,covid_vaccination_centres,-110.687215744924,50.063727949493,2440 DIVISION AVE NW,MEDICINE HAT,AB,403-528-0539,https://www1.shoppersdrugmart.ca/en/health-and-pharmacy/covid-19?ShortURL=covid,Calgary,AB_Calgary_covid_vaccination_centres.csv
224,224,SNOW'S PHARMACY INC.,covid_vaccination_centres,-112.661906930587,49.462709227377,53A BROADWAY N,RAYMOND,AB,403-752-3023,https://www.bookmyshot.com/covidshot/403-752-3023,Calgary,AB_Calgary_covid_vaccination_centres.csv
225,225,WEST EDMONTON MALL PHARMASAVE #331,covid_vaccination_centres,-113.618405073646,53.521558918429,2031-8882 170 ST NW,EDMONTON,AB,780-665-4755,https://pharmasavewestedmontonmall.medmeapp.ca/schedule,Calgary,AB_Calgary_covid_vaccination_centres.csv
226,226,WALKER LAKE REMEDY'S RX,covid_vaccination_centres,-113.418941645819,53.414155636452,5007 22 AVE SW,EDMONTON,AB,780-752-2800,,Calgary,AB_Calgary_covid_vaccination_centres.csv
227,227,DRUGSTORE PHARMACY #4381,covid_vaccination_centres,-114.135001895758,51.793956530821,100-6509 46 ST,OLDS,AB,403-507-8015,https://www.nofrills.ca/covid19,Calgary,AB_Calgary_covid_vaccination_centres.csv
228,228,SHOPPERS DRUG MART #2469,covid_vaccination_centres,-113.513859516983,53.452576480445,2037 111 ST NW,EDMONTON,AB,780-430-8400,https://www1.shoppersdrugmart.ca/en/health-and-pharmacy/covid-19?ShortURL=covid,Calgary,AB_Calgary_covid_vaccination_centres.csv
229,229,MEDICINE SHOPPE PHARMACY 178,covid_vaccination_centres,-114.158858815362,51.068051480177,105-4411 16 AVE NW,CALGARY,AB,403-247-9502,https://www.medicineshoppe.ca/en/alberta/calgary/the-medicine-shoppe-pharmacy-178-7015229,Calgary,AB_Calgary_covid_vaccination_centres.csv
230,230,TOTAL WELLNESS PHARMACY,covid_vaccination_centres,-113.852264543769,52.287329425588,120-6845 66 ST,RED DEER,AB,403-967-1777,,Calgary,AB_Calgary_covid_vaccination_centres.csv
231,231,LOBLAW PHARMACY #1573,covid_vaccination_centres,-113.621116572574,53.54009057035,17303 STONY PLAIN RD NW,EDMONTON,AB,780-486-8454,https://www.realcanadiansuperstore.ca/covid19,Calgary,AB_Calgary_covid_vaccination_centres.csv
232,232,SHOPPERS DRUG MART #2369,covid_vaccination_centres,-114.108625034551,51.175080969662,5004-2060 SYMONS VALLEY,CALGARY,AB,587-755-7783,https://www1.shoppersdrugmart.ca/en/health-and-pharmacy/covid-19?ShortURL=covid,Calgary,AB_Calgary_covid_vaccination_centres.csv
233,233,SHOPPERS DRUG MART #2439,covid_vaccination_centres,-113.517423343972,53.426516622092,11120 ELLERSLIE RD SW,EDMONTON,AB,780-438-1131,https://www1.shoppersdrugmart.ca/en/health-and-pharmacy/covid-19?ShortURL=covid,Calgary,AB_Calgary_covid_vaccination_centres.csv
234,234,SWITZER'S DRUGS,covid_vaccination_centres,-116.431385059309,53.582414559018,224 50 ST,EDSON,AB,780-723-4666,,Calgary,AB_Calgary_covid_vaccination_centres.csv
235,235,ANDERSON DRUG BY FRESON BROS HANNA,covid_vaccination_centres,-111.938487,51.642551644471,602 2 AVE W,HANNA,AB,403-854-4357,,Calgary,AB_Calgary_covid_vaccination_centres.csv
236,236,MEDICINE SHOPPE PHARMACY 403,covid_vaccination_centres,-114.772291374721,55.279731030882,102-102 6 AVE SW,SLAVE LAKE,AB,780-849-2896,https://www.medicineshoppe.ca/en/alberta/slave-lake/medicine-shoppe-403-7038142,Calgary,AB_Calgary_covid_vaccination_centres.csv
237,237,SHOPPERS DRUG MART #312,covid_vaccination_centres,-113.512417642123,53.517969135666,10907 82 AVE NW,EDMONTON,AB,780-433-2424,https://www1.shoppersdrugmart.ca/en/health-and-pharmacy/covid-19?ShortURL=covid,Calgary,AB_Calgary_covid_vaccination_centres.csv
238,238,SAFEWAY PHARMACY #8824,covid_vaccination_centres,-114.084413881132,51.056233929106,410 10 ST NW,CALGARY,AB,403-283-8185,https://www.safeway.ca/vaccine-registration/,Calgary,AB_Calgary_covid_vaccination_centres.csv
239,239,SHOPPERS DRUG MART #317,covid_vaccination_centres,-113.505175794539,53.562406866374,192 KINGSWAY GARDEN MALL NW,EDMONTON,AB,780-474-8237,https://www1.shoppersdrugmart.ca/en/health-and-pharmacy/covid-19?ShortURL=covid,Calgary,AB_Calgary_covid_vaccination_centres.csv
240,240,PHARMASAVE BASHAW #319,covid_vaccination_centres,-112.971176459482,52.58398735928,5010 50 ST,BASHAW,AB,780-372-3503,,Calgary,AB_Calgary_covid_vaccination_centres.csv
241,241,SHOPPERS DRUG MART #2307,covid_vaccination_centres,-113.366763931348,53.475532001734,3735 17 ST NW,EDMONTON,AB,780-463-1867,https://www1.shoppersdrugmart.ca/en/health-and-pharmacy/covid-19?ShortURL=covid,Calgary,AB_Calgary_covid_vaccination_centres.csv
242,242,ANDREW PHARMACY AND HOME HEALTHCARE,covid_vaccination_centres,-112.335320987774,53.879101397627,5022 51 St,ANDREW,AB,780-365-3832,,Calgary,AB_Calgary_covid_vaccination_centres.csv
243,243,QUICK CARE PHARMACY,covid_vaccination_centres,-113.605355059629,53.622802998471,238-2 HEBERT RD,ST ALBERT,AB,780-544-9393,,Calgary,AB_Calgary_covid_vaccination_centres.csv
244,244,DRUGSTORE PHARMACY #9024,covid_vaccination_centres,-113.296602777803,49.202007310311,120 2 ST E,CARDSTON,AB,403-653-3352,https://www.extrafoods.ca/covid19,Calgary,AB_Calgary_covid_vaccination_centres.csv
245,245,SHOPPERS DRUG MART #2356,covid_vaccination_centres,-114.071708457847,50.878829444024,830-19369 SHERIFF KING ST SW,CALGARY,AB,403-873-9135,https://www1.shoppersdrugmart.ca/en/health-and-pharmacy/covid-19?ShortURL=covid,Calgary,AB_Calgary_covid_vaccination_centres.csv
246,246,SHOPPERS DRUG MART #305,covid_vaccination_centres,-114.070561057532,51.102409503915,5628 4 ST NW,CALGARY,AB,403-275-1222,https://www1.shoppersdrugmart.ca/en/health-and-pharmacy/covid-19?ShortURL=covid,Calgary,AB_Calgary_covid_vaccination_centres.csv
247,247,PETER'S PHARMACY,covid_vaccination_centres,-113.267965963374,51.704098302606,419 MAIN ST,THREE HILLS,AB,403-443-2433,,Calgary,AB_Calgary_covid_vaccination_centres.csv
248,248,HARRVEST HILL PHARMACY,covid_vaccination_centres,-114.065567332869,51.14266538046,111-160 96 AVE NE,CALGARY,AB,403-475-5900,,Calgary,AB_Calgary_covid_vaccination_centres.csv
249,249,CALGARY CO-OP PHARMACY #5,covid_vaccination_centres,-113.988160566415,51.03886471279,3330 17 AVE SE,CALGARY,AB,403-299-4467,https://www.calgarycoop.com/covid19vaccination,Calgary,AB_Calgary_covid_vaccination_centres.csv
250,250,CASTLEDOWNS ARP PHARMACY,covid_vaccination_centres,-113.515689401454,53.613295456345,122-15277 CASTLEDOWNS RD NW,EDMONTON,AB,780-457-0854,http://castledownspharmacy.com/,Calgary,AB_Calgary_covid_vaccination_centres.csv
251,251,PHARMASAVE #345,covid_vaccination_centres,-111.898218801722,50.575632235125,BAY C -316 8 AVE W,BROOKS,AB,403-362-2265,,Calgary,AB_Calgary_covid_vaccination_centres.csv
252,252,SAFEWAY PHARMACY #8899,covid_vaccination_centres,-113.389088219716,52.958674239156,3901 56 ST,WETASKIWIN,AB,780-352-2848,https://www.safeway.ca/vaccine-registration/,Calgary,AB_Calgary_covid_vaccination_centres.csv
253,253,SHOPPERS DRUG MART #360,covid_vaccination_centres,-118.781723336069,55.156941875883,5-9701 84 AVE,GRANDE PRAIRIE,AB,780-532-3318,https://www1.shoppersdrugmart.ca/en/health-and-pharmacy/covid-19?ShortURL=covid,Calgary,AB_Calgary_covid_vaccination_centres.csv
254,254,LOBLAW PHARMACY #4201,covid_vaccination_centres,-113.719538714929,52.472827692823,5700 HWY 2A,LACOMBE,AB,403-782-7354,https://www.nofrills.ca/covid19,Calgary,AB_Calgary_covid_vaccination_centres.csv
255,255,DRUGSTORE PHARMACY #9052,covid_vaccination_centres,-114.914307916646,52.384589851748,5520 46 ST,ROCKY MOUNTAIN HOUSE,AB,403-846-4715,https://www.extrafoods.ca/covid19,Calgary,AB_Calgary_covid_vaccination_centres.csv
256,256,MEDIWELL PHARMACY,covid_vaccination_centres,-113.978877215359,51.147837421373,106-3840 104 AVE NE,CALGARY,AB,825-222-8900,,Calgary,AB_Calgary_covid_vaccination_centres.csv
257,257,SOBEYS PHARMACY #1104,covid_vaccination_centres,-112.810217086404,49.728113555907,327 BLUEFOX BLVD N,LETHBRIDGE,AB,403-320-5618,https://www.safeway.ca/vaccine-registration/,Calgary,AB_Calgary_covid_vaccination_centres.csv
258,258,WHOLE HEALTH PHARMACY EDMONTON,covid_vaccination_centres,-113.422855771433,53.598594056987,13578B FORT RD NW,EDMONTON,AB,587-524-9928,,Calgary,AB_Calgary_covid_vaccination_centres.csv
259,259,TRINITY PHARMACY,covid_vaccination_centres,-113.494181357463,53.548701592005,10530 101 ST NW,EDMONTON,AB,780-752-2220,,Calgary,AB_Calgary_covid_vaccination_centres.csv
260,260,RX DRUG MART #2014,covid_vaccination_centres,-114.404786689491,54.119857201617,5028 50 ST,BARRHEAD,AB,780-674-2121,,Calgary,AB_Calgary_covid_vaccination_centres.csv
261,261,TAWA PHARMASAVE,covid_vaccination_centres,-113.432990857466,53.461670693315,3013 66 ST NW,EDMONTON,AB,780-758-7283,https://www.tawapharmasave.ca,Calgary,AB_Calgary_covid_vaccination_centres.csv
262,262,GREENBROOK PHARMACY,covid_vaccination_centres,-111.880856459016,50.566239424038,344 8 ST E,BROOKS,AB,403-362-4283,,Calgary,AB_Calgary_covid_vaccination_centres.csv
263,263,MEDICINE SHOPPE PHARMACY 372,covid_vaccination_centres,-111.362658801546,56.721474334265,203-8706 FRANKLIN AVE,FORT MCMURRAY,AB,587-536-6648,https://www.medicineshoppe.ca/en/alberta/fort-mcmurray/the-medicine-shoppe-pharmacy-372-7022420,Calgary,AB_Calgary_covid_vaccination_centres.csv
264,264,MEDICINE SHOPPE PHARMACY 387,covid_vaccination_centres,-113.484649917114,53.600250330075,13703 93 ST NW,EDMONTON,AB,780-760-3387,https://www.medicineshoppe.ca/en/alberta/edmonton/the-medicine-shoppe-pharmacy-387-7027091,Calgary,AB_Calgary_covid_vaccination_centres.csv
265,265,East Calgary Health Centre Family Care Clinic,covid_vaccination_centres,-113.967234630403,51.045099467288,4715 8 Ave SE,CALGARY,AB,811,https://www.albertahealthservices.ca/topics/Page17295.aspx,Calgary,AB_Calgary_covid_vaccination_centres.csv
266,266,IDA COMMUNITY PHARMACY,covid_vaccination_centres,-113.351857972572,53.632911014883,36 EVERGREEN PK NW,EDMONTON,AB,587-523-0900,https://www.bookmyshot.com/5875230900,Calgary,AB_Calgary_covid_vaccination_centres.csv
267,267,MEDICINE SHOPPE PHARMACY 320,covid_vaccination_centres,-113.598999299929,53.541253581153,102-16028 100A AVE NW,EDMONTON,AB,780-487-6336,https://www.medicineshoppe.ca/en/alberta/edmonton/the-medicine-shoppe-pharmacy-320-7008159,Calgary,AB_Calgary_covid_vaccination_centres.csv
268,268,SOBEYS PHARMACY #5190,covid_vaccination_centres,-113.425190815137,53.42441104276,5309 ELLERSLIE RD SW,EDMONTON,AB,780-450-1116,https://www.safeway.ca/vaccine-registration/,Calgary,AB_Calgary_covid_vaccination_centres.csv
269,269,BALKWILL PHARMACY LTD.,covid_vaccination_centres,-113.227211657134,51.827504918066,223 MAIN ST,TROCHU,AB,403-442-3823,,Calgary,AB_Calgary_covid_vaccination_centres.csv
270,270,MEDICINE SHOPPE PHARMACY 344,covid_vaccination_centres,-113.489738086434,53.57039804655,9559 118 AVE NW,EDMONTON,AB,780-477-3779,https://www.medicineshoppe.ca/en/alberta/edmonton/the-medicine-shoppe-pharmacy-344-7011508,Calgary,AB_Calgary_covid_vaccination_centres.csv
271,271,IDEAL CARE PHARMACY,covid_vaccination_centres,-113.466736357092,53.576375904215,12147 82 ST NW,EDMONTON,AB,780-756-1236,,Calgary,AB_Calgary_covid_vaccination_centres.csv
272,272,SHOPPERS DRUG MART #331,covid_vaccination_centres,-112.864801101422,53.018786047289,180 CORNERSTONE MALL,CAMROSE,AB,780-672-4961,https://www1.shoppersdrugmart.ca/en/health-and-pharmacy/covid-19?ShortURL=covid,Calgary,AB_Calgary_covid_vaccination_centres.csv
273,273,DRUGSTORE PHARMACY #6717,covid_vaccination_centres,-110.725752604407,54.281299065975,5106 46 ST,BONNYVILLE,AB,780-812-3947,https://www.wholesaleclub.ca/covid19,Calgary,AB_Calgary_covid_vaccination_centres.csv
274,274,UNIVERSAL HEALTH PHARMACY #12 DIDSBURY,covid_vaccination_centres,-114.139280915187,51.660439884335,106-2034 19 AVE,DIDSBURY,AB,403-335-8473,https://www.universalhealthcentre.com,Calgary,AB_Calgary_covid_vaccination_centres.csv
275,275,REXALL #7223,covid_vaccination_centres,-113.579896771195,52.671876443635,3-4502 50 ST,PONOKA,AB,403-783-5568,https://www.rexall.ca/covid-19/alberta-vaccine,Calgary,AB_Calgary_covid_vaccination_centres.csv
276,276,MEDICINE SHOPPE PHARMACY 188,covid_vaccination_centres,-113.525975773372,53.558384498343,100-11910 111 AVE,EDMONTON,AB,780-455-1302,https://www.medicineshoppe.ca/en/alberta/edmonton/the-medicine-shoppe-pharmacy-188-7034562,Calgary,AB_Calgary_covid_vaccination_centres.csv
277,277,REXALL #7514,covid_vaccination_centres,-113.500763576785,53.557195646761,10507 KINGSWAY AVE NW,EDMONTON,AB,780-634-0461,https://www.rexall.ca/covid-19/alberta-vaccine,Calgary,AB_Calgary_covid_vaccination_centres.csv
278,278,LOBLAW PHARMACY #1577,covid_vaccination_centres,-114.167885101471,51.021338001519,5858 SIGNAL HILL CTR SW,CALGARY,AB,403-686-8035,https://www.realcanadiansuperstore.ca/covid19,Calgary,AB_Calgary_covid_vaccination_centres.csv
279,279,SAFEWAY PHARMACY #8859,covid_vaccination_centres,-113.605987373122,53.622632062396,300-2 HEBERT RD,ST ALBERT,AB,780-460-9339,https://www.safeway.ca/vaccine-registration/,Calgary,AB_Calgary_covid_vaccination_centres.csv
280,280,SHOPPERS DRUG MART #2409,covid_vaccination_centres,-112.705449544004,52.322626671294,4718 50 ST,STETTLER,AB,403-742-3367,https://www1.shoppersdrugmart.ca/en/health-and-pharmacy/covid-19?ShortURL=covid,Calgary,AB_Calgary_covid_vaccination_centres.csv
281,281,SAFEWAY PHARMACY #8867,covid_vaccination_centres,-113.517931409356,53.547540348325,11410 104 AVE NW,EDMONTON,AB,780-424-0666,https://www.safeway.ca/vaccine-registration/,Calgary,AB_Calgary_covid_vaccination_centres.csv
282,282,SHOPPERS DRUG MART #2391,covid_vaccination_centres,-114.211752386366,51.14996696065,8756 COUNTRY HILLS BLVD NW,CALGARY,AB,403-208-4742,https://www1.shoppersdrugmart.ca/en/health-and-pharmacy/covid-19?ShortURL=covid,Calgary,AB_Calgary_covid_vaccination_centres.csv
283,283,STOKES PHARMACY,covid_vaccination_centres,-112.840349830581,49.694448981461,408 4 AVE S,LETHBRIDGE,AB,403-380-3535,https://stokes.medmeapp.com/schedule,Calgary,AB_Calgary_covid_vaccination_centres.csv
284,284,SHOPPERS DRUG MART #2315,covid_vaccination_centres,-113.526386728946,53.547713220835,102-11962 104 AVE NW,EDMONTON,AB,780-670-6922,https://www1.shoppersdrugmart.ca/en/health-and-pharmacy/covid-19?ShortURL=covid,Calgary,AB_Calgary_covid_vaccination_centres.csv
285,285,WABAMUN PHARMACY LTD,covid_vaccination_centres,-114.471947915133,53.558021932759,5120 51 AVE,WABAMUN,AB,780-892-2418,http://bookyourvisit.ca/wabamunpharmacy,Calgary,AB_Calgary_covid_vaccination_centres.csv
286,286,COSTCO PHARMACY #1157,covid_vaccination_centres,-113.637106316795,53.66952362928,1075 ST. ALBERT TR,ST ALBERT,AB,780-544-2010,https://www.costcopharmacy.ca/appointment,Calgary,AB_Calgary_covid_vaccination_centres.csv
287,287,MINT HEALTH + DRUGS: BEAVERLODGE,covid_vaccination_centres,-119.428636888788,55.209938613739,112 10 ST,BEAVERLODGE,AB,780-354-2148,https://www.mintdrugs.com,Calgary,AB_Calgary_covid_vaccination_centres.csv
288,288,VISTA PHARMACY & TRAVEL CLINIC,covid_vaccination_centres,-113.980997815203,51.060325327843,130A-920 36 ST NE,CALGARY,AB,403-460-3226,https://www.vistapharmacy.ca,Calgary,AB_Calgary_covid_vaccination_centres.csv
289,289,SHOPPERS DRUG MART #2355,covid_vaccination_centres,-114.203581373184,51.124597518115,28 CROWFOOT TERR NW,CALGARY,AB,403-241-8818,https://www1.shoppersdrugmart.ca/en/health-and-pharmacy/covid-19?ShortURL=covid,Calgary,AB_Calgary_covid_vaccination_centres.csv
290,290,SHOPPERS DRUG MART #355,covid_vaccination_centres,-114.101623544038,51.066323019841,1790-1632 14 AVE NW,CALGARY,AB,403-289-6761,https://www1.shoppersdrugmart.ca/en/health-and-pharmacy/covid-19?ShortURL=covid,Calgary,AB_Calgary_covid_vaccination_centres.csv
291,291,SOUTH TRAIL PHARMACY,covid_vaccination_centres,-113.973071715207,50.930592543138,78-4307 130 AVE SE,CALGARY,AB,403-475-8612,,Calgary,AB_Calgary_covid_vaccination_centres.csv
292,292,SAFEWAY PHARMACY #8921,covid_vaccination_centres,-113.509044796415,53.454859528311,2304 109 ST NW,EDMONTON,AB,780-430-4269,https://www.safeway.ca/vaccine-registration/,Calgary,AB_Calgary_covid_vaccination_centres.csv
293,293,SHOPPERS DRUG MART #2300,covid_vaccination_centres,-113.628872713051,53.656560367264,100-665 ST. ALBERT RD,ST ALBERT,AB,780-418-7891,https://www1.shoppersdrugmart.ca/en/health-and-pharmacy/covid-19?ShortURL=covid,Calgary,AB_Calgary_covid_vaccination_centres.csv
294,294,BENTLEY IDA,covid_vaccination_centres,-114.051217814791,52.465503390734,5018 50 AVE,BENTLEY,AB,403-748-3820,,Calgary,AB_Calgary_covid_vaccination_centres.csv
295,295,MEDICINE SHOPPE PHARMACY 315,covid_vaccination_centres,-113.442575544104,53.570224362248,6525 118 AVE NW,EDMONTON,AB,780-479-2077,https://www.medicineshoppe.ca/en/alberta/edmonton/the-medicine-shoppe-pharmacy-315-7008312,Calgary,AB_Calgary_covid_vaccination_centres.csv
296,296,PHARMASAVE #346,covid_vaccination_centres,-117.28229883297,55.051271820899,1D-3808 HIGHWAY ST,VALLEYVIEW,AB,780-524-2183,,Calgary,AB_Calgary_covid_vaccination_centres.csv
297,297,LOBLAW PHARMACY #1544,covid_vaccination_centres,-118.790751001368,55.191090814693,12225 99 ST,GRANDE PRAIRIE,AB,780-831-3835,https://www.realcanadiansuperstore.ca/covid19,Calgary,AB_Calgary_covid_vaccination_centres.csv
298,298,REXALL #7238,covid_vaccination_centres,-113.41318958104,53.607601661775,14403 MILLER BLVD NW,EDMONTON,AB,780-475-1364,https://www.rexall.ca/covid-19/alberta-vaccine,Calgary,AB_Calgary_covid_vaccination_centres.csv
299,299,HEALTH AID PHARMACY,covid_vaccination_centres,-113.546775357091,53.629420312247,12918 167 AVE NW,EDMONTON,AB,780-244-0803,,Calgary,AB_Calgary_covid_vaccination_centres.csv
300,300,LIFE MED PHARMACY #2,covid_vaccination_centres,-113.252436212712,50.558328417107,218 CENTER ST,VULCAN,AB,403-485-2552,,Calgary,AB_Calgary_covid_vaccination_centres.csv
301,301,SHOPPERS DRUG MART #313,covid_vaccination_centres,-113.593380855333,53.520817361035,254 MEADOWLARK HEALTH CTR,EDMONTON,AB,780-484-7718,https://www1.shoppersdrugmart.ca/en/health-and-pharmacy/covid-19?ShortURL=covid,Calgary,AB_Calgary_covid_vaccination_centres.csv
302,302,PREFERREDRX PHARMACY,covid_vaccination_centres,-114.103074763372,51.794792913321,1-4601 50 AVE,OLDS,AB,403-556-4155,,Calgary,AB_Calgary_covid_vaccination_centres.csv
303,303,CRANSTON SMART DRUG MART,covid_vaccination_centres,-113.968423430173,50.868685154015,121-35 CRANFORD WAY SE,CALGARY,AB,587-623-1120,https://www.cranstonpharmacy.com/,Calgary,AB_Calgary_covid_vaccination_centres.csv
304,304,SAFEWAY PHARMACY #8885,covid_vaccination_centres,-113.978855508057,53.540034488831,4202 SOUTH PARK DR,STONY PLAIN,AB,780-963-2264,https://www.safeway.ca/vaccine-registration/,Calgary,AB_Calgary_covid_vaccination_centres.csv
305,305,MEDICINE SHOPPE PHARMACY 194,covid_vaccination_centres,-114.071898515204,51.032319928796,2303 4 ST SW,CALGARY,AB,403-229-3458,https://www.medicineshoppe.ca/en/alberta/calgary/the-medicine-shoppe-pharmacy-194-7002313,Calgary,AB_Calgary_covid_vaccination_centres.csv
306,306,SHOPPERS DRUG MART #2377,covid_vaccination_centres,-113.571336872807,53.435382141777,5970 MULLEN WAY NW,EDMONTON,AB,780-435-1782,https://www1.shoppersdrugmart.ca/en/health-and-pharmacy/covid-19?ShortURL=covid,Calgary,AB_Calgary_covid_vaccination_centres.csv
307,307,HIGH RIVER PHARMACY,covid_vaccination_centres,-113.872585243671,50.580076597271,103 3 AVE SW,HIGH RIVER,AB,403-652-5608,,Calgary,AB_Calgary_covid_vaccination_centres.csv
308,308,WELLNESS DISPENSARY,covid_vaccination_centres,-113.6071682029,53.540580414721,26-10081 166 ST,EDMONTON,AB,780-930-1344,,Calgary,AB_Calgary_covid_vaccination_centres.csv
309,309,FAMILY CARE PHARMACY,covid_vaccination_centres,-114.070377848381,51.142655397504,218-40 COUNTRY HILLS LANDNG NW,CALGARY,AB,587-352-2600,,Calgary,AB_Calgary_covid_vaccination_centres.csv
310,310,ROYAL CARE DOUGLASDALE PHARMACY,covid_vaccination_centres,-114.001993305721,50.943565580442,6-20 DOUGLAS WOODS DR SE,CALGARY,AB,587-349-3443,,Calgary,AB_Calgary_covid_vaccination_centres.csv
311,311,SHOPPERS DRUG MART #2374,covid_vaccination_centres,-113.489793116978,53.620604797262,15969 97 ST NW,EDMONTON,AB,780-473-2813,https://www1.shoppersdrugmart.ca/en/health-and-pharmacy/covid-19?ShortURL=covid,Calgary,AB_Calgary_covid_vaccination_centres.csv
312,312,UNIVERSAL PHARMACY,covid_vaccination_centres,-113.956259288215,51.053089927705,113-5271 MEMORIAL DR SE,CALGARY,AB,403-235-0081,,Calgary,AB_Calgary_covid_vaccination_centres.csv
313,313,SAVE-ON-FOODS PHARMACY #6623,covid_vaccination_centres,-113.948297949905,50.707267517822,400-100 SOUTHBANK BLVD,OKOTOKS,AB,587-757-8972,https://saveonfoodspharmacy.medmeapp.com/schedule/,Calgary,AB_Calgary_covid_vaccination_centres.csv
314,314,PATIENT CARE PHARMACY,covid_vaccination_centres,-113.457397886618,53.514193828326,7707 85 ST NW,EDMONTON,AB,780-705-8100,http://www.patientcarepharmacyedmonton.com,Calgary,AB_Calgary_covid_vaccination_centres.csv
315,315,SHOPPERS DRUG MART #2446,covid_vaccination_centres,-113.417055186296,53.628464515561,5351 167 AVE NW,EDMONTON,AB,780-478-7261,https://www1.shoppersdrugmart.ca/en/health-and-pharmacy/covid-19?ShortURL=covid,Calgary,AB_Calgary_covid_vaccination_centres.csv
316,316,WAL-MART PHARMACY #3150,covid_vaccination_centres,-110.643157546774,49.993622633278,2051 STRACHAN RD SE,MEDICINE HAT,AB,403-526-1444,https://portal.healthmyself.net/walmartab/forms/a66,Calgary,AB_Calgary_covid_vaccination_centres.csv
317,317,6&6 PHARMACY,covid_vaccination_centres,-112.838512372302,49.691893888654,526 6 ST S,LETHBRIDGE,AB,403-942-0044,,Calgary,AB_Calgary_covid_vaccination_centres.csv
318,318,SAVE-ON-FOODS PHARMACY #6607,covid_vaccination_centres,-111.355401108724,56.718010604955,6406 FRANKLIN AVE,FORT MCMURRAY,AB,780-791-4147,https://www.saveonfoods.com,Calgary,AB_Calgary_covid_vaccination_centres.csv
319,319,VIKING PHARMACY,covid_vaccination_centres,-111.778498828641,53.096763722236,5305 51 ST,VIKING,AB,780-336-3380,,Calgary,AB_Calgary_covid_vaccination_centres.csv
320,320,WAL-MART PHARMACY #3038,covid_vaccination_centres,-117.625204819155,53.383714957822,PARKS WEST MALL,HINTON,AB,780-865-1575,https://portal.healthmyself.net/walmartab/forms/a66,Calgary,AB_Calgary_covid_vaccination_centres.csv
321,321,PHARMASAVE WESTMOUNT,covid_vaccination_centres,-113.535750747987,53.554001694589,10844 124 ST NW,EDMONTON,AB,780-249-9901,https://www.pharmasave.com/edmonton-westmount,Calgary,AB_Calgary_covid_vaccination_centres.csv
322,322,MEDICINE SHOPPE PHARMACY 126,covid_vaccination_centres,-114.070351644766,51.099479247408,12-5440 4 ST NW,CALGARY,AB,403-274-3400,https://www.medicineshoppe.ca/en/alberta/calgary/the-medicine-shoppe-pharmacy-126-7011287,Calgary,AB_Calgary_covid_vaccination_centres.csv
323,323,WAL-MART PHARMACY #1028,covid_vaccination_centres,-112.688272730533,51.450079003235,1801 SOUTH RAILWAY AVE,DRUMHELLER,AB,403-820-7741,https://portal.healthmyself.net/walmartab/forms/a66,Calgary,AB_Calgary_covid_vaccination_centres.csv
324,324,MEDICINE SHOPPE PHARMACY 393,covid_vaccination_centres,-113.567136459446,53.551807768232,10714 142 ST NW,EDMONTON,AB,587-520-2061,https://www.medicineshoppe.ca/en/alberta/edmonton/the-medicine-shoppe-pharmacy-393-7051291,Calgary,AB_Calgary_covid_vaccination_centres.csv
325,325,REXALL #7284,covid_vaccination_centres,-114.014558265905,51.058578661945,116-817 19 ST NE,CALGARY,AB,403-277-2227,https://www.rexall.ca/covid-19/alberta-vaccine,Calgary,AB_Calgary_covid_vaccination_centres.csv
326,326,MADIGAN PHARMACY,covid_vaccination_centres,-113.942733701868,51.052997769984,68-6060 MEMORIAL DR NE,CALGARY,AB,403-457-9250,https://madiganpharmacy.myappts.ca/src/,Calgary,AB_Calgary_covid_vaccination_centres.csv
327,327,BOYLE MCCAULEY PHARMACY & HOME HEALTH CARE,covid_vaccination_centres,-113.484050658945,53.555242548971,10817 95 ST NW,EDMONTON,AB,780-705-6333,,Calgary,AB_Calgary_covid_vaccination_centres.csv
328,328,PHARMASAVE #312 LEGAL,covid_vaccination_centres,-113.591093249826,53.949391258619,4718 50 AVE,LEGAL,AB,780-961-2285,,Calgary,AB_Calgary_covid_vaccination_centres.csv
329,329,CURE CARE PHARMACY,covid_vaccination_centres,-113.478443958943,53.641648790715,11-9104 179 AVE NW,EDMONTON,AB,587-459-4999,https://forms.gle/Pof2d7Jv6J2R5ihU7,Calgary,AB_Calgary_covid_vaccination_centres.csv
330,330,REXALL #7516,covid_vaccination_centres,-110.861694650433,52.833469766191,118 10 ST,WAINWRIGHT,AB,780-842-3414,https://www.rexall.ca/covid-19/alberta-vaccine,Calgary,AB_Calgary_covid_vaccination_centres.csv
331,331,WAL-MART PHARMACY #1145,covid_vaccination_centres,-113.494016859633,53.475531972663,SOUTHPARK VILLAGE,EDMONTON,AB,780-433-2575,https://portal.healthmyself.net/walmartab/forms/a66,Calgary,AB_Calgary_covid_vaccination_centres.csv
332,332,SAFEWAY PHARMACY #8830,covid_vaccination_centres,-114.014075132641,51.288835429289,TOWER LANE MALL,AIRDRIE,AB,403-948-3361,https://www.safeway.ca/vaccine-registration/,Calgary,AB_Calgary_covid_vaccination_centres.csv
333,333,SHOPPERS DRUG MART #2413,covid_vaccination_centres,-114.109649186372,50.908122845509,100-2250 162 AVE SW,CALGARY,AB,403-201-8202,https://www1.shoppersdrugmart.ca/en/health-and-pharmacy/covid-19?ShortURL=covid,Calgary,AB_Calgary_covid_vaccination_centres.csv
334,334,VILLAGE PHARMACY,covid_vaccination_centres,-113.436568628628,53.537869757758,9805 71 ST NW,EDMONTON,AB,780-440-4555,,Calgary,AB_Calgary_covid_vaccination_centres.csv
335,335,LOBLAW PHARMACY #1550,covid_vaccination_centres,-110.652351714988,50.004219390544,PHARMACY DEPARTMENT #1550,MEDICINE HAT,AB,403-528-5735,https://www.realcanadiansuperstore.ca/covid19,Calgary,AB_Calgary_covid_vaccination_centres.csv
336,336,SAGE MEADOWS PHARMACY,covid_vaccination_centres,-114.13147587688,51.175381358895,240-2971 136 AVE NW,CALGARY,AB,587-997-0093,,Calgary,AB_Calgary_covid_vaccination_centres.csv
337,337,FOREST HILLS PHARMASAVE #323,covid_vaccination_centres,-113.957989701333,51.037606007783,3-5315 17 AVE SE,CALGARY,AB,587-354-7766,,Calgary,AB_Calgary_covid_vaccination_centres.csv
338,338,REXALL #7285,covid_vaccination_centres,-113.960550188755,50.914685860347,70 HIGH ST SE,CALGARY,AB,403-257-3636,https://www.rexall.ca/covid-19/alberta-vaccine,Calgary,AB_Calgary_covid_vaccination_centres.csv
339,339,PARSONS PHARMACY,covid_vaccination_centres,-113.807208554116,52.267626263762,1C-4755 49 ST,RED DEER,AB,403-986-0700,,Calgary,AB_Calgary_covid_vaccination_centres.csv
340,340,DOWNTOWN DRUGMART,covid_vaccination_centres,-114.06392619948,51.045618229705,115 8 AVE SW,CALGARY,AB,403-266-2059,https://www.downtowndrugmart.myappts.ca/ssc,Calgary,AB_Calgary_covid_vaccination_centres.csv
341,341,DELTON SUPER DRUGS LTD.,covid_vaccination_centres,-113.467729257092,53.587695774065,12904 82 ST NW,EDMONTON,AB,780-476-8737,,Calgary,AB_Calgary_covid_vaccination_centres.csv
342,342,LOBLAW PHARMACY #1565,covid_vaccination_centres,-113.933468428396,53.544182057914,10-110 JENNIFER HEIL WAY,SPRUCE GROVE,AB,780-960-7435,https://www.realcanadiansuperstore.ca/covid19,Calgary,AB_Calgary_covid_vaccination_centres.csv
343,343,STUBBS PHARMACY,covid_vaccination_centres,-112.820456544076,49.686494769183,1506 9 AVE S,LETHBRIDGE,AB,403-328-5512,,Calgary,AB_Calgary_covid_vaccination_centres.csv
344,344,PONOKA PROFESSIONAL PHARMACY,covid_vaccination_centres,-113.578526968897,52.674389503479,20-5011 48 AVE,PONOKA,AB,403-783-7333,https://www.calendly.com/ponoka,Calgary,AB_Calgary_covid_vaccination_centres.csv
345,345,TWO PHARMACY,covid_vaccination_centres,-114.47443117287,51.185761249079,105-100 GRANDE BLVD W,COCHRANE,AB,,https://www.twopharmacy.ca,Calgary,AB_Calgary_covid_vaccination_centres.csv
346,346,WAL-MART PHARMACY #3009,covid_vaccination_centres,-114.139620292226,51.041099035352,WESTBROOK PLAZA,CALGARY,AB,403-249-8904,https://portal.healthmyself.net/walmartab/forms/a66,Calgary,AB_Calgary_covid_vaccination_centres.csv
347,347,NORTHEY REMEDY'S RX PHARMACY,covid_vaccination_centres,-113.82650523051,52.302009454176,190 NORTHEY AVE,RED DEER,AB,403-346-2367,https://northeyremedysrx.medmeapp.ca/schedule,Calgary,AB_Calgary_covid_vaccination_centres.csv
348,348,SAFEWAY PHARMACY #8917,covid_vaccination_centres,-113.979188457851,50.717055839065,610 BIG ROCK LANE,OKOTOKS,AB,403-938-9351,https://www.safeway.ca/vaccine-registration/,Calgary,AB_Calgary_covid_vaccination_centres.csv
349,349,MEDICARE PLUS PHARMACY,covid_vaccination_centres,-113.942411464941,51.071693071955,7-6208 RUNDLEHORN DR NE,CALGARY,AB,403-453-6386,,Calgary,AB_Calgary_covid_vaccination_centres.csv
350,350,SHOPPERS DRUG MART #2358,covid_vaccination_centres,-113.415604136347,53.363733243348,6302 50 ST,BEAUMONT,AB,780-929-4231,https://www1.shoppersdrugmart.ca/en/health-and-pharmacy/covid-19?ShortURL=covid,Calgary,AB_Calgary_covid_vaccination_centres.csv
351,351,SAFEWAY PHARMACY #8820,covid_vaccination_centres,-114.072177932706,51.030444181173,524 ELBOW DR SW,CALGARY,AB,403-228-4240,https://www.safeway.ca/vaccine-registration/,Calgary,AB_Calgary_covid_vaccination_centres.csv
352,352,SHOPPERS DRUG MART 2432,covid_vaccination_centres,-114.060964775541,50.97964983904,383 HERITAGE DR SE,CALGARY,AB,403-255-4998,https://www.shoppersdrugmart.ca/covid19,Calgary,AB_Calgary_covid_vaccination_centres.csv
353,353,SAFEWAY PHARMACY #8909,covid_vaccination_centres,-113.944702102019,51.123753987442,850 SADDLETOWNE CIR NE,CALGARY,AB,403-293-1670,https://www.safeway.ca/vaccine-registration/,Calgary,AB_Calgary_covid_vaccination_centres.csv
354,354,SHOPPERS DRUG MART #371,covid_vaccination_centres,-113.392394433816,53.474930461125,3945 34 ST NW,EDMONTON,AB,780-461-6768,https://www1.shoppersdrugmart.ca/en/health-and-pharmacy/covid-19?ShortURL=covid,Calgary,AB_Calgary_covid_vaccination_centres.csv
355,355,MINT HEALTH + DRUGS: TRI WELLNESS,covid_vaccination_centres,-113.936755557231,53.549860205025,104-7 TRI LEISURE WAY,SPRUCE GROVE,AB,587-853-0453,,Calgary,AB_Calgary_covid_vaccination_centres.csv
356,356,SALVUS RXELLENCE PROFESSIONAL DISPENSARY,covid_vaccination_centres,-113.63014957682,53.652367350306,44-143 LIBERTON DR,ST ALBERT,AB,780-418-3113,,Calgary,AB_Calgary_covid_vaccination_centres.csv
357,357,SHOPPERS DRUG MART #2427,covid_vaccination_centres,-113.31844400164,53.513157513125,5-1020 SHERWOOD DR,SHERWOOD PARK,AB,780-449-2565,https://www1.shoppersdrugmart.ca/en/health-and-pharmacy/covid-19?ShortURL=covid,Calgary,AB_Calgary_covid_vaccination_centres.csv
358,358,SAVE-ON-FOODS PHARMACY #6622,covid_vaccination_centres,-113.475318286621,53.422944260436,1120 91 ST SW,EDMONTON,AB,780-462-7741,https://saveonfoodspharmacy.medmeapp.com/schedule/,Calgary,AB_Calgary_covid_vaccination_centres.csv
359,359,MEDICINE SHOPPE PHARMACY 171,covid_vaccination_centres,-113.982586915932,51.077488052841,100-2675 36 ST NE,CALGARY,AB,403-291-0076,https://www.medicineshoppe.ca/en/alberta/calgary/the-medicine-shoppe-pharmacy-171-7015167,Calgary,AB_Calgary_covid_vaccination_centres.csv
360,360,SHOPPERS DRUG MART #2431 COOPERS CROSSING,covid_vaccination_centres,-114.023099959984,51.258392466866,801-401 COOPERS BLVD SW,AIRDRIE,AB,403-912-0246,https://www1.shoppersdrugmart.ca/en/health-and-pharmacy/covid-19?ShortURL=covid,Calgary,AB_Calgary_covid_vaccination_centres.csv
361,361,SHOPPERS DRUG MART #6027,covid_vaccination_centres,-113.376164824379,53.649411123969,18750 18 ST NW,EDMONTON,AB,587-497-2783,https://www1.shoppersdrugmart.ca/en/health-and-pharmacy/covid-19?ShortURL=covid,Calgary,AB_Calgary_covid_vaccination_centres.csv
362,362,SAFEWAY PHARMACY #8849,covid_vaccination_centres,-114.073495728455,51.127322313137,8120 BEDDINGTON BLVD NW,CALGARY,AB,403-295-8895,https://www.safeway.ca/vaccine-registration/,Calgary,AB_Calgary_covid_vaccination_centres.csv
363,363,BEVERLY PHARMACY,covid_vaccination_centres,-113.407892672437,53.570267588486,4243 118 AVE NW,EDMONTON,AB,780-756-7711,,Calgary,AB_Calgary_covid_vaccination_centres.csv
364,364,BEARSPAW FAMILY PHARMACY,covid_vaccination_centres,-113.50026762826,53.448456601846,1929 105 ST NW,EDMONTON,AB,780-485-8195,https://bearspawpharmacy.medmeapp.ca/schedule,Calgary,AB_Calgary_covid_vaccination_centres.csv
365,365,REXALL #7203,covid_vaccination_centres,-115.687241171171,54.138214267373,4702 51 ST,WHITECOURT,AB,780-778-3676,https://www.rexall.ca/covid-19/alberta-vaccine,Calgary,AB_Calgary_covid_vaccination_centres.csv
366,366,ABBEYDALE PHARMACY & TRAVEL CLINIC,covid_vaccination_centres,-113.934326086346,51.059239516412,814 68 ST NE,CALGARY,AB,587-470-8000,https://www.travelcliniccalgary.ca,Calgary,AB_Calgary_covid_vaccination_centres.csv
367,367,WAL-MART PHARMACY #1122,covid_vaccination_centres,-113.542750055931,53.631921065479,16940 127 ST NW,EDMONTON,AB,780-457-6795,https://portal.healthmyself.net/walmartab/forms/a66,Calgary,AB_Calgary_covid_vaccination_centres.csv
368,368,LOBLAW PHARMACY #1548,covid_vaccination_centres,-111.376212843657,56.723337562436,PHARMACY DEPARTMENT,FORT MCMURRAY,AB,780-790-3835,https://www.realcanadiansuperstore.ca/covid19,Calgary,AB_Calgary_covid_vaccination_centres.csv
369,369,SAFEWAY PHARMACY #8914,covid_vaccination_centres,-114.475572830853,51.185351577582,304 5 AVE W,COCHRANE,AB,403-851-1279,https://www.safeway.ca/vaccine-registration/,Calgary,AB_Calgary_covid_vaccination_centres.csv
370,370,ALI'S DRUG MART,covid_vaccination_centres,-113.883285185929,53.565438646333,214-11 WESTWIND DR,SPRUCE GROVE,AB,587-461-7308,https://www.alidrugmart.com,Calgary,AB_Calgary_covid_vaccination_centres.csv
371,371,UNIVERSAL HEALTH PHARMACY #8 CASTLERIDGE,covid_vaccination_centres,-113.949942272872,51.107538912752,4-12 CASTLERIDGE DR NE,CALGARY,AB,403-262-6391,https://www.universalhealthcentre.com,Calgary,AB_Calgary_covid_vaccination_centres.csv
372,372,MEDICINE SHOPPE PHARMACY 242,covid_vaccination_centres,-114.058702815368,50.90263168346,111-31 SUNPARK PLAZA SE,CALGARY,AB,403-873-0087,https://www.medicineshoppe.ca/en/alberta/calgary/the-medicine-shoppe-pharmacy-242-7024603,Calgary,AB_Calgary_covid_vaccination_centres.csv
373,373,REXALL #7241,covid_vaccination_centres,-114.002955856513,53.530270566267,4801 50 AVE,STONY PLAIN,AB,780-963-5005,https://www.rexall.ca/covid-19/alberta-vaccine,Calgary,AB_Calgary_covid_vaccination_centres.csv
374,374,FAMILY CARE MEDICAL PHARMACY,covid_vaccination_centres,-113.521838730109,53.551343460716,101-11611 107 AVE NW,EDMONTON,AB,780-250-3991,,Calgary,AB_Calgary_covid_vaccination_centres.csv
375,375,STAMPEDE PHARMACY,covid_vaccination_centres,-114.139992995081,51.10148999334,19-3616 52 AVE NW,CALGARY,AB,403-460-4646,,Calgary,AB_Calgary_covid_vaccination_centres.csv
376,376,WAL-MART PHARMACY #1070,covid_vaccination_centres,-113.943740463977,49.499537129879,1100 TABLE MOUNTAIN,PINCHER CREEK,AB,403-627-1730,https://portal.healthmyself.net/walmartab/forms/a66,Calgary,AB_Calgary_covid_vaccination_centres.csv
377,377,MEDICINE SHOPPE PHARMACY 412,covid_vaccination_centres,-113.475379340417,53.4260766413,9216 ELLERSLIE RD SW,EDMONTON,AB,780-250-9454,https://msp412.medmeapp.com/schedule/,Calgary,AB_Calgary_covid_vaccination_centres.csv
378,378,GAIL'S APOTHECARY AND COMPOUNDING PHARMACY,covid_vaccination_centres,-112.823253786019,49.705165428022,2-425 13 ST N,LETHBRIDGE,AB,403-329-4121,,Calgary,AB_Calgary_covid_vaccination_centres.csv
379,379,ELITE PHARMACY,covid_vaccination_centres,-114.173720859004,51.083812492269,110-6108 BOWNESS RD NW,CALGARY,AB,403-457-7221,,Calgary,AB_Calgary_covid_vaccination_centres.csv
380,380,PHARMACY ONE,covid_vaccination_centres,-113.491834167027,53.549917010585,10003 106 AVE NW,EDMONTON,AB,587-525-8545,,Calgary,AB_Calgary_covid_vaccination_centres.csv
381,381,GRACE I.D.A. PHARMACY,covid_vaccination_centres,-113.576291188515,53.476315576686,14723 40 AVE NW,EDMONTON,AB,780-652-2144,www.graceidapharmacy.com,Calgary,AB_Calgary_covid_vaccination_centres.csv
382,382,DRUG & BEAN (MISSION),covid_vaccination_centres,-114.06760937693,51.034024677101,120-2210 2 ST SW,CALGARY,AB,587-356-3786,,Calgary,AB_Calgary_covid_vaccination_centres.csv
383,383,PHARMASAVE #302,covid_vaccination_centres,-110.6876543928,50.050144984592,58 8 ST NW,MEDICINE HAT,AB,403-527-5332,https://pharmaconnect.ca/appointment/3ab2e46d-9350-4d89-a3d3-03c65a86207f,Calgary,AB_Calgary_covid_vaccination_centres.csv
384,384,BEHEALTHY PHARMACY,covid_vaccination_centres,-113.578564923351,53.542552154825,10120 149 ST NW,EDMONTON,AB,780-444-3381,,Calgary,AB_Calgary_covid_vaccination_centres.csv
385,385,BASSANO PHARMACY,covid_vaccination_centres,-112.468866576732,50.78740408341,401 2 AVE,BASSANO,AB,403-641-3757,,Calgary,AB_Calgary_covid_vaccination_centres.csv
386,386,WAL-MART PHARMACY #1138,covid_vaccination_centres,-113.36217352525,53.47928745684,775 TAMARACK WAY NW,EDMONTON,AB,780-643-3013,https://portal.healthmyself.net/walmartab/forms/a66,Calgary,AB_Calgary_covid_vaccination_centres.csv
387,387,FRONTLINE PHARMACY,covid_vaccination_centres,-113.631249801275,53.470348900928,627 CAMERON HEIGHTS DR NW,EDMONTON,AB,780-444-4884,https://frontlinepharmacy.medmeapp.ca/schedule/,Calgary,AB_Calgary_covid_vaccination_centres.csv
388,388,VISTA PARK PHARMACY,covid_vaccination_centres,-110.680224915232,49.993089616197,102B-450 VISTA DR SE,MEDICINE HAT,AB,403-487-4688,,Calgary,AB_Calgary_covid_vaccination_centres.csv
389,389,MEDICINE SHOPPE PHARMACY 115,covid_vaccination_centres,-113.595552390699,53.519184368123,15819 87 AVE NW,EDMONTON,AB,780-486-1882,https://msmeadowlark.medmeapp.com/schedule,Calgary,AB_Calgary_covid_vaccination_centres.csv
390,390,CALGARY DRUG MART #02,covid_vaccination_centres,-113.974825911382,51.059840571749,2-4100 MARLBOROUGH DR NE,CALGARY,AB,587-354-4466,,Calgary,AB_Calgary_covid_vaccination_centres.csv
391,391,CHESTERMERE REMEDY'S RX,covid_vaccination_centres,-113.840119257358,51.037794971112,106B-300 MERGANSER DR,CHESTERMERE,AB,403-719-8270,,Calgary,AB_Calgary_covid_vaccination_centres.csv
392,392,REXALL #7206,covid_vaccination_centres,-117.275338446099,55.06900411261,4705 50 AVE,VALLEYVIEW,AB,780-524-3593,https://www.rexall.ca/covid-19/alberta-vaccine,Calgary,AB_Calgary_covid_vaccination_centres.csv
393,393,REXALL #7218,covid_vaccination_centres,-114.771263177237,55.283353271966,233 MAIN ST NE,SLAVE LAKE,AB,780-849-4005,https://www.rexall.ca/covid-19/alberta-vaccine,Calgary,AB_Calgary_covid_vaccination_centres.csv
394,394,SOUTHPORT PHARMACY,covid_vaccination_centres,-114.072901486371,50.963144296266,106-10333 SOUTHPORT RD SW,CALGARY,AB,403-253-7753,,Calgary,AB_Calgary_covid_vaccination_centres.csv
395,395,STRATHMORE VALUE DRUG MART,covid_vaccination_centres,-113.395813628698,51.043561344888,132 2 AVE,STRATHMORE,AB,403-934-3122,,Calgary,AB_Calgary_covid_vaccination_centres.csv
396,396,LOBLAW PHARMACY #1590,covid_vaccination_centres,-114.05425236339,51.04773744797,240-540 3 ST SE,CALGARY,AB,825-513-9506,https://www.realcanadiansuperstore.ca/covid19,Calgary,AB_Calgary_covid_vaccination_centres.csv
397,397,HAWKSTONE HOME HEALTH CARE PHARMACY,covid_vaccination_centres,-113.642326301275,53.486446810497,100-18332 LESSARD RD,EDMONTON,AB,780-433-3413,https://www.hawkstonepharmacy.com,Calgary,AB_Calgary_covid_vaccination_centres.csv
398,398,CHINATOWN IPHARMACY,covid_vaccination_centres,-113.489639830292,53.553225049999,9662 107A AVE NW,EDMONTON,AB,780-756-4000,,Calgary,AB_Calgary_covid_vaccination_centres.csv
399,399,HUDSON PHARMACY,covid_vaccination_centres,-113.54228201024,53.603458503677,14072 127 ST NW,EDMONTON,AB,780-466-2624,,Calgary,AB_Calgary_covid_vaccination_centres.csv
400,400,SHOPPERS SIMPLY PHARMACY #3084,covid_vaccination_centres,-113.443838167973,53.592309203677,6603 132 AVE NW,EDMONTON,AB,780-475-3331,https://www1.shoppersdrugmart.ca/en/health-and-pharmacy/covid-19?ShortURL=covid,Calgary,AB_Calgary_covid_vaccination_centres.csv
401,401,NORWOOD PHARMACY,covid_vaccination_centres,-113.486273015133,53.559668499601,11051 95 ST,EDMONTON,AB,780-669-9227,,Calgary,AB_Calgary_covid_vaccination_centres.csv
402,402,LOBLAW PHARMACY #1570,covid_vaccination_centres,-113.493423901411,53.486152389291,4821 CALGARY TR NW,EDMONTON,AB,780-438-0196,https://www.realcanadiansuperstore.ca/covid19,Calgary,AB_Calgary_covid_vaccination_centres.csv
403,403,PHARMASAVE 337,covid_vaccination_centres,-114.646065407179,51.79580366807,557 MAIN AVE W,SUNDRE,AB,403-638-4944,https://pharmaconnect.ca/appointment/7aef6ccb-2775-4f86-aa53-d2a5f49ceccc,Calgary,AB_Calgary_covid_vaccination_centres.csv
404,404,CALLINGWOOD PHARMACY,covid_vaccination_centres,-113.619290550184,53.505258351656,6911 172 ST NW,EDMONTON,AB,780-481-5886,,Calgary,AB_Calgary_covid_vaccination_centres.csv
405,405,BRIDLEWOOD PHARMACY,covid_vaccination_centres,-114.117701303188,50.901377935274,95-2525 BRIDLECREST WAY SW,CALGARY,AB,403-258-1356,,Calgary,AB_Calgary_covid_vaccination_centres.csv
406,406,UNIVERSAL HEALTH PHARMACY #9 NORTHLAND,covid_vaccination_centres,-114.135267630543,51.101133197054,108B-3604 52 AVE NW,CALGARY,AB,587-353-5253,https://www.universalhealthcentre.com,Calgary,AB_Calgary_covid_vaccination_centres.csv
407,407,WAL-MART PHARMACY #3027,covid_vaccination_centres,-113.643590357782,53.538855474256,18521 STONY PLAIN RD NW,EDMONTON,AB,780-484-4468,https://portal.healthmyself.net/walmartab/forms/a66,Calgary,AB_Calgary_covid_vaccination_centres.csv
408,408,REXALL #7273,covid_vaccination_centres,-110.68503354135,50.032077917777,105-73 7 ST SE,MEDICINE HAT,AB,403-527-8842,https://www.rexall.ca/covid-19/alberta-vaccine,Calgary,AB_Calgary_covid_vaccination_centres.csv
409,409,MEDICINE SHOPPE PHARMACY 345,covid_vaccination_centres,-113.542027815268,53.603117121584,14020 127 ST NW,EDMONTON,AB,780-472-9929,https://www.medicineshoppe.ca/en/alberta/edmonton/the-medicine-shoppe-pharmacy-345-7002753,Calgary,AB_Calgary_covid_vaccination_centres.csv
410,410,NOBLEFORD PHARMACY AND COMPOUNDING,covid_vaccination_centres,-113.054108257565,49.882423449782,221 KING ST,NOBLEFORD,AB,403-824-4335,https://noblefordpharmacyandcompounding.myappts.ca/src/,Calgary,AB_Calgary_covid_vaccination_centres.csv
411,411,J L PHARMACARE PHARMACY,covid_vaccination_centres,-113.413869550719,53.570384023886,4627 118 AVE NW,EDMONTON,AB,780-479-0047,,Calgary,AB_Calgary_covid_vaccination_centres.csv
412,412,PHARMACY PLUS,covid_vaccination_centres,-113.934102076882,51.098704892274,5066 68 ST NE,CALGARY,AB,403-568-0005,,Calgary,AB_Calgary_covid_vaccination_centres.csv
413,413,EVANSDALE PHARMACY,covid_vaccination_centres,-113.4684246436,53.607388582265,8216 144 AVE NW,EDMONTON,AB,780-478-7713,,Calgary,AB_Calgary_covid_vaccination_centres.csv
414,414,REXALL #7256,covid_vaccination_centres,-117.588624843693,53.398716939792,177 PEMBINA AVE,HINTON,AB,780-865-2880,https://www.rexall.ca/covid-19/alberta-vaccine,Calgary,AB_Calgary_covid_vaccination_centres.csv
415,415,MARKET MALL PHARMACY & COMPOUNDING,covid_vaccination_centres,-114.157780059537,51.087926291657,100-4935 40 AVE NW,CALGARY,AB,403-286-3120,https://www.marketmallpharmacy.com,Calgary,AB_Calgary_covid_vaccination_centres.csv
416,416,DIDSBURY FAMILY PHARMACY,covid_vaccination_centres,-114.136028724925,51.6610992165,1912 20 ST,DIDSBURY,AB,403-335-0022,,Calgary,AB_Calgary_covid_vaccination_centres.csv
417,417,PHARMASAVE ON NORTHMOUNT,covid_vaccination_centres,-114.127905046748,51.093404668656,4501 BRISEBOIS DR NW,CALGARY,AB,403-282-1208,https://www.pharmasavenorthmount.simplybook.me,Calgary,AB_Calgary_covid_vaccination_centres.csv
418,418,PHARMACY ON WHYTE,covid_vaccination_centres,-113.489536050387,53.518612075193,10050 82 AVE NW,EDMONTON,AB,780-758-7600,,Calgary,AB_Calgary_covid_vaccination_centres.csv
419,419,THE COMMONS PHARMACY,covid_vaccination_centres,-111.428833263555,56.755143997011,1-245 EAGLE RIDGE BLVD,FORT MCMURRAY,AB,780-750-2700,,Calgary,AB_Calgary_covid_vaccination_centres.csv
420,420,DAYSLAND PHARMACY,covid_vaccination_centres,-112.26011165711,52.864677750992,5023 50 ST,DAYSLAND,AB,780-374-3900,,Calgary,AB_Calgary_covid_vaccination_centres.csv
421,421,CARDSTON REMEDY'S RX PHARMACY,covid_vaccination_centres,-113.302146188099,49.198457224689,321 MAIN ST,CARDSTON,AB,403-659-1100,,Calgary,AB_Calgary_covid_vaccination_centres.csv
422,422,MEDICINE SHOPPE PHARMACY 212,covid_vaccination_centres,-113.991580088374,51.037460434984,2905 17 AVE SE,CALGARY,AB,403-235-0888,https://www.medicineshoppe.ca/en/alberta/calgary/the-medicine-shoppe-pharmacy-212-7001094,Calgary,AB_Calgary_covid_vaccination_centres.csv
423,423,PLAZA 67 IDA PHARMACY,covid_vaccination_centres,-113.830450975004,52.289701192466,120-6075 67A ST,RED DEER,AB,587-457-7117,,Calgary,AB_Calgary_covid_vaccination_centres.csv
424,424,MINT HEALTH + DRUGS: BLUE BOTTLE,covid_vaccination_centres,-114.060099715362,51.068177247758,148 17 AVE NE,CALGARY,AB,403-276-3364,,Calgary,AB_Calgary_covid_vaccination_centres.csv
425,425,DRUGSTORE PHARMACY #4389,covid_vaccination_centres,-113.981368665755,50.731669607103,9 SANDSTONE GATE,OKOTOKS,AB,403-938-8080,https://www.nofrills.ca/covid19,Calgary,AB_Calgary_covid_vaccination_centres.csv
426,426,SHOPPERS DRUG MART #333,covid_vaccination_centres,-113.294464004706,53.533052341489,500-2020 SHERWOOD DR,SHERWOOD PARK,AB,780-464-9788,https://www1.shoppersdrugmart.ca/en/health-and-pharmacy/covid-19?ShortURL=covid,Calgary,AB_Calgary_covid_vaccination_centres.csv
427,427,EASTGATE DRUGS,covid_vaccination_centres,-113.400362930108,53.599670648623,3804-137 Ave NW,EDMONTON,AB,780-800-8340,,Calgary,AB_Calgary_covid_vaccination_centres.csv
428,428,COMMUNITY DRUG MART #2029,covid_vaccination_centres,-110.203972101428,54.432076377129,206-6503 51 ST,COLD LAKE,AB,780-594-5444,,Calgary,AB_Calgary_covid_vaccination_centres.csv
429,429,PHARMASAVE JO'S BELTLINE PHARMACY,covid_vaccination_centres,-114.090079801869,51.04319727309,1219 11 AVE SW,CALGARY,AB,587-392-5857,,Calgary,AB_Calgary_covid_vaccination_centres.csv
430,430,REXALL #7212,covid_vaccination_centres,-113.551034809738,53.26756527989,2-5201 50 ST,LEDUC,AB,780-986-8313,https://www.rexall.ca/covid-19/alberta-vaccine,Calgary,AB_Calgary_covid_vaccination_centres.csv
431,431,LOBLAW PHARMACY #1569,covid_vaccination_centres,-113.374246814904,53.480786973156,4410 17 ST NW,EDMONTON,AB,780-450-2041,https://www.realcanadiansuperstore.ca/covid19,Calgary,AB_Calgary_covid_vaccination_centres.csv
432,432,ELIXIR PHARMACY,covid_vaccination_centres,-114.164179828315,51.103538810269,102-8 VARSITY ESTATES CIR NW,CALGARY,AB,587-355-7008,https://www.elixirpharmacy.ca,Calgary,AB_Calgary_covid_vaccination_centres.csv
433,433,FUTURE DRUG MART #2,covid_vaccination_centres,-113.977012822753,51.038618570173,102-4015 17 AVE SE,CALGARY,AB,403-453-0169,,Calgary,AB_Calgary_covid_vaccination_centres.csv
434,434,CO-OP PHARMACY HAWKSTONE LESSARD,covid_vaccination_centres,-113.643739572623,53.486117453842,18370 LESSARD RD NW,EDMONTON,AB,780-428-3907,https://northcentralco-op.crs,Calgary,AB_Calgary_covid_vaccination_centres.csv
435,435,CENTRAL ALBERTA CO-OP LTD. TIMBERLANDS PHARMACY,covid_vaccination_centres,-113.765770943825,52.284096073151,3101-499 TIMBERLANDS DR,RED DEER,AB,587-802-8559,,Calgary,AB_Calgary_covid_vaccination_centres.csv
436,436,WAL-MART PHARMACY #3658,covid_vaccination_centres,-111.900913073197,50.577494469594,917 3 ST W,BROOKS,AB,403-501-5552,https://portal.healthmyself.net/walmartab/forms/a66,Calgary,AB_Calgary_covid_vaccination_centres.csv
437,437,CONNECTCARE MEDICAL CLINIC & PHARMACY MILLWOODS,covid_vaccination_centres,-113.370787572623,53.467945525101,1756 34 AVE NW,EDMONTON,AB,780-665-4881,https://www.connectcarepharmacy.com,Calgary,AB_Calgary_covid_vaccination_centres.csv
438,438,SHOPPERS DRUG MART #2415,covid_vaccination_centres,-113.814550015171,52.233994819544,1-6320 50 AVE,RED DEER,AB,403-348-8164,https://www1.shoppersdrugmart.ca/en/health-and-pharmacy/covid-19?ShortURL=covid,Calgary,AB_Calgary_covid_vaccination_centres.csv
439,439,SHOPPERS DRUG MART #2438,covid_vaccination_centres,-114.098349072839,52.309814568056,BAYS 8-13 5043 50A ST,SYLVAN LAKE,AB,403-887-4200,https://www1.shoppersdrugmart.ca/en/health-and-pharmacy/covid-19?ShortURL=covid,Calgary,AB_Calgary_covid_vaccination_centres.csv
440,440,SHOPPERS DRUG MART #329,covid_vaccination_centres,-114.029862145888,50.929835283458,50-1221 CANYON MEADOWS DR SE,CALGARY,AB,403-278-7422,https://www1.shoppersdrugmart.ca/en/health-and-pharmacy/covid-19?ShortURL=covid,Calgary,AB_Calgary_covid_vaccination_centres.csv
441,441,SAFEWAY PHARMACY #8871,covid_vaccination_centres,-118.792601154043,55.183364870601,9925 114 AVE,GRANDE PRAIRIE,AB,780-532-7100,https://www.safeway.ca/vaccine-registration/,Calgary,AB_Calgary_covid_vaccination_centres.csv
442,442,REXALL #7244,covid_vaccination_centres,-113.325258241821,53.535604615437,80 CHIPPEWA RD,SHERWOOD PARK,AB,780-464-3454,https://www.rexall.ca/covid-19/alberta-vaccine,Calgary,AB_Calgary_covid_vaccination_centres.csv
443,443,WESTWINDS PHARMACY,covid_vaccination_centres,-113.964725729006,51.100987723141,1150-4818 WESTWINDS DR NE,CALGARY,AB,403-293-9360,,Calgary,AB_Calgary_covid_vaccination_centres.csv
444,444,SAVE-ON-FOODS PHARMACY #6613,covid_vaccination_centres,-113.508060684769,53.542848087608,10180 109 ST NW,EDMONTON,AB,780-423-3528,https://saveonfoodspharmacy.medmeapp.com/schedule/,Calgary,AB_Calgary_covid_vaccination_centres.csv
445,445,LEDUC CO-OP PHARMACY,covid_vaccination_centres,-113.550488601416,53.269701389518,5421 50 ST,LEDUC,AB,780-980-3214,,Calgary,AB_Calgary_covid_vaccination_centres.csv
446,446,SHOPPERS DRUG MART #366,covid_vaccination_centres,-113.400300770957,53.5707727733,3812 118 AVE NW,EDMONTON,AB,780-474-2424,https://www1.shoppersdrugmart.ca/en/health-and-pharmacy/covid-19?ShortURL=covid,Calgary,AB_Calgary_covid_vaccination_centres.csv
447,447,DAVE HILL PHARMACY,covid_vaccination_centres,-111.426139543803,56.734089624328,1-200 THICKWOOD BLVD,FORT MCMURRAY,AB,780-750-1111,,Calgary,AB_Calgary_covid_vaccination_centres.csv
448,448,SUNDRE FAMILY PHARMACY,covid_vaccination_centres,-114.641149257513,51.797669793788,12-200 MAIN AVE W,SUNDRE,AB,403-638-4510,https://sundrefamilypharmacy.medmeapp.ca/schedule,Calgary,AB_Calgary_covid_vaccination_centres.csv
449,449,MEDICINE SHOPPE PHARMACY 404,covid_vaccination_centres,-114.003245372941,53.536423941216,103-4807 44 AVE,STONY PLAIN,AB,780-968-9646,http://www.stonyplaintravelhealth.com,Calgary,AB_Calgary_covid_vaccination_centres.csv
450,450,CAREBRIDGE REMEDY'S RX PHARMACY,covid_vaccination_centres,-112.835603730413,49.694213782029,402 8 ST S,LETHBRIDGE,AB,587-425-6350,,Calgary,AB_Calgary_covid_vaccination_centres.csv
451,451,PHARMACY CARE 2,covid_vaccination_centres,-113.994411808118,51.080530103268,109-3151 27 ST NE,CALGARY,AB,403-764-6996,,Calgary,AB_Calgary_covid_vaccination_centres.csv
452,452,MACKENZIE DRUGS,covid_vaccination_centres,-110.672043015399,50.040931115688,301 NORTH RAILWAY ST SE,MEDICINE HAT,AB,403-526-2667,,Calgary,AB_Calgary_covid_vaccination_centres.csv
453,453,SAVE-ON-FOODS PHARMACY #6667,covid_vaccination_centres,-113.54328543819,53.615782544869,12903 153 AVE NW,EDMONTON,AB,780-476-7047,https://saveonfoodspharmacy.medmeapp.com/schedule/,Calgary,AB_Calgary_covid_vaccination_centres.csv
454,454,PEACE RIVER VALUE DRUG MART,covid_vaccination_centres,-117.288976036825,56.232788820259,10027 100 ST,PEACE RIVER,AB,780-624-2612,,Calgary,AB_Calgary_covid_vaccination_centres.csv
455,455,REXALL #7230,covid_vaccination_centres,-113.513706336357,53.455044380411,2375 111 ST NW,EDMONTON,AB,780-433-4555,https://www.rexall.ca/covid-19/alberta-vaccine,Calgary,AB_Calgary_covid_vaccination_centres.csv
