,idx,facility_name,facility_type,longitude,latitude,street_addr,city,province,provider,filename
0,0,Juravinski Cancer Centre,,-79.84659072801017,43.24010159219824,699 Concession Street,Hamilton,ON,Hamilton,ON_Hamilton_hospital.csv
1,1,Chedoke Hospital,,-79.91710597305843,43.238557763378495,565 Sanatorium Road,Hamilton,ON,Hamilton,ON_Hamilton_hospital.csv
2,2,Hamilton General Hospital,,-79.85433493263169,43.26194349249136,237 Barton Street East,Hamilton,ON,Hamilton,ON_Hamilton_hospital.csv
3,3,Juravinski Hospital,,-79.84500134029395,43.24013057720681,711 Concession Street,Hamilton,ON,Hamilton,ON_Hamilton_hospital.csv
4,4,McMaster University Medical Centre,,-79.9176322156679,43.2596154898273,1200 Main Street West,Hamilton,ON,Hamilton,ON_Hamilton_hospital.csv
5,5,St. Joseph's Hospital - Charlton Campus,,-79.87091912976558,43.24860153779506,50 Charlton Avenue East,Hamilton,ON,Hamilton,ON_Hamilton_hospital.csv
6,6,St. Peter's Hospital,Chronic Care,-79.83687057239422,43.2447575877267,88 Maplewood Avenue,Hamilton,ON,Hamilton,ON_Hamilton_hospital.csv
7,7,St. Joseph's Centre for Mountain Health Services - West 5th Campus,Psychiatric,-79.8831178614224,43.24233704460304,100 West 5th Street,Hamilton,ON,Hamilton,ON_Hamilton_hospital.csv
8,8,St. Joseph's Hospital - Urgent Care at King Campus,Urgent Care,-79.77384804381661,43.22172294601865,2757 King Street East,Hamilton,ON,Hamilton,ON_Hamilton_hospital.csv
