idx,facility_name,health_authority,alternative_name,longitude,latitude,street_addr,city,province,postal_code,provider
0,CENTRE DE SOINS PROLONGÉS GRACE DART,RLS de Hochelaga - Mercier-Ouest - Rosemont,Centre de soins prolongés Grace Dart,-73.5289077759,45.5594596863,"5155, rue Sainte-Catherine Est",Montréal,QC,H1V2A5,Province of Quebec
1,HÔPITAL JUIF DE RÉADAPTATION,RLS de Laval,Hôpital juif de réadaptation,-73.7376403809,45.5487289429,"3205, place Alton-Goldbloom",Laval,QC,H7V1R2,Province of Quebec
2,CHSLD PROVIDENCE NOTRE-DAME DE LOURDES,RLS de Hochelaga - Mercier-Ouest - Rosemont,CHSLD Providence Notre-Dame de Lourdes inc.,-73.5406951904,45.549785614,"1870, boulevard Pie-IX",Montréal,QC,H1V2C6,Province of Quebec
3,ATELIER LE FIL D'ARIANE,RLS des Faubourgs - Plateau-Mont-Royal - St-Louis-du-Parc,Atelier le fil d'Ariane Inc.,-73.5838394165,45.5294494629,"4837, rue Boyer, app. 100",Montréal,QC,H2J3E6,Province of Quebec
4,C.H.S.L.D. BAYVIEW,RLS de Pierrefonds - Lac Saint-Louis,CHSLD Bayview Inc.,-73.786567688,45.4486465454,"27, Lakeshore",Montréal,QC,H9S4H1,Province of Quebec
5,RESIDENCE BERTHIAUME-DU TREMBLAY,RLS d'Ahuntsic - Montréal-Nord,Résidence Berthiaume-Du Tremblay,-73.6630554199,45.5674171448,"1635, boulevard Gouin Est",Montréal,QC,H2C1C2,Province of Quebec
6,CHSLD POLONAIS MARIE-CURIE-SKLODOWSKA,RLS de Hochelaga - Mercier-Ouest - Rosemont,Centre intégré universitaire de santé et de services sociaux de l'Est-de-l'Île-de-Montréal,-73.5743331909,45.5810432434,"5655, rue Bélanger",Montréal,QC,H1T1G2,Province of Quebec
7,LA CHAMPENOISE,RLS de Québec-Sud,La corporation Notre-Dame de Bon-Secours,-71.2566070557,46.788066864,"990, rue Gérard-Morisset",Québec,QC,G1S1X6,Province of Quebec
8,INSTITUT DE CARDIOLOGIE DE MONTRÉAL,RLS de Hochelaga - Mercier-Ouest - Rosemont,Institut de Cardiologie de Montréal,-73.5778198242,45.573764801,"5000, rue Bélanger",Montréal,QC,H1T1C8,Province of Quebec
9,HÔPITAL MARIE-CLARAC,RLS d'Ahuntsic - Montréal-Nord,Hôpital Marie-Clarac des Soeurs de Charité de Ste-Marie (1995) Inc.,-73.6497421265,45.5908355713,"3530, boulevard Gouin Est",Montréal,QC,H1H1B7,Province of Quebec
10,CLINIQUE COMMUNAUTAIRE DE POINTE ST-CHARLES,RLS de Verdun - Côte St-Paul - St-Henri - Pointe-St-Charles,Clinique communautaire de Pointe St-Charles,-73.556892395,45.4783477783,"500, avenue Ash",Montréal,QC,H3K2R4,Province of Quebec
11,SERVICES D'HEBERGEMENT INTERNES SERVICES DE READAPTATION EXTERNES - SOUS-REGION D'AMOS,RLS de l'Abitibi,Centre intégré de santé et de services sociaux de l'Abitibi-Témiscamingue,-78.1251831055,48.5773849487,"841, 3e Rue Ouest",Abitibi,QC,J9T2T4,Province of Quebec
12,HÔPITAL DU SACRÉ-CŒUR DE MONTRÉAL,RLS du Nord de l'Île - Saint-Laurent,Centre intégré universitaire de santé et de services sociaux du Nord-de-l'Île-de-Montréal,-73.7140350342,45.5325775146,"5400, boulevard Gouin Ouest",Montréal,QC,H4J1C5,Province of Quebec
13,MAISON ELIZABETH,RLS de Côte-Saint-Luc - NDG - Montréal-Ouest,Maison Elizabeth,-73.606880188,45.4752159119,"2131, avenue de Marlowe",Montréal,QC,H4A3L4,Province of Quebec
14,CENTRE MIRIAM,RLS de Côte-des-Neiges - Métro - Parc-Extension,Centre Miriam,-73.6618652344,45.4963607788,"8160, chemin Royden",Montréal,QC,H4P2T2,Province of Quebec
15,HÔPITAL GÉNÉRAL DE MONTRÉAL,RLS de Côte-des-Neiges - Métro - Parc-Extension,Centre universitaire de santé McGill,-73.5890350342,45.4970474243,"1650, avenue Cedar",Montréal,QC,H3G1A4,Province of Quebec
16,CHSLD HEATHER I,RLS de Lanaudière-Nord,Centre d'hébergement et de soins de longue durée Heather Inc.,-73.7022247314,46.0508613586,"3931, Lakeshore Drive",Matawinie,QC,J0K1S0,Province of Quebec
17,HÔPITAL GÉNÉRAL JUIF,RLS de Côte-des-Neiges - Métro - Parc-Extension,L'Hôpital général juif Sir Mortimer B. Davis,-73.6288070679,45.4978103638,"3755, chemin de la Côte-Sainte-Catherin",Montréal,QC,H3T1E2,Province of Quebec
18,LA RÉSIDENCE DE LACHUTE,RLS d'Argenteuil,La résidence de Lachute,-74.339263916,45.6566467285,"377, rue Principale",Argenteuil,QC,J8H1Y1,Province of Quebec
19,CENTRE DE SANTÉ TULATTAVIK DE L'UNGAVA,,Centre de santé Tulattavik de l'Ungava,-68.4052734375,58.1070480347,Kuujjuaq,Administration régionale Kativik,QC,J0M1C0,Province of Quebec
20,CENTRE HOSPITALIER DE ST. MARY,RLS de Côte-des-Neiges - Métro - Parc-Extension,Centre hospitalier de St. Mary,-73.6241378784,45.4949417114,"3830, avenue Lacombe",Montréal,QC,H3T1M5,Province of Quebec
21,INSTITUT NATIONAL DE PSYCHIATRIE LÉGALE PHILIPPE-PINEL,RLS de Rivière-des-Prairies - Anjou - Montréal-Est,Institut national de psychiatrie légale Philippe-Pinel,-73.5336151123,45.6560554504,"10905, boulevard Henri-Bourassa Est",Montréal,QC,H1C1H1,Province of Quebec
22,L'HÔPITAL CHINOIS DE MONTRÉAL (1963),RLS des Faubourgs - Plateau-Mont-Royal - St-Louis-du-Parc,L'Hôpital chinois de Montréal (1963),-73.5581207275,45.5095558167,"189, avenue Viger Est",Montréal,QC,H2X3Y9,Province of Quebec
23,HÔPITAL MAISONNEUVE-ROSEMONT,RLS de Hochelaga - Mercier-Ouest - Rosemont,Centre intégré universitaire de santé et de services sociaux de l'Est-de-l'Île-de-Montréal,-73.5584640503,45.5742149353,"5415, boulevard de l'Assomption",Montréal,QC,H1T2M4,Province of Quebec
24,PAVILLON STE-MARIE,RLS de la Rivière-du-Nord - Mirabel-Nord,Pavillon Ste-Marie Inc.,-74.0083770752,45.8080062866,"45, rue du Pavillon",La Rivière-du-Nord,QC,J7Y3R6,Province of Quebec
25,LES CEDRES-CENTRE D'ACCUEIL POUR PERSONNES AGEES,RLS du Nord de l'Île - Saint-Laurent,Les cèdres - Centre d'accueil pour personnes agées,-73.6799240112,45.5170021057,"1275, boulevard de la Côte-Vertu",Montréal,QC,H4L4V2,Province of Quebec
26,CENTRE HOSPITALIER GERIATRIQUE MAIMONIDES,RLS de Côte-Saint-Luc - NDG - Montréal-Ouest,La corporation du Centre hospitalier gériatrique Maimonides,-73.6684265137,45.4715499878,"5795, avenue Caldwell",Montréal,QC,H4W1W3,Province of Quebec
27,PAVILLON BELLEVUE,RLS Alphonse-Desjardins,Pavillon Bellevue Inc.,-71.1567382813,46.819103241,"99, rue Monseigneur-Bourget",Lévis,QC,G6V9V2,Province of Quebec
28,CENTRE METROPOLITAIN DE CHIRURGIE PLASTIQUE,RLS d'Ahuntsic - Montréal-Nord,Centre métropolitain de chirurgie plastique Inc.,-73.6929397583,45.5454483032,"999, rue de Salaberry",Montréal,QC,H3L1L2,Province of Quebec
29,HÔPITAL MONT SINAÏ,RLS de Côte-Saint-Luc - NDG - Montréal-Ouest,Hôpital Mont-Sinai,-73.6573410034,45.4738426208,"5690, boulevard Cavendish",Montréal,QC,H4W1S7,Province of Quebec
30,ACCUEIL DU RIVAGE,RLS de Richelieu-Yamaska,Accueil du Rivage Inc.,-73.1733551025,45.7780685425,"1008, rue du Rivage",La Vallée-du-Richelieu,QC,J0L1R0,Province of Quebec
31,MANOIR ST-PATRICE,RLS de Laval,Manoir St-Patrice inc.,-73.7410354614,45.5418167114,"3615, boulevard Perron",Laval,QC,H7V1P4,Province of Quebec
32,INSTITUT UNIVERSITAIRE DE GÉRIATRIE DE MONTRÉAL,RLS de Côte-des-Neiges - Métro - Parc-Extension,Centre intégré universitaire de santé et de services sociaux du Centre-Sud-de-l'Île-de-Montréal,-73.6238174438,45.4910316467,"4565, chemin Queen-Mary",Montréal,QC,H3W1W5,Province of Quebec
33,LA MAISON MICHEL SARRAZIN,RLS de Québec-Sud,La Maison Michel Sarrazin,-71.2515945435,46.7734794617,"2101, chemin Saint-Louis",Québec,QC,G1T1P5,Province of Quebec
34,MANOIR BEACONSFIELD,RLS de Pierrefonds - Lac Saint-Louis,88980 Canada Inc.,-73.8835525513,45.4189491272,"34, avenue Woodland",Montréal,QC,H9W4V9,Province of Quebec
35,MANOIR SOLEIL,RLS du Haut-Richelieu - Rouville,Manoir Soleil Inc.,-73.2959899902,45.4613571167,"125, rue Daigneault",La Vallée-du-Richelieu,QC,J3L1G7,Province of Quebec
36,HÔPITAL STE-MONIQUE,RLS de Québec-Sud,Hôpital Ste-Monique inc.,-71.3263092041,46.8044166565,"4805, boulevard Wilfrid-Hamel",Québec,QC,G1P2J7,Province of Quebec
37,CENTRE D'ACCUEIL SAINT-JOSEPH DE LÉVIS,RLS Alphonse-Desjardins,Centre d'accueil Saint-Joseph de Lévis Inc.,-71.1886901855,46.7991447449,"5445, rue Saint-Louis",Lévis,QC,G6V4G9,Province of Quebec
38,RESIDENCE SOREL-TRACY,RLS Pierre-De Saurel,Résidence Sorel-Tracy Inc.,-73.1436767578,46.0282249451,"4025, rue Frontenac",Pierre-De Saurel,QC,J3R4G8,Province of Quebec
39,CENTRE HOSPITALIER SAINT-FRANÇOIS,RLS de Québec-Sud,Centre hospitalier Saint-François inc.,-71.2359771729,46.8290405273,"1604, 1re Avenue",Québec,QC,G1L3L6,Province of Quebec
40,CHSLD DE LA MAISON-LEGAULT,RLS de Québec-Sud,Centre d'hébergement et de soins de longue durée de La Maison Legault inc.,-71.2886199951,46.7577552795,"3035, chemin Saint-Louis",Québec,QC,G1W1R5,Province of Quebec
41,FOYER SAINTS-ANGES DE HAM-NORD,RLS d’Arthabaska-et-de-L’Érable,Foyer Saints-Anges de Ham-Nord Inc.,-71.6477737427,45.9038162231,"493, rue Principale",Arthabaska,QC,G0P1A0,Province of Quebec
42,CHSLD BOURGET,RLS de Rivière-des-Prairies - Anjou - Montréal-Est,Centre d'hébergement et de soins de longue durée Bourget inc.,-73.4927597046,45.6338005066,"11570, rue Notre-Dame Est",Montréal,QC,H1B2X4,Province of Quebec
43,CENTRE D'HÉBERGEMENT ET DE SOINS DE LONGUE DURÉE BUSSEY (QUÉBEC),RLS de Dorval - Lachine - Lasalle,Centre d'hébergement et de soins de longue durée Bussey (Québec) inc.,-73.683303833,45.4330787659,"2069, boulevard Saint-Joseph",Montréal,QC,H8S4B7,Province of Quebec
44,VILLA MEDICA,RLS des Faubourgs - Plateau-Mont-Royal - St-Louis-du-Parc,Villa Medica Inc.,-73.5687408447,45.5149726868,"225, rue Sherbrooke Est",Montréal,QC,H2X1C9,Province of Quebec
45,POINT DE SERVICE DE LA MRC DE LA HAUTE-GASPESIE,RLS de la Haute-Gaspésie,Centre intégré de santé et de services sociaux de la Gaspésie,-66.4782028198,49.1200561523,"230, route du Parc",La Haute-Gaspésie,QC,G4V2C4,Province of Quebec
46,SERVICES PROFESSIONNELS - MRC MITIS,RLS de La Mitis,Centre intégré de santé et de services sociaux du Bas-Saint-Laurent,-68.1970062256,48.5911827087,"1312, boulevard Jacques-Cartier",La Mitis,QC,G5H2T1,Province of Quebec
47,ATELIER DE TRAVAIL EN DÉFICIENCE INTELLECTUELLE ET DU TROUBLE DU SPECTRE DE L'AUTISME DE SAINT-FÉLICIEN,RLS du Domaine-du-Roy,Centre intégré universitaire de santé et de services sociaux du Saguenay – Lac-Saint-Jean,-72.4509124756,48.6403160095,"1441-B, boulevard Industriel",Le Domaine-du-Roy,QC,G8K1W1,Province of Quebec
48,CENTRE DE RÉADAPTATION EN DÉFICIENCE INTELLECTUELLE ET DU TROUBLE DU SPECTRE DE L'AUTISME DE TROIS-RIVIÈRES,RLS de Trois-Rivières,Centre intégré universitaire de santé et de services sociaux de la Mauricie-et-du-Centre-du-Québec,-72.580947876,46.3412246704,"920, place Boland",Trois-Rivières,QC,G8Z4H2,Province of Quebec
49,CENTRE D'ACTIVITÉS DE JOUR EN DÉFICIENCE INTELLECTUELLE ET DU TROUBLE DU SPECTRE DE L'AUTISME BOLAND,RLS de Trois-Rivières,Centre intégré universitaire de santé et de services sociaux de la Mauricie-et-du-Centre-du-Québec,-72.5802764893,46.3402252197,"1000, place Boland",Trois-Rivières,QC,G8Z4H2,Province of Quebec
50,CENTRE D'ACTIVITÉS DE JOUR EN DÉFICIENCE INTELLECTUELLE ET DU TROUBLE DU SPECTRE DE L'AUTISME DE LA FONTAINE,RLS de Trois-Rivières,Centre intégré universitaire de santé et de services sociaux de la Mauricie-et-du-Centre-du-Québec,-72.584564209,46.357624054,"1485, place de la Fontaine",Trois-Rivières,QC,G8Y2S9,Province of Quebec
51,CENTRE DE RÉADAPTATION EN DÉFICIENCE INTELLECTUELLE ET DU TROUBLE DU SPECTRE DE L'AUTISME DE BÉCANCOUR,RLS de Bécancour–Nicolet-Yamaska,Centre intégré universitaire de santé et de services sociaux de la Mauricie-et-du-Centre-du-Québec,-72.5419006348,46.2925453186,"1582, boulevard de Port-Royal",Bécancour,QC,G9H1X6,Province of Quebec
52,CENTRE DE RÉADAPTATION EN DÉFICIENCE INTELLECTUELLE ET DU TROUBLE DU SPECTRE DE L'AUTISME DE PLESSISVILLE,RLS d’Arthabaska-et-de-L’Érable,Centre intégré universitaire de santé et de services sociaux de la Mauricie-et-du-Centre-du-Québec,-71.7708206177,46.219291687,"1500, avenue Saint-Louis, bureau 201",L'Érable,QC,G6L2M8,Province of Quebec
53,CENTRE DE RÉADAPTATION EN DÉFICIENCE INTELLECTUELLE ET DU TROUBLE DU SPECTRE DE L'AUTISME DES BOIS-FRANCS-NORD,RLS d’Arthabaska-et-de-L’Érable,Centre intégré universitaire de santé et de services sociaux de la Mauricie-et-du-Centre-du-Québec,-71.9680938721,46.0669975281,"466, boulevard des Bois-Francs Nord",Arthabaska,QC,G6P1H3,Province of Quebec
54,CENTRE D'ACTIVITÉS DE JOUR EN DÉFICIENCE INTELLECTUELLE ET DU TROUBLE DU SPECTRE DE L'AUTISME DE GRAND-MÈRE,RLS du Centre-de-la-Mauricie,Centre intégré universitaire de santé et de services sociaux de la Mauricie-et-du-Centre-du-Québec,-72.7027740479,46.6034812927,"1697, 3e Avenue",Shawinigan,QC,G9T2W6,Province of Quebec
55,CLSC DE BARACHOIS,RLS de La Côte-de-Gaspé,Centre intégré de santé et de services sociaux de la Gaspésie,-64.2795791626,48.6179504395,"1070, Route 132 Est",Le Rocher-Percé,QC,G0C1A0,Province of Quebec
56,CENTRE D'ACTIVITÉS DE JOUR EN DÉFICIENCE INTELLECTUELLE ET DU TROUBLE DU SPECTRE DE L'AUTISME DE BERTHIER-SUR-MER,RLS de Montmagny-L'Islet,Centre intégré de santé et de services sociaux de Chaudière-Appalaches,-70.7281494141,46.922203064,"38, route Saint-François",Montmagny,QC,G0R1E0,Province of Quebec
57,CHUS - HÔPITAL FLEURIMONT,RLS de Sherbrooke,Centre intégré universitaire de santé et de services sociaux de l'Estrie – Centre hospitalier universitaire de Sherbrooke,-71.8690109253,45.4478340149,"3001, 12e Avenue Nord",Sherbrooke,QC,J1H5N4,Province of Quebec
58,CHUS - HÔTEL-DIEU DE SHERBROOKE,RLS de Sherbrooke,Centre intégré universitaire de santé et de services sociaux de l'Estrie – Centre hospitalier universitaire de Sherbrooke,-71.8779449463,45.3984413147,"580, rue Bowen Sud",Sherbrooke,QC,J1G2E8,Province of Quebec
59,CENTRE LE CARDINAL,RLS de Rivière-des-Prairies - Anjou - Montréal-Est,Centre Le Cardinal inc.,-73.4883346558,45.6524505615,"12900, rue Notre-Dame Est",Montréal,QC,H1A1R9,Province of Quebec
60,CENTRE DE RÉADAPTATION EN DÉPENDANCE CAVENDISH / CAVENDISH ADDICTION READAPTATION CENTRE,RLS de Côte-Saint-Luc - NDG - Montréal-Ouest,Centre intégré de santé et de services sociaux de la Montérégie-Ouest,-73.6270904541,45.4634170532,"3285, boulevard Cavendish, bureau 100",Montréal,QC,H4B2L9,Province of Quebec
61,CENTRE DE RÉADAPTATION EN DÉFICIENCE INTELLECTUELLE ET EN TROUBLE DU SPECTRE DE L'AUTISME DE BOUCHERVILLE,RLS Pierre-Boucher,Centre intégré de santé et de services sociaux de la Montérégie-Ouest,-73.4292602539,45.5718307495,"1335, rue Gay-Lussac",Longueuil,QC,J4B7K1,Province of Quebec
62,CHSLD RICHARD-BUSQUE,RLS de Beauce,Centre intégré de santé et de services sociaux de Chaudière-Appalaches,-70.6744766235,46.1157875061,"405, 18e rue",Beauce-Sartigan,QC,G5Y4T2,Province of Quebec
63,CHSLD DU SÉMINAIRE,RLS de Beauce,Centre intégré de santé et de services sociaux de Chaudière-Appalaches,-70.6714477539,46.1248893738,"11515, 8e avenue",Beauce-Sartigan,QC,G5Y1J5,Province of Quebec
64,CENTRE D'HÉBERGEMENT JACQUES-CARTIER,RLS de Chicoutimi,Centre intégré universitaire de santé et de services sociaux du Saguenay – Lac-Saint-Jean,-71.0409088135,48.4233360291,"904, rue Jacques-Cartier Est",Saguenay,QC,G7H2A9,Province of Quebec
65,CLSC ET CENTRE DE PROTECTION DE L'ENFANCE ET DE LA JEUNESSE DE L'OUTAOUAIS,RLS de Grande-Rivière - Hull - Gatineau,Centre intégré de santé et de services sociaux de l'Outaouais,-75.71509552,45.4377288818,"105, boulevard Sacré-Coeur, Édifice Ma",Gatineau,QC,J8X1C5,Province of Quebec
66,CENTRE DE RÉADAPTATION POUR LES JEUNES EN DIFFICULTÉ D'ADAPTATION DE RIMOUSKI-NEIGETTE,RLS de Rimouski,Centre intégré de santé et de services sociaux du Bas-Saint-Laurent,-68.5257415771,48.432975769,"404, avenue Ross",Rimouski-Neigette,QC,G5L6J2,Province of Quebec
67,CENTRE DE RÉADAPTATION POUR LES JEUNES EN DIFFICULTÉ D'ADAPTATION LIMOGES,RLS Pierre-Boucher,Centre intégré de santé et de services sociaux de la Montérégie-Est,-73.4805526733,45.5697822571,"2010, rue Limoges",Longueuil,QC,J4G1C3,Province of Quebec
68,CENTRE DE RÉADAPTATION POUR LES JEUNES EN DIFFICULTÉ D'ADAPTATION DE CHAMBLY,RLS du Haut-Richelieu - Rouville,Centre intégré de santé et de services sociaux de la Montérégie-Est,-73.3103408813,45.4439888,"1501, avenue de Salaberry",La Vallée-du-Richelieu,QC,J3L4V8,Province of Quebec
69,CENTRE DE RÉADAPTATION POUR LES JEUNES EN DIFFICULTÉ D'ADAPTATION DE SAINT-HYACINTHE,RLS de Richelieu-Yamaska,Centre intégré de santé et de services sociaux de la Montérégie-Est,-72.9598617554,45.6415214539,"3000, avenue Pratte",Les Maskoutains,QC,J2S4C7,Province of Quebec
70,HÔPITAL DU SAINT-SACREMENT,RLS de Québec-Sud,CHU de Québec – Université Laval,-71.2464141846,46.7993583679,"1050, chemin Sainte-Foy",Québec,QC,G1S4L8,Province of Quebec
71,CENTRE DE PROTECTION ET DE RÉADAPTATION POUR LES JEUNES EN DIFFICULTÉ D'ADAPTATION DE CHICOUTIMI,RLS de Chicoutimi,Centre intégré universitaire de santé et de services sociaux du Saguenay – Lac-Saint-Jean,-71.0676651001,48.4107513428,"1109, rue Bégin",Saguenay,QC,G7H4P1,Province of Quebec
72,CENTRE DE PROTECTION ET DE RÉADAPTATION POUR LES JEUNES EN DIFFICULTÉ D'ADAPTATION DE ROBERVAL,RLS du Domaine-du-Roy,Centre intégré universitaire de santé et de services sociaux du Saguenay – Lac-Saint-Jean,-72.2274017334,48.4987945557,"254, boulevard Sauvé",Le Domaine-du-Roy,QC,G8H1A7,Province of Quebec
73,PAVILLON L'HÔTEL-DIEU DE QUÉBEC,RLS de Québec-Sud,CHU de Québec – Université Laval,-71.2109909058,46.8153915405,"11, Côte du Palais",Québec,QC,G1R2J6,Province of Quebec
74,PAVILLON CENTRE HOSPITALIER DE L'UNIVERSITÉ LAVAL,RLS de Québec-Sud,CHU de Québec – Université Laval,-71.2823410034,46.7678718567,"2705, boulevard Laurier",Québec,QC,G1V4G2,Province of Quebec
75,PAVILLON SAINT-FRANÇOIS D'ASSISE,RLS de Québec-Sud,CHU de Québec – Université Laval,-71.2366104126,46.8277931213,"10, rue de l'Espinay",Québec,QC,G1L3L5,Province of Quebec
76,HÔPITAL DE MONT-LAURIER,RLS d'Antoine-Labelle,Centre intégré de santé et de services sociaux des Laurentides,-75.5176544189,46.5492095947,"2561, chemin de la Lièvre Sud",Antoine-Labelle,QC,J9L3G3,Province of Quebec
77,CENTRE DE SERVICES DE RIVIÈRE-ROUGE,RLS d'Antoine-Labelle,Centre intégré de santé et de services sociaux des Laurentides,-74.8846817017,46.4207992554,"1525, rue de L'Annonciation Nord",Antoine-Labelle,QC,J0T1T0,Province of Quebec
78,POINT DE SERVICE VAL SAINT-FRANCOIS,RLS de Val Saint-François,Centre intégré universitaire de santé et de services sociaux de l'Estrie – Centre hospitalier universitaire de Sherbrooke,-72.0137329102,45.5656547546,"5, rue des Sources",Le Val-Saint-François,QC,J1S2X3,Province of Quebec
79,CENTRE DE RÉADAPTATION POUR LES JEUNES EN DIFFICULTÉ D'ADAPTATION VAL-DU-LAC,RLS de Sherbrooke,Centre intégré universitaire de santé et de services sociaux de l'Estrie – Centre hospitalier universitaire de Sherbrooke,-72.0210037231,45.3144874573,"8475, chemin Blanchette",Sherbrooke,QC,J1N3A3,Province of Quebec
80,CENTRE MULTISERVICES DE SANTÉ ET DE SERVICES SOCIAUX DE LAVAL,RLS de Laval,Centre intégré de santé et de services sociaux de Laval,-73.6995315552,45.5541229248,"308, boulevard Cartier Ouest",Laval,QC,H7N2J2,Province of Quebec
81,CENTRE DE RÉADAPTATION POUR LES JEUNES EN DIFFICULTÉ D'ADAPTATION CARTIER,RLS de Laval,Centre intégré de santé et de services sociaux de Laval,-73.6980056763,45.5559196472,"306, boulevard Cartier Ouest",Laval,QC,H7N2J2,Province of Quebec
82,CENTRE DE RÉADAPTATION POUR LES JEUNES EN DIFFICULTÉ D'ADAPTATION DE LAVAL,RLS de Laval,Centre intégré de santé et de services sociaux de Laval,-73.6976852417,45.5549583435,"310, boulevard Cartier Ouest",Laval,QC,H7N2J2,Province of Quebec
83,CHSLD DE VAL-DES-ARBRES,RLS de Laval,Centre d'hébergement et de soins de longue durée de la Villa-de-Val-des-Arbres Inc.,-73.6773605347,45.6056060791,"3245, boulevard Saint-Martin Est",Laval,QC,H7E4T6,Province of Quebec
84,CENTRE D'HÉBERGEMENT JEAN-DE-LA-LANDE,RLS des Faubourgs - Plateau-Mont-Royal - St-Louis-du-Parc,Centre intégré universitaire de santé et de services sociaux du Centre-Sud-de-l'Île-de-Montréal,-73.5699386597,45.5312614441,"4255, avenue Papineau",Montréal,QC,H2H2P6,Province of Quebec
85,CENTRE D'HÉBERGEMENT DE SAINT-PACÔME,RLS de Kamouraska,Centre intégré de santé et de services sociaux du Bas-Saint-Laurent,-69.950958252,47.4029426575,"127, rue Galarneau",Kamouraska,QC,G0L3X0,Province of Quebec
86,CENTRE D'HEBERGEMENT VILLA MARIA,RLS de Kamouraska,Centre intégré de santé et de services sociaux du Bas-Saint-Laurent,-69.6201400757,47.6856575012,"404, avenue du Foyer",Kamouraska,QC,G0L2G0,Province of Quebec
87,CENTRE DE JOUR SAINT-PASCAL,RLS de Kamouraska,Centre intégré de santé et de services sociaux du Bas-Saint-Laurent,-69.8034057617,47.5294036865,"575, avenue Martin",Kamouraska,QC,G0L3Y0,Province of Quebec
88,CENTRE D'HÉBERGEMENT SAINTE-MARIE,RLS de Jonquière,Centre intégré universitaire de santé et de services sociaux du Saguenay – Lac-Saint-Jean,-71.2395782471,48.4146766663,"2184, rue Perrier",Saguenay,QC,G7X9C9,Province of Quebec
89,CENTRE D'HEBERGEMENT DE RIVIERE-BLEUE,RLS de Témiscouata,Centre intégré de santé et de services sociaux du Bas-Saint-Laurent,-69.0385131836,47.4323921204,"45, rue du Foyer Sud",Témiscouata,QC,G0L2B0,Province of Quebec
90,CENTRE D'HÉBERGEMENT DE SAINT-LOUIS-DU-HA! HA!,RLS de Témiscouata,Centre intégré de santé et de services sociaux du Bas-Saint-Laurent,-68.9791183472,47.6745529175,"25, rue Saint-Philippe",Témiscouata,QC,G0L3S0,Province of Quebec
91,CENTRE D'HÉBERGEMENT DE SQUATEC,RLS de Témiscouata,Centre intégré de santé et de services sociaux du Bas-Saint-Laurent,-68.7231140137,47.877368927,"10, rue Saint-André",Témiscouata,QC,G0L4H0,Province of Quebec
92,CENTRE MULTISERVICES DE SANTÉ ET DE SERVICES SOCIAUX DES BOIS-FRANCS,RLS d’Arthabaska-et-de-L’Érable,Centre intégré universitaire de santé et de services sociaux de la Mauricie-et-du-Centre-du-Québec,-71.9627380371,46.0620918274,"61, rue de l'Ermitage",Arthabaska,QC,G6P6X4,Province of Quebec
93,CENTRE D'HÉBERGEMENT DE WARWICK,RLS d’Arthabaska-et-de-L’Érable,Centre intégré universitaire de santé et de services sociaux de la Mauricie-et-du-Centre-du-Québec,-71.9856567383,45.9458351135,"10, rue l'Heureux",Arthabaska,QC,J0A1M0,Province of Quebec
94,CENTRE DE PROTECTION ET DE RÉADAPTATION POUR LES JEUNES ET LES MÈRES EN DIFFICULTÉ D'ADAPTATION DE TROIS-RIVIÈRES,RLS de Trois-Rivières,Centre intégré universitaire de santé et de services sociaux de la Mauricie-et-du-Centre-du-Québec,-72.5577468872,46.3494033813,"1455, boulevard du Carmel",Trois-Rivières,QC,G8Z3R7,Province of Quebec
95,CENTRE DE PROTECTION ET DE RÉADAPTATION POUR LES JEUNES ET LES MÈRES EN DIFFICULTÉ D'ADAPTATION EDGAR-LAFOREST,RLS de Drummond,Centre intégré universitaire de santé et de services sociaux de la Mauricie-et-du-Centre-du-Québec,-72.4821929932,45.8538131714,"3100, boulevard Lemire",Drummond,QC,J2B7R2,Province of Quebec
96,CENTRE D'HÉBERGEMENT DE DOLBEAU-MISTASSINI,RLS de Maria-Chapdelaine,Centre intégré universitaire de santé et de services sociaux du Saguenay – Lac-Saint-Jean,-72.2123641968,48.8911209106,"116, avenue des Chutes",Maria-Chapdelaine,QC,G8L3X4,Province of Quebec
97,CLSC DE CÔTE-DES-NEIGES,RLS de Côte-des-Neiges - Métro - Parc-Extension,Centre intégré universitaire de santé et de services sociaux du Centre-Ouest-de-l'Île-de-Montréal,-73.6354064941,45.501865387,"6560, chemin de la Côte-des-Neiges",Montréal,QC,H3S2A7,Province of Quebec
98,CENTRE DE RÉADAPTATION EN DÉFICIENCE PHYSIQUE ET DE SERVICES EXTERNES POUR LES AÎNÉS D'YOUVILLE,RLS de la Rivière-du-Nord - Mirabel-Nord,Centre intégré de santé et de services sociaux des Laurentides,-74.0061645508,45.7831420898,"531, rue Laviolette",La Rivière-du-Nord,QC,J7Y2T8,Province of Quebec
99,HÔPITAL ET CHSLD D'YOUVILLE,RLS de Sherbrooke,Centre de santé et de services sociaux - Institut universitaire de gériatrie de Sherbrooke,-71.8951034546,45.3906669617,"1036, rue Belvédère Sud",Sherbrooke,QC,J1H4C4,Province of Quebec
100,CHSLD D'EAST-ANGUS,RLS du Haut-Saint-François,Centre intégré universitaire de santé et de services sociaux de l'Estrie – Centre hospitalier universitaire de Sherbrooke,-71.669883728,45.4769515991,"120, rue Rousseau",Le Haut-Saint-François,QC,J0B1R0,Province of Quebec
101,CHSLD DE WEEDON,RLS du Haut-Saint-François,Centre intégré universitaire de santé et de services sociaux de l'Estrie – Centre hospitalier universitaire de Sherbrooke,-71.4636077881,45.7009086609,"245, rue Saint-Janvier",Le Haut-Saint-François,QC,J0B3J0,Province of Quebec
102,CENTRE D'HÉBERGEMENT DE FORTIERVILLE,RLS de Bécancour–Nicolet-Yamaska,Centre intégré universitaire de santé et de services sociaux de la Mauricie-et-du-Centre-du-Québec,-72.0322036743,46.4854812622,"521, avenue du Foyer",Bécancour,QC,G0S1J0,Province of Quebec
103,CENTRE D'HÉBERGEMENT ROMAIN-BECQUET,RLS de Bécancour–Nicolet-Yamaska,Centre intégré universitaire de santé et de services sociaux de la Mauricie-et-du-Centre-du-Québec,-72.2043228149,46.5066452026,"255, route Marie-Victorin",Bécancour,QC,G0X2Z0,Province of Quebec
104,CENTRE D'HÉBERGEMENT CHAMPLAIN,RLS de Verdun - Côte St-Paul - St-Henri - Pointe-St-Charles,Centre intégré universitaire de santé et de services sociaux du Centre-Sud-de-l'Île-de-Montréal,-73.586769104,45.4388465881,"1325, rue Crawford",Montréal,QC,H4H2N6,Province of Quebec
105,CLSC ET CENTRE D'HÉBERGEMENT DE MÉTABETCHOUAN-LAC-À-LA-CROIX,RLS de Lac-Saint-Jean-Est,Centre intégré universitaire de santé et de services sociaux du Saguenay – Lac-Saint-Jean,-71.8660507202,48.4258270264,"1895, Route 169",Lac-Saint-Jean-Est,QC,G8G1B4,Province of Quebec
106,CENTRE D'HÉBERGEMENT D'ALMA,RLS de Lac-Saint-Jean-Est,Centre intégré universitaire de santé et de services sociaux du Saguenay – Lac-Saint-Jean,-71.6462554932,48.5520515442,"50, chemin du Foyer Nord",Lac-Saint-Jean-Est,QC,G8B5V6,Province of Quebec
107,CENTRE D'HÉBERGEMENT ISIDORE-GAUTHIER,RLS de Lac-Saint-Jean-Est,Centre intégré universitaire de santé et de services sociaux du Saguenay – Lac-Saint-Jean,-71.6977996826,48.6324424744,"5731, avenue du Pont Nord",Lac-Saint-Jean-Est,QC,G8E1W8,Province of Quebec
108,CENTRE DE RÉADAPTATION EN DÉFICIENCE INTELLECTUELLE ET DU TROUBLE DU SPECTRE DE L'AUTISME MANSEAU,RLS de Lanaudière-Nord,Centre intégré de santé et de services sociaux de Lanaudière,-73.4524307251,46.0167655945,"1180, boulevard Manseau",Joliette,QC,J6E3G8,Province of Quebec
109,HÔPITAL DE VERDUN,RLS de Verdun - Côte St-Paul - St-Henri - Pointe-St-Charles,Centre intégré universitaire de santé et de services sociaux du Centre-Sud-de-l'Île-de-Montréal,-73.5639877319,45.464099884,"4000, boulevard LaSalle",Montréal,QC,H4G2A3,Province of Quebec
110,CENTRE DE PROTECTION DE L'ENFANCE ET DE LA JEUNESSE DE JOLIETTE,RLS de Lanaudière-Nord,Centre intégré de santé et de services sociaux de Lanaudière,-73.4410705566,46.0181846619,"260, rue Lavaltrie Sud",Joliette,QC,J6E5X7,Province of Quebec
111,CENTRE DE RÉADAPTATION POUR LES JEUNES EN DIFFICULTÉ D'ADAPTATION DE JOLIETTE,RLS de Lanaudière-Nord,Centre intégré de santé et de services sociaux de Lanaudière,-73.4199676514,46.0329170227,"1170, rue Ladouceur",Joliette,QC,J6E3W7,Province of Quebec
112,CHSLD LE ROYER,RLS de Rivière-des-Prairies - Anjou - Montréal-Est,Groupe Roy santé Inc.,-73.5476455688,45.6175384521,"7351, rue Jean-Desprez",Montréal,QC,H1K5A6,Province of Quebec
113,CLSC DE LA VISITATION ET GROUPE DE MÉDECINE DE FAMILLE UNIVERSITAIRE DES FAUBOURGS,RLS des Faubourgs - Plateau-Mont-Royal - St-Louis-du-Parc,Centre intégré universitaire de santé et de services sociaux du Centre-Sud-de-l'Île-de-Montréal,-73.5588607788,45.5211143494,"1705, rue de la Visitation",Montréal,QC,H2L3C3,Province of Quebec
114,FOYER UIKUPESHAKAN (ARC-EN-CIEL),RLS de Sept-Îles,Bande Indienne des Montagnais de Sept-Iles et Maliotenam,-66.4025650024,50.2241134644,"2, rue Shimun",Sept-Rivières,QC,G4R4L9,Province of Quebec
115,CLSC DE SAINT-BRUNO-DE-MONTARVILLE,RLS de Richelieu-Yamaska,Centre intégré de santé et de services sociaux de la Montérégie-Est,-73.3408508301,45.5281562805,"50, chemin de La Rabastalière Est, bur.",Longueuil,QC,J3V2A5,Province of Quebec
116,CENTRE D'HÉBERGEMENT HUBERT-MAISONNEUVE,RLS de Thérèse-De Blainville,Centre intégré de santé et de services sociaux des Laurentides,-73.7911911011,45.6376495361,"365, chemin de la Grande-Côte",Thérèse-De Blainville,QC,J7A1K4,Province of Quebec
117,CENTRE D'HÉBERGEMENT DE MARIA,RLS de la Baie-des-Chaleurs,Centre intégré de santé et de services sociaux de la Gaspésie,-65.9857559204,48.1736297607,"491, boulevard Perron",Avignon,QC,G0C1Y0,Province of Quebec
118,CENTRE HOSPITALIER RÉGIONAL DU GRAND-PORTAGE,RLS de Rivière-du-Loup,Centre intégré de santé et de services sociaux du Bas-Saint-Laurent,-69.5402679443,47.8187026978,"75, rue Saint-Henri",Rivière-du-Loup,QC,G5R2A4,Province of Quebec
119,CENTRE D'HÉBERGEMENT DE RIVIÈRE-DU-LOUP,RLS de Rivière-du-Loup,Centre intégré de santé et de services sociaux du Bas-Saint-Laurent,-69.5423812866,47.8340454102,"28, rue Joly",Rivière-du-Loup,QC,G5R3H2,Province of Quebec
120,CENTRE D'HÉBERGEMENT DE SAINT-ANTONIN,RLS de Rivière-du-Loup,Centre intégré de santé et de services sociaux du Bas-Saint-Laurent,-69.4786758423,47.7624282837,"286, rue Principale",Rivière-du-Loup,QC,G0L2J0,Province of Quebec
121,HÔPITAL DE CHICOUTIMI,RLS de Chicoutimi,Centre intégré universitaire de santé et de services sociaux du Saguenay – Lac-Saint-Jean,-71.0485992432,48.4259757996,"305, rue Saint-Vallier,",Saguenay,QC,G7H5H6,Province of Quebec
122,CLSC DE LA BASSE-VILLE,RLS de Québec-Sud,Centre intégré universitaire de santé et de services sociaux de la Capitale-Nationale,-71.2303161621,46.8126144409,"50, rue Saint-Joseph Est",Québec,QC,G1K3A5,Province of Quebec
123,CENTRE D'HÉBERGEMENT DE LORETTEVILLE,RLS de Québec-Nord,Centre intégré universitaire de santé et de services sociaux de la Capitale-Nationale,-71.350440979,46.8501777649,"165, rue Lessard",Québec,QC,G2B2V9,Province of Quebec
124,CENTRE DE RÉADAPTATION EN DÉFICIENCE INTELLECTUELLE ET TROUBLE ENVAHISSANT DU DÉVELOPPEMENT,RLS des Îles-de-la-Madeleine,Centre intégré de santé et de services sociaux des Îles,-61.8976898193,47.4044113159,"695, chemin des Caps (Fatima)",Communauté maritime des Îles-de-la-Madeleine,QC,G4T2S9,Province of Quebec
125,CENTRE DE SANTÉ DE CHIBOUGAMAU,,Centre régional de santé et de services sociaux de la Baie-James,-74.3491821289,49.9159507751,"51, 3e Rue",Jamésie,QC,G8P1N1,Province of Quebec
126,CENTRE DE SANTE RENE-RICARD,,Centre régional de santé et de services sociaux de la Baie-James,-74.8543930054,49.7807579041,"32, 3e Avenue",Jamésie,QC,G0W1H0,Province of Quebec
127,CENTRE DE SANTÉ LEBEL,,Centre régional de santé et de services sociaux de la Baie-James,-76.9833145142,49.0560798645,"950, boulevard Quévillon Nord",Jamésie,QC,J0Y1X0,Province of Quebec
128,CENTRE DE SANTÉ ISLE-DIEU,,Centre régional de santé et de services sociaux de la Baie-James,-77.628288269,49.7568397522,"130, boulevard Matagami",Jamésie,QC,J0Y2A0,Province of Quebec
129,CENTRE DE SANTE DE RADISSON,,Centre régional de santé et de services sociaux de la Baie-James,-77.6195907593,53.7918052673,"199, rue Jolliet",Jamésie,QC,J0Y2X0,Province of Quebec
130,BUREAU D'AMOS,RLS de l'Abitibi,Centre intégré de santé et de services sociaux de l'Abitibi-Témiscamingue,-78.1173019409,48.5783653259,"341, rue Principale Nord, 5e ét.",Abitibi,QC,J9T2L8,Province of Quebec
131,CENTRE D'ORIENTATION L'ETAPE,RLS de la Vallée-de-l'Or,Centre intégré de santé et de services sociaux de l'Abitibi-Témiscamingue,-77.7888259888,48.0981292725,"700, boulevard Forest",La Vallée-de-l'Or,QC,J9P2L3,Province of Quebec
132,CLSC DE CHICOUTIMI,RLS de Chicoutimi,Centre intégré universitaire de santé et de services sociaux du Saguenay – Lac-Saint-Jean,-71.0555648804,48.4277038574,"411, rue de l'Hôtel-Dieu",Saguenay,QC,G7H7Z5,Province of Quebec
133,CLSC DE CHICOUTIMI-NORD,RLS de Chicoutimi,Centre intégré universitaire de santé et de services sociaux du Saguenay – Lac-Saint-Jean,-71.0624542236,48.439037323,"222, rue Saint-Éphrem",Saguenay,QC,G7G2W5,Province of Quebec
134,CHSLD DE LA PRAIRIE,RLS de Jardins-Roussillon,Centre intégré de santé et de services sociaux de la Montérégie-Ouest,-73.4913101196,45.4211158752,"500, avenue Balmoral",Roussillon,QC,J5R4N5,Province of Quebec
135,CHSLD DE CHÂTEAUGUAY,RLS de Jardins-Roussillon,Centre intégré de santé et de services sociaux de la Montérégie-Ouest,-73.74193573,45.3534545898,"95, chemin de la Haute-Rivière",Roussillon,QC,J6K3P1,Province of Quebec
136,CHSLD PIERRE-RÉMI-NARBONNE,RLS de Jardins-Roussillon,Centre intégré de santé et de services sociaux de la Montérégie-Ouest,-73.6167526245,45.258644104,"110, rue du Collège",Les Jardins-de-Napierville,QC,J0L2L0,Province of Quebec
137,CENTRE MULTISERVICES DE SANTÉ ET DE SERVICES SOCIAUX DE LAC-ETCHEMIN,RLS des Etchemins,Centre intégré de santé et de services sociaux de Chaudière-Appalaches,-70.4980697632,46.400478363,"331, place du Sanatorium",Les Etchemins,QC,G0R1S0,Province of Quebec
138,CLSC ET CHSLD DE SAINT-PROSPER,RLS des Etchemins,Centre intégré de santé et de services sociaux de Chaudière-Appalaches,-70.4839401245,46.2110137939,"2770, 20e avenue",Les Etchemins,QC,G0M1Y0,Province of Quebec
139,CLSC ET CHSLD DE SAINT-JEAN-PORT-JOLI,RLS de Montmagny-L'Islet,Centre intégré de santé et de services sociaux de Chaudière-Appalaches,-70.2577819824,47.2084274292,"430, rue Jean-Leclerc",L'Islet,QC,G0R3G0,Province of Quebec
140,CLSC ET CENTRE DE SERVICES EXTERNES POUR LES AÎNÉS DE SAINT-PAMPHILE,RLS de Montmagny-L'Islet,Centre intégré de santé et de services sociaux de Chaudière-Appalaches,-69.7832489014,46.9607276917,"103, rue du Foyer Nord",L'Islet,QC,G0R3X0,Province of Quebec
141,CENTRE MULTISERVICES DE SANTÉ ET DE SERVICES SOCIAUX DES ESCOUMINS,RLS de la Haute-Côte-Nord - Manicouagan,Centre intégré de santé et de services sociaux de la Côte-Nord,-69.4070968628,48.3520622253,"4, rue de l'Hôpital",La Haute-Côte-Nord,QC,G0T1K0,Province of Quebec
142,CENTRE MULTISERVICES DE SANTÉ ET DE SERVICES SOCIAUX DE FORESTVILLE,RLS de la Haute-Côte-Nord - Manicouagan,Centre intégré de santé et de services sociaux de la Côte-Nord,-69.0741882324,48.7372131348,"2, 7e rue",La Haute-Côte-Nord,QC,G0T1E0,Province of Quebec
143,CHSLD DES BERGERONNES,RLS de la Haute-Côte-Nord - Manicouagan,Centre intégré de santé et de services sociaux de la Côte-Nord,-69.5446243286,48.2387886047,"450, rue de la Mer",La Haute-Côte-Nord,QC,G0T1G0,Province of Quebec
144,CLSC ET CENTRE DE SERVICES EXTERNES POUR LES AÎNÉS DE LAURIER-STATION,RLS Alphonse-Desjardins,Centre intégré de santé et de services sociaux de Chaudière-Appalaches,-71.6296691895,46.5398635864,"135, rue de la Station",Lotbinière,QC,G0S1N0,Province of Quebec
145,CHSLD ET CENTRE DE RÉADAPTATION EN DÉFICIENCE INTELLECTUELLE ET EN TROUBLE DU SPECTRE DE L'AUTISME DE SAINT-APOLLINAIRE,RLS Alphonse-Desjardins,Centre intégré de santé et de services sociaux de Chaudière-Appalaches,-71.5099258423,46.6164398193,"12, rue Industrielle",Lotbinière,QC,G0S2E0,Province of Quebec
146,CHSLD DE SAINT-SYLVESTRE,RLS Alphonse-Desjardins,Centre intégré de santé et de services sociaux de Chaudière-Appalaches,-71.2294235229,46.363117218,"828, rue Principale",Lotbinière,QC,G0S3C0,Province of Quebec
147,CLSC DES PATRIOTES,RLS de Richelieu-Yamaska,Centre intégré de santé et de services sociaux de la Montérégie-Est,-73.1999206543,45.591003418,"300, rue Serge-Pépin",La Vallée-du-Richelieu,QC,J3G0B8,Province of Quebec
148,CENTRE D'HÉBERGEMENT ANDRÉE-PERRAULT,RLS de Richelieu-Yamaska,Centre intégré de santé et de services sociaux de la Montérégie-Est,-72.9452209473,45.6328926086,"1955, avenue Pratte",Les Maskoutains,QC,J2S7W5,Province of Quebec
149,PAVILLON SAINTE-FAMILLE,RLS du Témiscaming,Centre intégré de santé et de services sociaux de l'Abitibi-Témiscamingue,-79.4442672729,47.3329353333,"22, rue Notre-Dame Nord",Témiscamingue,QC,J9V1W8,Province of Quebec
150,CHSLD DE VILLE-MARIE,RLS du Témiscaming,Centre intégré de santé et de services sociaux de l'Abitibi-Témiscamingue,-79.4378585815,47.327003479,"37, rue Saint-Jean-Baptiste Sud",Témiscamingue,QC,J9V2A9,Province of Quebec
151,CLSC DE SAINT-LAZARE-DE-BELLECHASSE,RLS Alphonse-Desjardins,Centre intégré de santé et de services sociaux de Chaudière-Appalaches,-70.8111572266,46.6577415466,"100-A, rue Monseigneur-Bilodeau",Bellechasse,QC,G0R3J0,Province of Quebec
152,CHSLD ET CLSC DE SAINT-GERVAIS,RLS Alphonse-Desjardins,Centre intégré de santé et de services sociaux de Chaudière-Appalaches,-70.8947677612,46.7123718262,"70, rue Saint-Étienne",Bellechasse,QC,G0R3C0,Province of Quebec
153,CHSLD DE SAINT-RAPHAËL,RLS Alphonse-Desjardins,Centre intégré de santé et de services sociaux de Chaudière-Appalaches,-70.7516708374,46.7927284241,"84, rue du Foyer",Bellechasse,QC,G0R4C0,Province of Quebec
154,CHSLD ET CLSC DE SAINT-ANSELME,RLS Alphonse-Desjardins,Centre intégré de santé et de services sociaux de Chaudière-Appalaches,-70.9716720581,46.6297225952,"40, chemin Saint-Marc",Bellechasse,QC,G0R2N0,Province of Quebec
155,CHSLD ET CLSC DE SAINTE-CLAIRE,RLS Alphonse-Desjardins,Centre intégré de santé et de services sociaux de Chaudière-Appalaches,-70.8712997437,46.5998840332,"80, boulevard Bégin",Bellechasse,QC,G0R2V0,Province of Quebec
156,FOYER DE GROUPE POUR LES JEUNES EN DIFFICULTÉ D'ADAPTATION LENNOX,RLS de Laval,Centre intégré de santé et de services sociaux de Laval,-73.7579956055,45.5469093323,"1445, rue Lennox",Laval,QC,H7W2Y4,Province of Quebec
157,FOYER DE GROUPE POUR LES JEUNES EN DIFFICULTÉ D'ADAPTATION DE HONFLEUR,RLS de Laval,Centre intégré de santé et de services sociaux de Laval,-73.6767120361,45.5889930725,"2405, rue de Honfleur",Laval,QC,H7E1Y2,Province of Quebec
158,CENTRE D'HÉBERGEMENT DE SAINT-EUSÈBE,RLS d’Arthabaska-et-de-L’Érable,Centre intégré universitaire de santé et de services sociaux de la Mauricie-et-du-Centre-du-Québec,-71.8693161011,46.1777687073,"435, rue Saint-Jacques Est",L'Érable,QC,G6L5C5,Province of Quebec
159,CENTRE D'HÉBERGEMENT DE LYSTER,RLS d’Arthabaska-et-de-L’Érable,Centre intégré universitaire de santé et de services sociaux de la Mauricie-et-du-Centre-du-Québec,-71.620475769,46.3706550598,"2180, rue Bécancour",L'Érable,QC,G0S1V0,Province of Quebec
160,CENTRE DE PROTECTION DE L'ENFANCE ET DE LA JEUNESSE DE BAIE-COMEAU,RLS de la Haute-Côte-Nord - Manicouagan,Centre intégré de santé et de services sociaux de la Côte-Nord,-68.2569503784,49.1904411316,"835, boulevard Jolliet",Manicouagan,QC,G5C1P5,Province of Quebec
161,HÔPITAL DE MATANE,RLS de Matane,Centre intégré de santé et de services sociaux du Bas-Saint-Laurent,-67.5244140625,48.8435668945,"333, rue Thibault",La Matanie,QC,G4W2W5,Province of Quebec
162,CENTRE D'HÉBERGEMENT DE MATANE,RLS de Matane,Centre intégré de santé et de services sociaux du Bas-Saint-Laurent,-67.5320129395,48.840927124,"150, avenue Saint-Jérôme",La Matanie,QC,G4W3A2,Province of Quebec
163,CHSLD DE HAVRE-SAINT-PIERRE,RLS de la Minganie,Centre intégré de santé et de services sociaux de la Côte-Nord,-63.6077156067,50.2380065918,"933, rue Boréale",Minganie,QC,G0G1P0,Province of Quebec
164,CLSC DE CHANDLER,RLS du Rocher-Percé,Centre intégré de santé et de services sociaux de la Gaspésie,-64.6699523926,48.3537864685,"633, avenue Dr-G.-Daignault",Le Rocher-Percé,QC,G0C1K0,Province of Quebec
165,CENTRE D'HÉBERGEMENT DU ROCHER-PERCÉ,RLS du Rocher-Percé,Centre intégré de santé et de services sociaux de la Gaspésie,-64.674041748,48.34948349,"75, rue des Cèdres",Le Rocher-Percé,QC,G0C1K0,Province of Quebec
166,CENTRE DE SANTÉ ET DE SERVICES SOCIAUX DE MEMPHRÉMAGOG,RLS de Memphrémagog,Centre intégré universitaire de santé et de services sociaux de l'Estrie – Centre hospitalier universitaire de Sherbrooke,-72.1450500488,45.2650642395,"50, rue Saint-Patrice Est",Memphrémagog,QC,J1X3X3,Province of Quebec
167,CENTRE DE PROTECTION ET DE RÉADAPTATION POUR LES JEUNES ET LES MÈRES EN DIFFICULTÉ D'ADAPTATION CHAREST,RLS de Québec-Sud,Centre intégré universitaire de santé et de services sociaux de la Capitale-Nationale,-71.2226867676,46.8143157959,"540, boulevard Charest Est",Québec,QC,G1K8L1,Province of Quebec
168,CENTRE DE PROTECTION ET DE RÉADAPTATION POUR LES JEUNES ET LES MÈRES EN DIFFICULTÉ D'ADAPTATION MONT-D'YOUVILLE,RLS de Québec-Nord,Centre intégré universitaire de santé et de services sociaux de la Capitale-Nationale,-71.2197647095,46.8566360474,"2915, avenue du Bourg-Royal",Québec,QC,G1C3S2,Province of Quebec
169,CENTRE MULTISERVICES DE SANTÉ ET DE SERVICES SOCIAUX LAFLÈCHE,RLS du Centre-de-la-Mauricie,Centre intégré universitaire de santé et de services sociaux de la Mauricie-et-du-Centre-du-Québec,-72.7073822021,46.6063842773,"1650, avenue de Grand-Mère",Shawinigan,QC,G9T2K4,Province of Quebec
170,CENTRE MULTISERVICES DE SANTÉ ET DE SERVICES SOCIAUX DE FORTIERVILLE,RLS de Bécancour–Nicolet-Yamaska,Centre intégré universitaire de santé et de services sociaux de la Mauricie-et-du-Centre-du-Québec,-72.030380249,46.4863586426,"216, rue Principale",Bécancour,QC,G0S1J0,Province of Quebec
171,SERVICES DE READAPTATION AUX ADULTES ET AUX AINES,RLS de Québec-Sud,Centre intégré universitaire de santé et de services sociaux de la Capitale-Nationale,-71.2459564209,46.8197555542,"525, boulevard Wilfrid-Hamel",Québec,QC,G1M2S8,Province of Quebec
172,CENTRE DE RÉADAPTATION EN DÉFICIENCE PHYSIQUE SAINT-LOUIS,RLS de Québec-Sud,Centre intégré universitaire de santé et de services sociaux de la Capitale-Nationale,-71.2857284546,46.759475708,"2975, chemin Saint-Louis",Québec,QC,G1W1P9,Province of Quebec
173,HÔTEL-DIEU DU CENTRE HOSPITALIER DE L'UNIVERSITÉ DE MONTRÉAL,RLS des Faubourgs - Plateau-Mont-Royal - St-Louis-du-Parc,Centre hospitalier de l'Université de Montréal,-73.5781097412,45.5139427185,"3840, rue Saint-Urbain",Montréal,QC,H2W1T8,Province of Quebec
174,CLSC DE WEEDON,RLS du Haut-Saint-François,Centre intégré universitaire de santé et de services sociaux de l'Estrie – Centre hospitalier universitaire de Sherbrooke,-71.462020874,45.7055206299,"460, 2e Avenue",Le Haut-Saint-François,QC,J0B3J0,Province of Quebec
175,CENTRE DE SERVICES POUR LES AÎNÉS DE SAINT-LAMBERT,RLS de Champlain,Centre intégré de santé et de services sociaux de la Montérégie-Centre,-73.503616333,45.4983100891,"831, avenue Notre-Dame",Longueuil,QC,J4R1S1,Province of Quebec
176,CHSLD CHAMPLAIN,RLS de Champlain,Centre intégré de santé et de services sociaux de la Montérégie-Centre,-73.4531555176,45.4472618103,"5050, place Nogent",Longueuil,QC,J4Y2K3,Province of Quebec
177,CHSLD HENRIETTE-CÉRÉ,RLS de Champlain,Centre intégré de santé et de services sociaux de la Montérégie-Centre,-73.4040374756,45.4966125488,"6435, chemin de Chambly",Longueuil,QC,J3Y3R6,Province of Quebec
178,"HÔPITAL, CLSC ET CENTRE D'HÉBERGEMENT D'ASBESTOS",RLS d'Asbestos,Centre intégré universitaire de santé et de services sociaux de l'Estrie – Centre hospitalier universitaire de Sherbrooke,-71.9260787964,45.7717666626,"475, 3e Avenue",Les Sources,QC,J1T1X6,Province of Quebec
179,CLSC DE RICHMOND,RLS de Val Saint-François,Centre intégré universitaire de santé et de services sociaux de l'Estrie – Centre hospitalier universitaire de Sherbrooke,-72.1400909424,45.6601638794,"110, rue Barlow",Le Val-Saint-François,QC,J0B2H0,Province of Quebec
180,CHSLD SAINT-JOSEPH,RLS de Sherbrooke,Centre de santé et de services sociaux - Institut universitaire de gériatrie de Sherbrooke,-71.9028320313,45.4081115723,"611, boulevard Queen-Victoria",Sherbrooke,QC,J1H3R6,Province of Quebec
181,CENTRE DE SANTÉ ET DE SERVICES SOCIAUX DE LA MRC-DE-COATICOOK,RLS de Coaticook,Centre intégré universitaire de santé et de services sociaux de l'Estrie – Centre hospitalier universitaire de Sherbrooke,-71.8123321533,45.134979248,"138, rue Jeanne-Mance",Coaticook,QC,J1A1W3,Province of Quebec
182,HÔPITAL DE DOLBEAU-MISTASSINI,RLS de Maria-Chapdelaine,Centre intégré universitaire de santé et de services sociaux du Saguenay – Lac-Saint-Jean,-72.239364624,48.8858337402,"2000, boulevard Sacré-Coeur",Maria-Chapdelaine,QC,G8L2R5,Province of Quebec
183,CLSC LES JARDINS DU MONASTERE,RLS de Maria-Chapdelaine,Centre intégré universitaire de santé et de services sociaux du Saguenay – Lac-Saint-Jean,-72.2261962891,48.8904571533,"201, boulevard des Pères",Maria-Chapdelaine,QC,G8L5K6,Province of Quebec
184,HÔPITAL D'ALMA,RLS de Lac-Saint-Jean-Est,Centre intégré universitaire de santé et de services sociaux du Saguenay – Lac-Saint-Jean,-71.6650772095,48.5506210327,"300, boulevard Champlain Sud",Lac-Saint-Jean-Est,QC,G8B5W3,Province of Quebec
185,CLSC DE POHENEGAMOOK,RLS de Témiscouata,Centre intégré de santé et de services sociaux du Bas-Saint-Laurent,-69.2813339233,47.4897575378,"1922, rue Saint-Vallier",Témiscouata,QC,G0L1J0,Province of Quebec
186,HÔPITAL ET CHSLD DU PONTIAC,RLS du Pontiac,Centre intégré de santé et de services sociaux de l'Outaouais,-76.4840087891,45.6059684753,"200, rue Argue",Pontiac,QC,J0X2Y0,Province of Quebec
187,CLSC ET CENTRE DE SERVICES EXTERNES POUR LES AÎNÉS DE SHAWVILLE,RLS du Pontiac,Centre intégré de santé et de services sociaux de l'Outaouais,-76.4865493774,45.6057777405,"290, rue Marion",Pontiac,QC,J0X2Y0,Province of Quebec
188,CENTRE D'HÉBERGEMENT DE MANSFIELD-ET-PONTEFRACT,RLS du Pontiac,Centre intégré de santé et de services sociaux de l'Outaouais,-76.7219238281,45.8539428711,"230, chemin de la Chute",Pontiac,QC,J0X1R0,Province of Quebec
189,CLSC ET CENTRE D'HÉBERGEMENT DE LA PETITE-NATION,RLS de la Vallée-de-la-Lièvre et de la Petite-Nation,Centre intégré de santé et de services sociaux de l'Outaouais,-75.0584716797,45.7224998474,"14, rue Saint-André",Papineau,QC,J0V1W0,Province of Quebec
190,CLSC LEGUERRIER,RLS de Grande-Rivière - Hull - Gatineau,Centre intégré de santé et de services sociaux de l'Outaouais,-75.8360366821,45.3996124268,"425, rue Leguerrier",Gatineau,QC,J9H6N8,Province of Quebec
191,CENTRE D'HÉBERGEMENT D'AYLMER,RLS de Grande-Rivière - Hull - Gatineau,Centre intégré de santé et de services sociaux de l'Outaouais,-75.8382797241,45.3991088867,"445, boulevard Wilfrid-Lavigne",Gatineau,QC,J9H6H9,Province of Quebec
192,CENTRE MULTISERVICES DE SANTÉ ET DE SERVICES SOCIAUX CLOUTIER,RLS de Trois-Rivières,Centre intégré universitaire de santé et de services sociaux de la Mauricie-et-du-Centre-du-Québec,-72.5049819946,46.3652687073,"155, rue Toupin",Trois-Rivières,QC,G8T3Z8,Province of Quebec
193,CENTRE DE RÉADAPTATION EN DÉFICIENCE PHYSIQUE DE GRANBY,RLS de la Haute-Yamaska,Centre intégré de santé et de services sociaux de la Montérégie-Ouest,-72.7332382202,45.4032058716,"10, rue Saint-Hubert",La Haute-Yamaska,QC,J2G5L9,Province of Quebec
194,CENTRE DE RÉADAPTATION EN DÉFICIENCE PHYSIQUE DE SALABERRY-DE-VALLEYFIELD,RLS du Suroît,Centre intégré de santé et de services sociaux de la Montérégie-Ouest,-74.1277008057,45.2595787048,"30, avenue du Centenaire, bureau 210",Beauharnois-Salaberry,QC,J6S5X4,Province of Quebec
195,CHSLD DE VAL-D'OR,RLS de la Vallée-de-l'Or,Centre intégré de santé et de services sociaux de l'Abitibi-Témiscamingue,-77.7987670898,48.1017990112,"1212, avenue Brébeuf",La Vallée-de-l'Or,QC,J9P2C9,Province of Quebec
196,CLSC DE SENNETERRE,RLS de la Vallée-de-l'Or,Centre intégré de santé et de services sociaux de l'Abitibi-Témiscamingue,-77.2529983521,48.38438797,"961, rue de la Clinique",La Vallée-de-l'Or,QC,J0Y2M0,Province of Quebec
197,CHSLD D'AMOS,RLS de l'Abitibi,Centre intégré de santé et de services sociaux de l'Abitibi-Témiscamingue,-78.1251296997,48.5758628845,"612, 5e Avenue Ouest",Abitibi,QC,J9T4L3,Province of Quebec
198,CHSLD CHAMPAGNAT,RLS du Haut-Richelieu - Rouville,Centre intégré de santé et de services sociaux de la Montérégie-Centre,-73.2330627441,45.3078575134,"370, 5e Avenue",Le Haut-Richelieu,QC,J2X1V1,Province of Quebec
199,CENTRE MULTISERVICES DE SANTÉ ET DE SERVICES SOCIAUX DU HAUT-SAINT-MAURICE,RLS du Haut-Saint-Maurice,Centre intégré universitaire de santé et de services sociaux de la Mauricie-et-du-Centre-du-Québec,-72.7856903076,47.4284515381,"885, boulevard Ducharme",La Tuque,QC,G9X3C1,Province of Quebec
200,FOYER DE GROUPE POUR LES JEUNES EN DIFFICULTÉ D'ADAPTATION DE CHARLESBOURG,RLS de Québec-Nord,Centre intégré universitaire de santé et de services sociaux de la Capitale-Nationale,-71.2498931885,46.8638572693,"1085, rue de Sologne",Québec,QC,G1H1K8,Province of Quebec
201,"CLSC, HOPITAL ET CENTRE D'HEBERGEMENT CHRIST-ROI",RLS de Québec-Sud,Centre intégré universitaire de santé et de services sociaux de la Capitale-Nationale,-71.2582092285,46.8107833862,"900, boulevard Wilfrid-Hamel",Québec,QC,G1M2R9,Province of Quebec
202,CENTRE D'HÉBERGEMENT DE CHARLESBOURG,RLS de Québec-Nord,Centre intégré universitaire de santé et de services sociaux de la Capitale-Nationale,-71.2742538452,46.8513717651,"7150, boulevard Cloutier",Québec,QC,G1H5V5,Province of Quebec
203,CLSC D'OTTER LAKE,RLS du Pontiac,Centre intégré de santé et de services sociaux de l'Outaouais,-76.4334030151,45.8447189331,"340, avenue Martineau",Pontiac,QC,J0X2P0,Province of Quebec
204,CHSLD DENIS-MARCOTTE,RLS de la région de Thetford,Centre intégré de santé et de services sociaux de Chaudière-Appalaches,-71.2816085815,46.1036758423,"56, 9e rue Sud",Les Appalaches,QC,G6G5H6,Province of Quebec
205,CHSLD MARC-ANDRÉ-JACQUES,RLS de la région de Thetford,Centre intégré de santé et de services sociaux de Chaudière-Appalaches,-71.0742416382,46.2159423828,"272, rue Principale",Les Appalaches,QC,G0N1G0,Province of Quebec
206,CHSLD DU LAC-NOIR,RLS de la région de Thetford,Centre intégré de santé et de services sociaux de Chaudière-Appalaches,-71.3616409302,46.0464782715,"4064, rue du Foyer",Les Appalaches,QC,G6H2A1,Province of Quebec
207,CHSLD RENÉ-LAVOIE,RLS du Granit,Centre intégré de santé et de services sociaux de Chaudière-Appalaches,-71.3553619385,45.8990249634,"260, avenue Champlain",Les Appalaches,QC,G0N1E0,Province of Quebec
208,CENTRE D'HÉBERGEMENT DE SAINT-FÉLICIEN,RLS du Domaine-du-Roy,Centre intégré universitaire de santé et de services sociaux du Saguenay – Lac-Saint-Jean,-72.4481124878,48.6526145935,"1229, boulevard Sacré-Coeur",Le Domaine-du-Roy,QC,G8K1A5,Province of Quebec
209,CENTRE D'HÉBERGEMENT LUCIEN-G. ROLLAND,RLS de la Rivière-du-Nord - Mirabel-Nord,Centre intégré de santé et de services sociaux des Laurentides,-74.002204895,45.7641677856,"175, rue Durand",La Rivière-du-Nord,QC,J7Z2V4,Province of Quebec
210,RÉSIDENCE BOURG-JOLI,RLS de Richelieu-Yamaska,CHSLD Résidence Bourg-Joli Inc.,-72.964225769,45.6335144043,"2915, boulevard Laframboise",Les Maskoutains,QC,J2S4Z3,Province of Quebec
211,CLSC DE SAINT-PAULIN,RLS de Maskinongé,Centre intégré universitaire de santé et de services sociaux de la Mauricie-et-du-Centre-du-Québec,-73.0135421753,46.4183998108,"2841, rue Laflèche",Maskinongé,QC,J0K3G0,Province of Quebec
212,CLSC DE SAINT-FABIEN-DE-PANET,RLS de Montmagny-L'Islet,Centre intégré de santé et de services sociaux de Chaudière-Appalaches,-70.1524353027,46.6576080322,"10, rue Alphonse",Montmagny,QC,G0R2J0,Province of Quebec
213,CHSLD DE SAINT-FABIEN-DE-PANET,RLS de Montmagny-L'Islet,Centre intégré de santé et de services sociaux de Chaudière-Appalaches,-70.1459503174,46.6558074951,"19, rue Principale Est",Montmagny,QC,G0R2J0,Province of Quebec
214,CLSC ET CHSLD DE MONTMAGNY,RLS de Montmagny-L'Islet,Centre intégré de santé et de services sociaux de Chaudière-Appalaches,-70.5540084839,46.982219696,"168, rue Saint-Joseph",Montmagny,QC,G5V1H8,Province of Quebec
215,HÔPITAL DU CENTRE-DE-LA-MAURICIE,RLS du Centre-de-la-Mauricie,Centre intégré universitaire de santé et de services sociaux de la Mauricie-et-du-Centre-du-Québec,-72.7433929443,46.5255851746,"50, 119e Rue",Shawinigan,QC,G9P5K1,Province of Quebec
216,HÔPITAL ET CENTRE D'HÉBERGEMENT EN SANTÉ MENTALE DE LA MAURICIE-ET-DU-CENTRE-DU-QUÉBEC,RLS du Centre-de-la-Mauricie,Centre intégré universitaire de santé et de services sociaux de la Mauricie-et-du-Centre-du-Québec,-72.7471466064,46.5530319214,"1705, avenue Georges",Shawinigan,QC,G9N2N1,Province of Quebec
217,CENTRE DE RÉADAPTATION EN DÉFICIENCE INTELLECTUELLE ET EN TROUBLE DU SPECTRE DE L’AUTISME DE LA RUE MACDONALD,RLS du Haut-Richelieu - Rouville,Centre intégré de santé et de services sociaux de la Montérégie-Ouest,-73.2657470703,45.3259544373,"315, rue MacDonald, bureau 105",Le Haut-Richelieu,QC,J3B8J3,Province of Quebec
218,CLSC ET CENTRE D'HEBERGEMENT DE BEDFORD,RLS de la Pommeraie,Centre intégré universitaire de santé et de services sociaux de l'Estrie – Centre hospitalier universitaire de Sherbrooke,-72.9834518433,45.125541687,"34, rue Saint-Joseph",Brome-Missisquoi,QC,J0J1A0,Province of Quebec
219,CHSLD DE COWANSVILLE,RLS de la Pommeraie,Centre intégré universitaire de santé et de services sociaux de l'Estrie – Centre hospitalier universitaire de Sherbrooke,-72.7430343628,45.2078437805,"200, rue Principale",Brome-Missisquoi,QC,J2K1J2,Province of Quebec
220,CHSLD DE FARNHAM,RLS de la Pommeraie,Centre intégré universitaire de santé et de services sociaux de l'Estrie – Centre hospitalier universitaire de Sherbrooke,-72.9720001221,45.2876701355,"800, rue Saint-Paul",Brome-Missisquoi,QC,J2N2K6,Province of Quebec
221,CHSLD DE SUTTON,RLS de la Pommeraie,Centre intégré universitaire de santé et de services sociaux de l'Estrie – Centre hospitalier universitaire de Sherbrooke,-72.6188964844,45.109916687,"50, rue Western",Brome-Missisquoi,QC,J0E2K0,Province of Quebec
222,CLSC DE FARNHAM,RLS de la Pommeraie,Centre intégré universitaire de santé et de services sociaux de l'Estrie – Centre hospitalier universitaire de Sherbrooke,-72.9733428955,45.2857894897,"660, rue Saint-Paul",Brome-Missisquoi,QC,J2N3B9,Province of Quebec
223,MISHTA-AN-AUASS,RLS de Sept-Îles,Bande Indienne des Montagnais de Sept-Iles et Maliotenam,-66.406288147,50.2235107422,"1126, avenue de Quen",Sept-Rivières,QC,G4R5P8,Province of Quebec
224,PAVILLON SAINTE-MARIE,RLS de Trois-Rivières,Centre intégré universitaire de santé et de services sociaux de la Mauricie-et-du-Centre-du-Québec,-72.5631866455,46.3543586731,"1991, boulevard du Carmel",Trois-Rivières,QC,G8Z3R9,Province of Quebec
225,CENTRE D'HÉBERGEMENT DE VALLÉE-DE-LA-LIÈVRE,RLS de la Vallée-de-la-Lièvre et de la Petite-Nation,Centre intégré de santé et de services sociaux de l'Outaouais,-75.4228057861,45.5804176331,"111, rue Gérard-Gauthier",Gatineau,QC,J8L3C9,Province of Quebec
226,CENTRE D'HÉBERGEMENT ERNEST-BRISSON,RLS de Grande-Rivière - Hull - Gatineau,Centre intégré de santé et de services sociaux de l'Outaouais,-75.6474075317,45.4815864563,"134, rue Jean-René-Monette",Gatineau,QC,J8P7C3,Province of Quebec
227,CLSC ET CENTRE DE RÉADAPTATION EN DÉPENDANCE DE SAINT-TITE,RLS de la Vallée-de-la-Batiscan,Centre intégré universitaire de santé et de services sociaux de la Mauricie-et-du-Centre-du-Québec,-72.5581588745,46.7286720276,"750, rue du Couvent",Mékinac,QC,G0X3H0,Province of Quebec
228,CENTRE D'HÉBERGEMENT FREDERICK-GEORGE-HERIOT,RLS de Drummond,Centre intégré universitaire de santé et de services sociaux de la Mauricie-et-du-Centre-du-Québec,-72.4925613403,45.8880615234,"75, rue Saint-Georges",Drummond,QC,J2C4G6,Province of Quebec
229,CENTRE D'HÉBERGEMENT ET CLSC DE NOTRE-DAME-DU-BON-CONSEIL,RLS de Drummond,Centre intégré universitaire de santé et de services sociaux de la Mauricie-et-du-Centre-du-Québec,-72.3401107788,45.9990501404,"91, rue Saint-Thomas",Drummond,QC,J0C1A0,Province of Quebec
230,CLSC DE SEPT-ÎLES,RLS de Sept-Îles,Centre intégré de santé et de services sociaux de la Côte-Nord,-66.3845062256,50.2054252625,"405, avenue Brochu",Sept-Rivières,QC,G4R2W9,Province of Quebec
231,CENTRE DE RÉADAPTATION POUR LES JEUNES EN DIFFICULTÉ D'ADAPTATION DU MONT SAINT-ANTOINE,RLS de Rivière-des-Prairies - Anjou - Montréal-Est,Centre intégré universitaire de santé et de services sociaux du Centre-Sud-de-l'Île-de-Montréal,-73.53565979,45.5990180969,"8147, rue Sherbrooke Est",Montréal,QC,H1L1A7,Province of Quebec
232,CENTRE D'HÉBERGEMENT JEANNE-MANCE,RLS de Côte-des-Neiges - Métro - Parc-Extension,Centre intégré universitaire de santé et de services sociaux du Centre-Sud-de-l'Île-de-Montréal,-73.5719451904,45.5094566345,"3430, rue Jeanne-Mance",Montréal,QC,H2X2J9,Province of Quebec
233,CLSC MEILLEUR DE REPENTIGNY,RLS de Lanaudière-Sud,Centre intégré de santé et de services sociaux de Lanaudière,-73.4798736572,45.7448883057,"193, boulevard Lacombe",L'Assomption,QC,J5Z3C4,Province of Quebec
234,CENTRE D'HÉBERGEMENT DE SAINT-GABRIEL-DE-BRANDON,RLS de Lanaudière-Nord,Centre intégré de santé et de services sociaux de Lanaudière,-73.3869857788,46.2954788208,"90, rue Maskinongé",D'Autray,QC,J0K2N0,Province of Quebec
235,CLSC DE LOW,RLS de la Vallée-de-la-Gatineau,Centre intégré de santé et de services sociaux de l'Outaouais,-75.9496612549,45.809211731,"334, route 105",La Vallée-de-la-Gatineau,QC,J0X2C0,Province of Quebec
236,CENTRE DE SERVICES AMBULATOIRES DE LÉVIS,RLS Alphonse-Desjardins,Centre intégré de santé et de services sociaux de Chaudière-Appalaches,-71.1749343872,46.8156814575,"106, rue Jean-XXIII",Lévis,QC,G6V2K1,Province of Quebec
237,CENTRE D'ACTIVITÉS DE JOUR EN DÉFICIENCE INTELLECTUELLE ET DU TROUBLE DU SPECTRE DE L'AUTISME DUMAIS-NORD,RLS de la région de Thetford,Centre intégré de santé et de services sociaux de Chaudière-Appalaches,-71.301322937,46.0904998779,"31, rue Dumais Nord",Les Appalaches,QC,G6G3R2,Province of Quebec
238,CLSC DE SAINT-JEAN-DE-DIEU,RLS des Basques,Centre intégré de santé et de services sociaux du Bas-Saint-Laurent,-69.0412216187,48.0064086914,"20, rue de la Villa",Les Basques,QC,G0L3M0,Province of Quebec
239,CENTRE D'HÉBERGEMENT ET CLSC LUCIEN-SHOONER,RLS de Bécancour–Nicolet-Yamaska,Centre intégré universitaire de santé et de services sociaux de la Mauricie-et-du-Centre-du-Québec,-72.8113479614,46.0681724548,"50, rue du Lieut.-Gouverneur-Paul-Comtoi",Nicolet-Yamaska,QC,J0G1J0,Province of Quebec
240,CENTRE D'HÉBERGEMENT ET CLSC DE SAINT-CÉLESTIN,RLS de Bécancour–Nicolet-Yamaska,Centre intégré universitaire de santé et de services sociaux de la Mauricie-et-du-Centre-du-Québec,-72.4315719604,46.2136688232,"475, rue Houde",Nicolet-Yamaska,QC,J0C1G0,Province of Quebec
241,CLSC ET CENTRE DE SERVICES EXTERNES POUR LES AÎNÉS DE SAINT-ALEXIS-DES-MONTS,RLS de Maskinongé,Centre intégré universitaire de santé et de services sociaux de la Mauricie-et-du-Centre-du-Québec,-73.1365127563,46.4617195129,"10, rue Jonathan",Maskinongé,QC,J0K1V0,Province of Quebec
242,FOYER DE GROUPE POUR LES JEUNES EN DIFFICULTÉ D'ADAPTATION DE LACHINE,RLS de Dorval - Lachine - Lasalle,Centre intégré universitaire de santé et de services sociaux du Centre-Sud-de-l'Île-de-Montréal,-73.6868209839,45.4434280396,"749, 25e Avenue",Montréal,QC,H8S3X7,Province of Quebec
243,FOYER DE GROUPE POUR LES JEUNES EN DIFFICULTÉ D'ADAPTATION GOUIN,RLS du Nord de l'Île - Saint-Laurent,Centre intégré universitaire de santé et de services sociaux du Centre-Sud-de-l'Île-de-Montréal,-73.7107315063,45.5379333496,"4350, boulevard Gouin Ouest",Montréal,QC,H4J1B6,Province of Quebec
244,FOYER DE GROUPE POUR LES JEUNES EN DIFFICULTÉ D'ADAPTATION GODBOUT,RLS de Dorval - Lachine - Lasalle,Centre intégré universitaire de santé et de services sociaux du Centre-Sud-de-l'Île-de-Montréal,-73.633102417,45.4200248718,"9038, rue de Godbout",Montréal,QC,H8R2H6,Province of Quebec
245,CENTRE DE RÉADAPTATION POUR LES JEUNES EN DIFFICULTÉ D'ADAPTATION DOMINIQUE-SAVIO,RLS d'Ahuntsic - Montréal-Nord,Centre intégré universitaire de santé et de services sociaux du Centre-Sud-de-l'Île-de-Montréal,-73.6463165283,45.5531959534,"9335, rue Saint-Hubert",Montréal,QC,H2M1Y7,Province of Quebec
246,CENTRE D'HÉBERGEMENT MGR-ROSS DE GASPÉ,RLS de La Côte-de-Gaspé,Centre intégré de santé et de services sociaux de la Gaspésie,-64.4923782349,48.8373184204,"150, rue Monseigneur-Ross",La Côte-de-Gaspé,QC,G4X2S7,Province of Quebec
247,HÔPITAL DE GASPÉ,RLS de La Côte-de-Gaspé,Centre intégré de santé et de services sociaux de la Gaspésie,-64.4966430664,48.8129425049,"215, boulevard de York Ouest",La Côte-de-Gaspé,QC,G4X2W2,Province of Quebec
248,ATELIER DE TRAVAIL LABROSSE,RLS de Pierrefonds - Lac Saint-Louis,Centre intégré universitaire de santé et de services sociaux de l'Ouest-de-l'Île-de-Montréal,-73.8241195679,45.4737892151,"215, avenue Labrosse",Montréal,QC,H9R1A3,Province of Quebec
249,CENTRE DE RÉADAPTATIONEN DÉFICIENCE INTELLECTUELLE ET EN TROUBLE DU SPECTRE DE L'AUTISME MARIE-BOURASSA,RLS de Hochelaga - Mercier-Ouest - Rosemont,Centre intégré universitaire de santé et de services sociaux du Centre-Sud-de-l'Île-de-Montréal,-73.5625915527,45.5700836182,"5695, avenue des Marronniers",Montréal,QC,H1T2W3,Province of Quebec
250,CENTRE DE RÉADAPTATION EN DÉFICIENCE INTELLECTUELLE ET EN TROUBLE DU SPECTRE DE L'AUTISME DANDURAND,RLS de la Petite Patrie - Villeray,Centre intégré universitaire de santé et de services sociaux du Centre-Sud-de-l'Île-de-Montréal,-73.5813522339,45.5440673828,"2425, rue Dandurand",Montréal,QC,H2G2A1,Province of Quebec
251,CLSC DE PASPEBIAC,RLS de la Baie-des-Chaleurs,Centre intégré de santé et de services sociaux de la Gaspésie,-65.2867584229,48.0219535828,"273, boulevard Gérard-D.-Levesque",Bonaventure,QC,G0C2K0,Province of Quebec
252,CENTRE D'HÉBERGEMENT DE NEW CARLISLE,RLS de la Baie-des-Chaleurs,Centre intégré de santé et de services sociaux de la Gaspésie,-65.3211898804,48.0103530884,"108, boulevard Gérard-D.-Levesque",Bonaventure,QC,G0C1Z0,Province of Quebec
253,CENTRE D'HÉBERGEMENT SAINT-MAURICE,RLS du Centre-de-la-Mauricie,Centre intégré universitaire de santé et de services sociaux de la Mauricie-et-du-Centre-du-Québec,-72.7525558472,46.5406150818,"555, avenue de la Station",Shawinigan,QC,G9N1V9,Province of Quebec
254,CENTRE D'ACTIVITÉS DE JOUR EN DÉFICIENCE INTELLECTUELLE ET DU TROUBLE DU SPECTRE DE L'AUTISME DESJARDINS-EST,RLS Alphonse-Desjardins,Centre intégré de santé et de services sociaux de Chaudière-Appalaches,-71.154083252,46.8140487671,"7245, boulevard Guillaume-Couture",Lévis,QC,G6V7A3,Province of Quebec
255,CENTRE D'ACTIVITÉS DE JOUR EN DÉFICIENCE INTELLECTUELLE ET DU TROUBLE DU SPECTRE DE L'AUTISME DE SAINT-ROMUALD,RLS Alphonse-Desjardins,Centre intégré de santé et de services sociaux de Chaudière-Appalaches,-71.2356796265,46.7551498413,"260, rue de Saint-Romuald",Lévis,QC,G6W3H2,Province of Quebec
256,CENTRE DE SOINS DE COURTE DURÉE LA SARRE,RLS de l'Abitibi-Ouest,Centre intégré de santé et de services sociaux de l'Abitibi-Témiscamingue,-79.1984939575,48.7863616943,"679, 2e Rue Est",Abitibi-Ouest,QC,J9Z2X7,Province of Quebec
257,CENTRE D'HÉBERGEMENT ET DE SOINS DE LONGUE DURÉE MACAMIC (CHSLD),RLS de l'Abitibi-Ouest,Centre intégré de santé et de services sociaux de l'Abitibi-Témiscamingue,-78.9853668213,48.7570152283,"169, 7e Avenue Est",Abitibi-Ouest,QC,J0Z2S0,Province of Quebec
258,CLSC DE SAINT-PASCAL,RLS de Kamouraska,Centre intégré de santé et de services sociaux du Bas-Saint-Laurent,-69.8034057617,47.5294036865,"595, avenue Martin",Kamouraska,QC,G0L3Y0,Province of Quebec
259,HÔPITAL NOTRE-DAME-DE-FATIMA,RLS de Kamouraska,Centre intégré de santé et de services sociaux du Bas-Saint-Laurent,-70.0261688232,47.3718299866,"1201, 6e Avenue",Kamouraska,QC,G0R1Z0,Province of Quebec
260,CENTRE DE PROTECTION ET DE RÉADAPTATION POUR LES JEUNES EN DIFFICULTÉ D'ADAPTATION DE SAINTE-AGATHE-DES-MONTS,RLS des Laurentides,Centre intégré de santé et de services sociaux des Laurentides,-74.29737854,46.0510063171,"125-A, Tour de Lac",Les Laurentides,QC,J8C3A1,Province of Quebec
261,CLSC DE BERTHIERVILLE,RLS de Lanaudière-Nord,Centre intégré de santé et de services sociaux de Lanaudière,-73.1836471558,46.0844764709,"761, rue Notre-Dame",D'Autray,QC,J0K1A0,Province of Quebec
262,CLSC DE CHERTSEY,RLS de Lanaudière-Nord,Centre intégré de santé et de services sociaux de Lanaudière,-73.8888397217,46.0732345581,"485, rue Dupuis",Matawinie,QC,J0K3K0,Province of Quebec
263,CENTRE D'HÉBERGEMENT BRASSARD,RLS de Lanaudière-Nord,Centre intégré de santé et de services sociaux de Lanaudière,-73.9160766602,46.6757087708,"390, rue Brassard",Matawinie,QC,J0K3B0,Province of Quebec
264,CENTRE D'HÉBERGEMENT DE SAINT-DONAT,RLS de Lanaudière-Nord,Centre intégré de santé et de services sociaux de Lanaudière,-74.2220458984,46.3219604492,"430, rue Bellevue",Matawinie,QC,J0T2C0,Province of Quebec
265,CLSC DE RIVIÈRE-AU-RENARD,RLS de La Côte-de-Gaspé,Centre intégré de santé et de services sociaux de la Gaspésie,-64.3740615845,48.9886741638,"154, boulevard Renard Est",La Côte-de-Gaspé,QC,G4X5R5,Province of Quebec
266,CLSC DE GRANDE-VALLÉE,RLS de La Côte-de-Gaspé,Centre intégré de santé et de services sociaux de la Gaspésie,-65.1046218872,49.2273330688,"71, rue Saint-François-Xavier Ouest",La Côte-de-Gaspé,QC,G0E1K0,Province of Quebec
267,CLSC DE MURDOCHVILLE,RLS de La Côte-de-Gaspé,Centre intégré de santé et de services sociaux de la Gaspésie,-65.4935455322,48.9613227844,"600, avenue William-May",La Côte-de-Gaspé,QC,G0E1W0,Province of Quebec
268,HÔPITAL DE LA BAIE,RLS de La Baie,Centre intégré universitaire de santé et de services sociaux du Saguenay – Lac-Saint-Jean,-70.8831634521,48.3439102173,"1000, rue du Docteur-Desgagné",Saguenay,QC,G7B2Y6,Province of Quebec
269,CLSC DU FJORD-À-LA BAIE,RLS de La Baie,Centre intégré universitaire de santé et de services sociaux du Saguenay – Lac-Saint-Jean,-70.8794784546,48.33776474,"800, rue Aimé-Gravel",Saguenay,QC,G7B2M4,Province of Quebec
270,CENTRE D'HÉBERGEMENT SAINT-JOSEPH,RLS de La Baie,Centre intégré universitaire de santé et de services sociaux du Saguenay – Lac-Saint-Jean,-70.8509216309,48.3098564148,"1893, rue Alexis-Simard",Saguenay,QC,G7B2K9,Province of Quebec
271,CENTRE D'HÉBERGEMENT DE BAGOTVILLE,RLS de La Baie,Centre intégré universitaire de santé et de services sociaux du Saguenay – Lac-Saint-Jean,-70.879196167,48.3407516479,"562, rue Victoria",Saguenay,QC,G7B3M6,Province of Quebec
272,CENTRE D'HÉBERGEMENT DE GRACEFIELD,RLS de la Vallée-de-la-Gatineau,Centre intégré de santé et de services sociaux de l'Outaouais,-76.0502548218,46.0922164917,"1, rue du Foyer",La Vallée-de-la-Gatineau,QC,J0X1W0,Province of Quebec
273,CENTRE DE SERVICES AMBULATOIRES EN SANTÉ MENTALE MOUSSETTE,RLS de Grande-Rivière - Hull - Gatineau,Centre intégré de santé et de services sociaux de l'Outaouais,-75.7437591553,45.4395561218,"73, boulevard Moussette",Gatineau,QC,J8Y5J8,Province of Quebec
274,FOYER DE GROUPE DORNAL,RLS de Côte-des-Neiges - Métro - Parc-Extension,Centre intégré universitaire de santé et de services sociaux de l'Ouest-de-l'Île-de-Montréal,-73.6272201538,45.4870910645,"4912, avenue Dornal",Montréal,QC,H3W1W2,Province of Quebec
275,GROUPE DE MÉDECINE DE FAMILLE UNIVERSITAIRE DE MANICOUAGAN ET CLSC LIONEL-CHAREST,RLS de la Haute-Côte-Nord - Manicouagan,Centre intégré de santé et de services sociaux de la Côte-Nord,-68.2379150391,49.2089195251,"340, rue Clément-Lavoie",Manicouagan,QC,G4Z3B8,Province of Quebec
276,FOYER MAMO,,Conseil de la nation atikamekw,-72.7762832642,47.4408073425,"465, rue saint-joseph",La Tuque,QC,G9X1M6,Province of Quebec
277,ATELIER ET CENTRE D'ACTIVITES DE JOUR SHERBROOKE - PROSPECT,RLS de Sherbrooke,Centre de réadaptation en déficience intellectuelle et en troubles envahissants du développement de l'Estrie,-71.9151916504,45.4101142883,"1621, rue Prospect",Sherbrooke,QC,J1J1K4,Province of Quebec
278,HÔPITAL DE SAINTE-ANNE-DES-MONTS,RLS de la Haute-Gaspésie,Centre intégré de santé et de services sociaux de la Gaspésie,-66.4824523926,49.1188316345,"50, rue du Belvédère",La Haute-Gaspésie,QC,G4V1X4,Province of Quebec
279,CENTRE D'HÉBERGEMENT DE CAP-CHAT,RLS de la Haute-Gaspésie,Centre intégré de santé et de services sociaux de la Gaspésie,-66.6821594238,49.0930976868,"41, rue Nicolas",La Haute-Gaspésie,QC,G0J1E0,Province of Quebec
280,CLSC DE MONT-LOUIS,RLS de la Haute-Gaspésie,Centre intégré de santé et de services sociaux de la Gaspésie,-65.7350082397,49.2286643982,"19, 1e Avenue Ouest",La Haute-Gaspésie,QC,G0E1T0,Province of Quebec
281,CENTRE DE SERVICES AMBULATOIRES EN SANTÉ MENTALE DE RAWDON,RLS de Lanaudière-Nord,Centre intégré de santé et de services sociaux de Lanaudière,-73.7027206421,46.0416603088,"3570, rue Church",Matawinie,QC,J0K1S0,Province of Quebec
282,MOUNTAIN VIEW SCHOOL 'PROJECT CENTER',RLS de Côte-Saint-Luc - NDG - Montréal-Ouest,Centre intégré universitaire de santé et de services sociaux de l'Ouest-de-l'Île-de-Montréal,-73.6588897705,45.4602088928,"7450, chemin de la Côte-Saint-Luc",Montréal,QC,H4W1R1,Province of Quebec
283,POINT DE SERVICE DE LA MRC DE LA HAUTE-GASPESIE,RLS de la Haute-Gaspésie,Centre intégré de santé et de services sociaux de la Gaspésie,-66.6689910889,49.1002693176,"30, rue Notre-Dame Est",La Haute-Gaspésie,QC,G0J1E0,Province of Quebec
284,POINT DE SERVICE DE LA MRC COTE-DE-GASPE,RLS de La Côte-de-Gaspé,Centre intégré de santé et de services sociaux de la Gaspésie,-64.4923782349,48.8373184204,"150, rue Monseigneur-Ross, 4e, 5e et 6e",La Côte-de-Gaspé,QC,G4X2S7,Province of Quebec
285,POINT DE SERVICE DE LA MRC AVIGNON,RLS de la Baie-des-Chaleurs,Centre intégré de santé et de services sociaux de la Gaspésie,-65.9857559204,48.1736297607,"491-A, boulevard Perron",Avignon,QC,G0C1Y0,Province of Quebec
286,HÔPITAL DE GATINEAU,RLS de Grande-Rivière - Hull - Gatineau,Centre intégré de santé et de services sociaux de l'Outaouais,-75.6910629272,45.4932975769,"909, boulevard La Vérendrye Ouest",Gatineau,QC,J8P7H2,Province of Quebec
287,HÔPITAL DE HULL,RLS de Grande-Rivière - Hull - Gatineau,Centre intégré de santé et de services sociaux de l'Outaouais,-75.7460327148,45.4448738098,"116, boulevard Lionel-Émond",Gatineau,QC,J8Y1W7,Province of Quebec
288,CENTRE DE SANTÉ ET DE SERVICES SOCIAUX DE LA MITIS,RLS de La Mitis,Centre intégré de santé et de services sociaux du Bas-Saint-Laurent,-68.216178894,48.5724029541,"800, avenue du Sanatorium",La Mitis,QC,G5H3L6,Province of Quebec
289,CLSC DE SAINT-ESPRIT,RLS de Lanaudière-Nord,Centre intégré de santé et de services sociaux de Lanaudière,-73.6647109985,45.9046287537,"110, rue Saint-Isidore",Montcalm,QC,J0K2L0,Province of Quebec
290,CENTRE DE RÉADAPTATION EN DÉPENDANCE DE JOLIETTE,RLS de Lanaudière-Nord,Centre intégré de santé et de services sociaux de Lanaudière,-73.4413375854,46.0183753967,"258, rue Lavaltrie Sud",Joliette,QC,J6E5X7,Province of Quebec
291,CENTRE D'ACTIVITES DE JOUR OPTION,RLS de Pierrefonds - Lac Saint-Louis,Centre intégré universitaire de santé et de services sociaux de l'Ouest-de-l'Île-de-Montréal,-73.8041229248,45.4699020386,"93, boulevard Hymus",Montréal,QC,H9R1E2,Province of Quebec
292,ATELIER DE TRAVAIL ET CENTRE D'ACTIVITES DE JOUR BENNY,RLS de Côte-Saint-Luc - NDG - Montréal-Ouest,Centre intégré universitaire de santé et de services sociaux de l'Ouest-de-l'Île-de-Montréal,-73.6234970093,45.4637336731,"2221, avenue Benny",Montréal,QC,H4B2R5,Province of Quebec
293,CENTRE D'HÉBERGEMENT J.-HENRI-CHARBONNEAU,RLS de Hochelaga - Mercier-Ouest - Rosemont,Centre intégré universitaire de santé et de services sociaux de l'Est-de-l'Île-de-Montréal,-73.5587997437,45.5426521301,"3095, rue Sherbrooke Est",Montréal,QC,H1W1B2,Province of Quebec
294,CHSLD ÉLORIA-LEPAGE,RLS de Hochelaga - Mercier-Ouest - Rosemont,Centre intégré universitaire de santé et de services sociaux de l'Est-de-l'Île-de-Montréal,-73.5419921875,45.576915741,"3090, avenue de la Pépinière",Montréal,QC,H1N3N4,Province of Quebec
295,CENTRE DE RÉADAPTATION EN DÉFICIENCE INTELLECTUELLE DE SAINT-URBAIN,RLS de Charlevoix,Centre intégré universitaire de santé et de services sociaux de la Capitale-Nationale,-70.5391616821,47.5589408875,"359, rue Sainte-Claire",Charlevoix,QC,G0A4K0,Province of Quebec
296,CENTRE DE RÉADAPTATION EN DÉFICIENCE INTELLECTUELLE DE SAINT-SIMÉON,RLS de Charlevoix,Centre intégré universitaire de santé et de services sociaux de la Capitale-Nationale,-69.8835983276,47.8415260315,"398, rue Bergeron",Charlevoix-Est,QC,G0T1X0,Province of Quebec
297,CLSC DE SAINT-SIMEON,RLS de Charlevoix,Centre intégré universitaire de santé et de services sociaux de la Capitale-Nationale,-69.8790435791,47.8427352905,"371, rue Saint-Laurent",Charlevoix-Est,QC,G0T1X0,Province of Quebec
298,HÔPITAL DE NOTRE-DAME-DU-LAC,RLS de Témiscouata,Centre intégré de santé et de services sociaux du Bas-Saint-Laurent,-68.7992706299,47.6123695374,"58, rue de l'Église",Témiscouata,QC,G0L1X0,Province of Quebec
299,CLSC DE CABANO,RLS de Témiscouata,Centre intégré de santé et de services sociaux du Bas-Saint-Laurent,-68.8869857788,47.6796340942,"33, rue Saint-Laurent",Témiscouata,QC,G0L1E0,Province of Quebec
300,HÔPITAL DE MANIWAKI,RLS de la Vallée-de-la-Gatineau,Centre intégré de santé et de services sociaux de l'Outaouais,-75.9794082642,46.3908500671,"309, boulevard Desjardins",La Vallée-de-la-Gatineau,QC,J9E2E7,Province of Quebec
301,CENTRE D'HÉBERGEMENT DE MANIWAKI,RLS de la Vallée-de-la-Gatineau,Centre intégré de santé et de services sociaux de l'Outaouais,-75.9795913696,46.3766822815,"177, rue des Oblats",La Vallée-de-la-Gatineau,QC,J9E1G5,Province of Quebec
302,CENTRE DE RÉADAPTATION EN DÉPENDANCE LOUVAIN,RLS d'Ahuntsic - Montréal-Nord,Centre intégré universitaire de santé et de services sociaux du Centre-Sud-de-l'Île-de-Montréal,-73.6483612061,45.5539131165,"950, rue de Louvain Est",Montréal,QC,H2M2E8,Province of Quebec
303,CENTRE DE RÉADAPTATION EN DÉPENDANCE SAINT-URBAIN,RLS de Côte-des-Neiges - Métro - Parc-Extension,Centre intégré universitaire de santé et de services sociaux du Centre-Sud-de-l'Île-de-Montréal,-73.5729446411,45.5119400024,"3530, rue Saint-Urbain",Montréal,QC,H2X2N7,Province of Quebec
304,CENTRE DE RÉADAPTATION EN DÉPENDANCE PRINCE-ARTHUR,RLS de Côte-des-Neiges - Métro - Parc-Extension,Centre intégré universitaire de santé et de services sociaux du Centre-Sud-de-l'Île-de-Montréal,-73.573677063,45.5123558044,"110, rue Prince-Arthur Ouest",Montréal,QC,H2X1S7,Province of Quebec
305,"CENTRE DE PROTECTION DE L'ENFANCE ET DE LA JEUNESSE, SERVICES EXTERNES ET CENTRE DE JOUR DE L'ANCIENNE-LORETTE",RLS de Québec-Sud,Centre intégré universitaire de santé et de services sociaux de la Capitale-Nationale,-71.3518447876,46.7979202271,"1320, rue Saint-Paul",Québec,QC,G2E1Z4,Province of Quebec
306,CENTRE DE RÉADAPTATION EN DÉFICIENCE PHYSIQUE BELVÉDÈRE,RLS de Sherbrooke,Centre intégré universitaire de santé et de services sociaux de l'Estrie – Centre hospitalier universitaire de Sherbrooke,-71.8951034546,45.3906669617,"1036, rue Belvédère Sud",Sherbrooke,QC,J1H4C4,Province of Quebec
307,CLSC DE MONT-TREMBLANT,RLS des Laurentides,Centre intégré de santé et de services sociaux des Laurentides,-74.5954360962,46.1154212952,"635, rue Léonard",Les Laurentides,QC,J8E3H9,Province of Quebec
308,CENTRE D'HÉBERGEMENT DE MONT-TREMBLANT,RLS des Laurentides,Centre intégré de santé et de services sociaux des Laurentides,-74.5938034058,46.1179046631,"925, rue de Saint-Jovite",Les Laurentides,QC,J8E3J8,Province of Quebec
309,LE CHSLD DES PREMIERES NATIONS DU TIMISKAMING,,Le CHSLD des Premières Nations du Timiskaming,-79.4703979492,47.6070137024,"20, avenue Algonquin",Témiscamingue,QC,J0Z3B0,Province of Quebec
310,FOYER DE GROUPE POUR LES JEUNES EN DIFFICULTÉ D'ADAPTATION DES PATRIOTES,RLS de Laval,Centre intégré de santé et de services sociaux de Laval,-73.7785644531,45.6042175293,"2320, rue des Patriotes",Laval,QC,H7L3S9,Province of Quebec
311,FOYER DE GROUPE POUR LES JEUNES EN DIFFICULTÉ D'ADAPTATION CHARTRAND,RLS de Laval,Centre intégré de santé et de services sociaux de Laval,-73.5767593384,45.6668777466,"8420, rue Chartrand",Laval,QC,H7A1M4,Province of Quebec
312,CENTRE DE READAPTATION LE BOUCLIER,RLS de Deux-Montagnes - Mirabel-Sud,Centre intégré de santé et de services sociaux des Laurentides,-73.8932952881,45.5507202148,"29, chemin d'Oka, bureau 220",Deux-Montagnes,QC,J7R1K6,Province of Quebec
313,INSTITUT NAZARETH ET LOUIS-BRAILLE JEAN-BRILLANT,RLS de Côte-des-Neiges - Métro - Parc-Extension,Centre intégré de santé et de services sociaux de la Montérégie-Centre,-73.6218109131,45.495059967,"3744, rue Jean-Brillant",Montréal,QC,H3T1P1,Province of Quebec
314,FOYER DE GROUPE POUR LES JEUNES EN DIFFICULTÉ D'ADAPTATION DE PIERREFONDS,RLS de Pierrefonds - Lac Saint-Louis,Centre intégré universitaire de santé et de services sociaux du Centre-Sud-de-l'Île-de-Montréal,-73.8679122925,45.4779052734,"15900, boulevard de Pierrefonds",Montréal,QC,H9H3X7,Province of Quebec
315,CENTRE DE RÉADAPTATION POUR LES JEUNES EN DIFFICULTÉ D'ADAPTATION DE BEAUPORT,RLS de Québec-Nord,Centre intégré universitaire de santé et de services sociaux de la Capitale-Nationale,-71.2067489624,46.8612442017,"3510, rue Cambronne",Québec,QC,G1E7H2,Province of Quebec
316,FOYER DE GROUPE PUVIRNITUQ,,Centre de santé Inuulitsivik - Inuulitsivik Healthcenter,-77.2757949829,60.037651062,puvirnituk,Administration régionale Kativik,QC,J0M1P0,Province of Quebec
317,CENTRE DE RÉADAPTATION EN DÉFICIENCE INTELLECTUELLE ET DU TROUBLE DU SPECTRE DE L'AUTISME DE SHAWINIGAN,RLS du Centre-de-la-Mauricie,Centre intégré universitaire de santé et de services sociaux de la Mauricie-et-du-Centre-du-Québec,-72.7433395386,46.5407295227,"500, avenue Broadway",Shawinigan,QC,G9N1M3,Province of Quebec
318,ATELIER DE TRAVAIL EN DÉFICIENCE INTELLECTUELLE ET DU TROUBLE DU SPECTRE DE L'AUTISME BRASSARD,RLS du Domaine-du-Roy,Centre intégré universitaire de santé et de services sociaux du Saguenay – Lac-Saint-Jean,-72.2203063965,48.5073699951,"440, rue Brassard",Le Domaine-du-Roy,QC,G8H2E1,Province of Quebec
319,CENTRE DE RÉADAPTATION EN DÉFICIENCE INTELLECTUELLE ET DU TROUBLE DU SPECTRE DE L'AUTISME CHAMPLAIN,RLS de Lac-Saint-Jean-Est,Centre intégré universitaire de santé et de services sociaux du Saguenay – Lac-Saint-Jean,-71.6660385132,48.5478897095,"400, boulevard Champlain Sud",Lac-Saint-Jean-Est,QC,G8B3N8,Province of Quebec
320,CENTRE DE RÉADAPTATION EN DÉFICIENCE INTELLECTUELLE ET DU TROUBLE DU SPECTRE DE L'AUTISME TANGUAY,RLS de Lac-Saint-Jean-Est,Centre intégré universitaire de santé et de services sociaux du Saguenay – Lac-Saint-Jean,-71.6416702271,48.5671577454,"855, avenue Tanguay Nord",Lac-Saint-Jean-Est,QC,G8B5Y2,Province of Quebec
321,CENTRE DE RÉADAPTATION EN DÉFICIENCE INTELLECTUELLE ET DU TROUBLE DU SPECTRE DE L'AUTISME DU CÉNACLE,RLS de Chicoutimi,Centre intégré universitaire de santé et de services sociaux du Saguenay – Lac-Saint-Jean,-71.0452346802,48.422077179,"766, rue du Cénacle",Saguenay,QC,G7H2J2,Province of Quebec
322,PAVILLON RACHEL-TOURIGNY,RLS de Hochelaga - Mercier-Ouest - Rosemont,Centre intégré universitaire de santé et de services sociaux de l'Est-de-l'Île-de-Montréal,-73.5568313599,45.5740013123,"5305, boulevard de l'Assomption",Montréal,QC,H1T2M4,Province of Quebec
323,CHU SAINTE-JUSTINE,RLS de Côte-des-Neiges - Métro - Parc-Extension,Centre hospitalier universitaire Sainte-Justine,-73.6249465942,45.5031547546,"3175, chemin de la Côte-Sainte-Catherin",Montréal,QC,H3T1C5,Province of Quebec
324,CENTRE DE SERVICES AMBULATOIRES DE SOINS PSYCHIATRIQUES BEAUBIEN,RLS de Rivière-des-Prairies - Anjou - Montréal-Est,Centre intégré universitaire de santé et de services sociaux de l'Est-de-l'Île-de-Montréal,-73.5580215454,45.5935516357,"7067, rue Beaubien Est",Montréal,QC,H1M2Y2,Province of Quebec
325,CENTRE DE SERVICES AMBULATOIRES DE SOINS PSYCHIATRIQUES D'ANJOU,RLS de Rivière-des-Prairies - Anjou - Montréal-Est,Centre intégré universitaire de santé et de services sociaux de l'Est-de-l'Île-de-Montréal,-73.5707702637,45.5979232788,"7101, rue Jean-Talon Est, bureau SS-100",Montréal,QC,H1M3N7,Province of Quebec
326,CENTRE DE SERVICES AMBULATOIRES DE SOINS PSYCHIATRIQUES DE SAINT-LÉONARD,RLS de Saint-Léonard - Saint-Michel,Centre intégré universitaire de santé et de services sociaux de l'Est-de-l'Île-de-Montréal,-73.5813369751,45.5940628052,"8000, boulevard Langelier, bureau 404",Montréal,QC,H1P3K2,Province of Quebec
327,CENTRE DE SERVICES AMBULATOIRES PROVIDENCE,RLS de la Haute-Yamaska,Centre intégré universitaire de santé et de services sociaux de l'Estrie – Centre hospitalier universitaire de Sherbrooke,-72.7166137695,45.4103813171,"279, rue de la Providence",La Haute-Yamaska,QC,J2G4S7,Province of Quebec
328,CENTRE DE SERVICES AMBULATOIRES DE LAVAL,RLS de Laval,Centre intégré de santé et de services sociaux de Laval,-73.7462387085,45.5522651672,"1515, boulevard Chomedey",Laval,QC,H7V3Y7,Province of Quebec
329,CLSC ET GROUPE DE MÉDECINE DE FAMILLE UNIVERSITAIRE DE RIMOUSKI,RLS de Rimouski,Centre intégré de santé et de services sociaux du Bas-Saint-Laurent,-68.5217132568,48.4548301697,"165, rue des Gouverneurs",Rimouski-Neigette,QC,G5L7R2,Province of Quebec
330,CENTRE D'HÉBERGEMENT DE RIMOUSKI,RLS de Rimouski,Centre intégré de santé et de services sociaux du Bas-Saint-Laurent,-68.5718917847,48.434967041,"645, boulevard Saint-Germain",Rimouski-Neigette,QC,G5L3S2,Province of Quebec
331,CENTRE DE PROTECTION DE L'ENFANCE ET DE LA JEUNESSE DE BUCKINGHAM,RLS de la Vallée-de-la-Lièvre et de la Petite-Nation,Centre intégré de santé et de services sociaux de l'Outaouais,-75.4133758545,45.5840873718,"112, rue Church",Gatineau,QC,J8L1P1,Province of Quebec
332,CAMPUS CARTIER,RLS de Laval,Centre intégré universitaire de santé et de services sociaux de l'Ouest-de-l'Île-de-Montréal,-73.6980056763,45.5559196472,"306, boulevard Cartier Ouest",Laval,QC,H7N2J2,Province of Quebec
333,CENTRE D'HÉBERGEMENT DE LAJEMMERAIS,RLS Pierre-Boucher,Centre intégré de santé et de services sociaux de la Montérégie-Est,-73.4393005371,45.6838722229,"60, rue d'Youville",Marguerite-D'Youville,QC,J3X1R1,Province of Quebec
334,CLSC ET CENTRE D'HÉBERGEMENT CONTRECOEUR,RLS Pierre-Boucher,Centre intégré de santé et de services sociaux de la Montérégie-Est,-73.2435836792,45.854850769,"4700, route Marie-Victorin",Marguerite-D'Youville,QC,J0L1C0,Province of Quebec
335,CENTRE D'HÉBERGEMENT JEANNE-CREVIER,RLS Pierre-Boucher,Centre intégré de santé et de services sociaux de la Montérégie-Est,-73.4525375366,45.6135063171,"151, rue de Muy",Longueuil,QC,J4B4W7,Province of Quebec
336,APPARTEMENT SUPERVISÉ POUR LES JEUNES EN DIFFICULTÉ D'ADAPTATION DE CHICOUTIMI,RLS de Chicoutimi,Centre intégré universitaire de santé et de services sociaux du Saguenay – Lac-Saint-Jean,-71.0530014038,48.4257621765,"507, rue Jacques-Cartier Est",Saguenay,QC,G7H2A1,Province of Quebec
337,CLSC DE SAINT-MARC-DES-CARRIERES,RLS de Portneuf,Centre intégré universitaire de santé et de services sociaux de la Capitale-Nationale,-72.049697876,46.6808891296,"1045, boulevard Bona-Dussault",Portneuf,QC,G0A4B0,Province of Quebec
338,HÔPITAL RÉGIONAL DE PORTNEUF CLSC DE SAINT-RAYMOND,RLS de Portneuf,Centre intégré universitaire de santé et de services sociaux de la Capitale-Nationale,-71.8221511841,46.8949317932,"700, rue Saint-Cyrille",Portneuf,QC,G3L1W1,Province of Quebec
339,CENTRE D'HEBERGEMENT ET DE SOINS DE LONGUE DUREE VIGI L'ORCHIDEE BLANCHE,RLS de Laval,Vigi Santé Ltée,-73.7225494385,45.6194763184,"2577, boulevard René-Laennec",Laval,QC,H7K3V4,Province of Quebec
340,CLSC DE SAINTE-FOY,RLS de Québec-Sud,Centre intégré universitaire de santé et de services sociaux de la Capitale-Nationale,-71.3124084473,46.7752227783,"3108, chemin Sainte-Foy",Québec,QC,G1X1P8,Province of Quebec
341,CLSC DE L'ANCIENNE-LORETTE,RLS de Québec-Sud,Centre intégré universitaire de santé et de services sociaux de la Capitale-Nationale,-71.3518447876,46.7979202271,"1320, rue Saint-Paul",Québec,QC,G2E1Z4,Province of Quebec
342,HÔPITAL GRACE DART,RLS de Hochelaga - Mercier-Ouest - Rosemont,Centre de soins prolongés Grace Dart,-73.5466079712,45.578453064,"6085, rue Sherbrooke Est",Montréal,QC,H1N1C2,Province of Quebec
343,CENTRE D'HÉBERGEMENT DE DORVAL,RLS de Dorval - Lachine - Lasalle,Centre intégré universitaire de santé et de services sociaux de l'Ouest-de-l'Île-de-Montréal,-73.7356185913,45.4418067932,"225, avenue de la Présentation",Montréal,QC,H9S3L7,Province of Quebec
344,CENTRE D'HÉBERGEMENT NAZAIRE-PICHÉ,RLS de Dorval - Lachine - Lasalle,Centre intégré universitaire de santé et de services sociaux de l'Ouest-de-l'Île-de-Montréal,-73.6769485474,45.4341239929,"150, 15e Avenue",Montréal,QC,H8S3L9,Province of Quebec
345,L'HÔPITAL DE MONTRÉAL POUR ENFANTS,RLS de Côte-des-Neiges - Métro - Parc-Extension,Centre universitaire de santé McGill,-73.5823135376,45.4889602661,"2300, rue Tupper",Montréal,QC,H3H1P3,Province of Quebec
346,HÔPITAL NEUROLOGIQUE DE MONTRÉAL,RLS de Côte-des-Neiges - Métro - Parc-Extension,Centre universitaire de santé McGill,-73.5813980103,45.5089569092,"3801, rue University",Montréal,QC,H3A2B4,Province of Quebec
347,HÔPITAL ROYAL VICTORIA,RLS de Côte-des-Neiges - Métro - Parc-Extension,Centre universitaire de santé McGill,-73.5814590454,45.5082015991,"687, avenue des Pins Ouest",Montréal,QC,H3A1A1,Province of Quebec
348,CENTRE D'HEBERGEMENT CHAMPLAIN-DE-LA-VILLA-SOLEIL,RLS de la Rivière-du-Nord - Mirabel-Nord,Groupe Champlain Inc,-73.9939041138,45.7906341553,"825, rue Melançon",La Rivière-du-Nord,QC,J7Z4L1,Province of Quebec
349,CENTRE D'HEBERGEMENT CHAMPLAIN-DE-GATINEAU,RLS de Grande-Rivière - Hull - Gatineau,Groupe Champlain Inc,-75.6375350952,45.5006065369,"510, boulevard La Vérendrye Est",Gatineau,QC,J8P8B4,Province of Quebec
350,CENTRE D'HEBERGEMENT ET DE SOINS DE LONGUE DUREE VIGI DE L'OUTAOUAIS,RLS de Grande-Rivière - Hull - Gatineau,Vigi Santé Ltée,-75.6921691895,45.4946517944,"565, boulevard de l'Hôpital",Gatineau,QC,J8V3T4,Province of Quebec
351,CENTRE D'HEBERGEMENT ET DE SOINS DE LONGUE DUREE VIGI YVES-BLAIS,RLS de Lanaudière-Sud,Vigi Santé Ltée,-73.6057357788,45.7450866699,"2893, avenue des Ancêtres",Les Moulins,QC,J7K1X6,Province of Quebec
352,CENTRE D'HEBERGEMENT ET DE SOINS DE LONGUE DUREE VIGI DE BROSSARD,RLS de Champlain,Vigi Santé Ltée,-73.4360275269,45.4689216614,"5955, boulevard Grande-Allée",Longueuil,QC,J4Z3G4,Province of Quebec
353,CENTRE D'HÉBERGEMENT SAINTE-DOROTHÉE,RLS de Laval,Centre intégré de santé et de services sociaux de Laval,-73.8047332764,45.5238265991,"350, boulevard Samson",Laval,QC,H7X1J4,Province of Quebec
354,CLSC DU RUISSEAU-PAPINEAU,RLS de Laval,Centre intégré de santé et de services sociaux de Laval,-73.7621383667,45.5496864319,"1665, rue du Couvent",Laval,QC,H7W3A8,Province of Quebec
355,CLSC CAMIRAND,RLS de Sherbrooke,Centre de santé et de services sociaux - Institut universitaire de gériatrie de Sherbrooke,-71.8943405151,45.3988075256,"50, rue Camirand",Sherbrooke,QC,J1H4J5,Province of Quebec
356,CLSC ET GROUPE DE MÉDECINE DE FAMILLE UNIVERSITAIRE KING EST,RLS de Sherbrooke,Centre de santé et de services sociaux - Institut universitaire de gériatrie de Sherbrooke,-71.8620605469,45.4080734253,"1200, rue King Est",Sherbrooke,QC,J1G1E4,Province of Quebec
357,CENTRE D'HÉBERGEMENT DU SACRÉ-COEUR,RLS de Québec-Sud,Centre intégré universitaire de santé et de services sociaux de la Capitale-Nationale,-71.2453994751,46.8132514954,"1, avenue du Sacré-Coeur",Québec,QC,G1N2W1,Province of Quebec
358,CLSC ET GROUPE DE MÉDECINE DE FAMILLE UNIVERSITAIRE DE LA HAUTE-VILLE,RLS de Québec-Sud,Centre intégré universitaire de santé et de services sociaux de la Capitale-Nationale,-71.2278900146,46.8060188293,"55, chemin Sainte-Foy",Québec,QC,G1R1S9,Province of Quebec
359,CENTRE DE SERVICES DE READAPTATION EN DEPENDANCE DE LA MALBAIE,RLS de Charlevoix,Centre intégré universitaire de santé et de services sociaux de la Capitale-Nationale,-70.1491317749,47.6530532837,"535, boulevard de Comporté",Charlevoix-Est,QC,G5A1S8,Province of Quebec
360,CENTRE DE SERVICES DE READAPTATION EN DEPENDANCE DE DONNACONA,RLS de Portneuf,Centre intégré universitaire de santé et de services sociaux de la Capitale-Nationale,-71.7238540649,46.680644989,"400, Route 138",Portneuf,QC,G3M1C3,Province of Quebec
361,CENTRE DE SERVICES DE READAPTATION EN DEPENDANCE DE LA BASSE-VILLE,RLS de Québec-Sud,Centre intégré universitaire de santé et de services sociaux de la Capitale-Nationale,-71.2303161621,46.8126144409,"50, rue Saint-Joseph Est",Québec,QC,G1K3A5,Province of Quebec
362,CENTRE DE RÉADAPTATION EN DÉFICIENCE INTELLECTUELLE ET EN TROUBLE DU SPECTRE DE L'AUTISME DE MONT-LAURIER,RLS d'Antoine-Labelle,Centre intégré de santé et de services sociaux des Laurentides,-75.4957885742,46.5529937744,"600, rue de la Madone",Antoine-Labelle,QC,J9L1S9,Province of Quebec
363,CENTRE D'ACTIVITES DE JOUR DE SHERBROOKE - FAIRMOUNT,RLS de Sherbrooke,Centre de réadaptation en déficience intellectuelle et en troubles envahissants du développement de l'Estrie,-71.9023132324,45.3908843994,"1010, rue Fairmount",Sherbrooke,QC,J1H3N3,Province of Quebec
364,CENTRE DE RÉADAPTATION EN DÉFICIENCE INTELLECTUELLE ET DU TROUBLE DU SPECTRE DE L'AUTISME DE LÉVIS,RLS Alphonse-Desjardins,Centre intégré de santé et de services sociaux de Chaudière-Appalaches,-71.1796035767,46.8120002747,"55, rue du Mont-Marie",Lévis,QC,G6V0B8,Province of Quebec
365,CENTRE DE SANTÉ ET DE SERVICES SOCIAUX DU GRANIT,RLS du Granit,Centre intégré universitaire de santé et de services sociaux de l'Estrie – Centre hospitalier universitaire de Sherbrooke,-70.9057922363,45.5885925293,"3569, rue Laval",Le Granit,QC,G6B1A5,Province of Quebec
366,CHSLD DE LAC-MÉGANTIC,RLS du Granit,Centre intégré universitaire de santé et de services sociaux de l'Estrie – Centre hospitalier universitaire de Sherbrooke,-70.8711013794,45.5736808777,"3675, rue du Foyer",Le Granit,QC,G6B2K2,Province of Quebec
367,CENTRE D'HÉBERGEMENT DE L'HÔPITAL GÉNÉRAL DE QUÉBEC,RLS de Québec-Sud,Centre intégré universitaire de santé et de services sociaux de la Capitale-Nationale,-71.2328109741,46.8146743774,"260, boulevard Langelier",Québec,QC,G1K5N1,Province of Quebec
368,CENTRE D'HÉBERGEMENT NOTRE-DAME-DE-LOURDES,RLS de Québec-Sud,Centre intégré universitaire de santé et de services sociaux de la Capitale-Nationale,-71.2322845459,46.8099021912,"105, rue Hermine",Québec,QC,G1K1Y5,Province of Quebec
369,CENTRE DE RÉADAPTATION EN DÉFICIENCE INTELLECTUELLE ET DU TROUBLE DU SPECTRE DE L'AUTISME BOULEVARD SAINTE-ROSE,RLS de Laval,Centre intégré de santé et de services sociaux de Laval,-73.789680481,45.6123924255,"261, boulevard Sainte-Rose",Laval,QC,H7L1M1,Province of Quebec
370,CENTRE DE RÉADAPTATION EN DÉFICIENCE INTELLECTUELLE ET DU TROUBLE DU SPECTRE DE L'AUTISME DE SAINTE-JULIENNE,RLS de Lanaudière-Nord,Centre intégré de santé et de services sociaux de Lanaudière,-73.713394165,45.9648551941,"1525, chemin du Gouvernement",Montcalm,QC,J0K2T0,Province of Quebec
371,CLSC DE CHELSEA,RLS des Collines-de-l'Outaouais,Centre intégré de santé et de services sociaux de l'Outaouais,-75.7825622559,45.5058631897,"490, Route 105",Les Collines-de-l'Outaouais,QC,J9B1L2,Province of Quebec
372,CLSC DE CANTLEY,RLS des Collines-de-l'Outaouais,Centre intégré de santé et de services sociaux de l'Outaouais,-75.7815933228,45.5680923462,"850, montée de la Source",Les Collines-de-l'Outaouais,QC,J8V3H4,Province of Quebec
373,CLSC DE VAL-DES-MONTS,RLS des Collines-de-l'Outaouais,Centre intégré de santé et de services sociaux de l'Outaouais,-75.6192092896,45.5850524902,"1884, route du Carrefour",Les Collines-de-l'Outaouais,QC,J8N7M8,Province of Quebec
374,CHSLD DE LA CÔTE BOISÉE,RLS de Lanaudière-Sud,CHSLD de la Côte Boisée Inc.,-73.6615905762,45.7127571106,"4300, rue d'Angora",Les Moulins,QC,J6X4P1,Province of Quebec
375,CENTRE DE READAPTATION MARIE ENFANT,RLS de Hochelaga - Mercier-Ouest - Rosemont,Centre hospitalier universitaire Sainte-Justine,-73.5771789551,45.5753097534,"5200, rue Bélanger",Montréal,QC,H1T1C9,Province of Quebec
376,CLSC DE COWANSVILLE,RLS de la Pommeraie,Centre intégré universitaire de santé et de services sociaux de l'Estrie – Centre hospitalier universitaire de Sherbrooke,-72.7097702026,45.2046470642,"133, rue Larouche",Brome-Missisquoi,QC,J2K1T2,Province of Quebec
377,FOYER DE GROUPE COLTON,RLS de Côte-Saint-Luc - NDG - Montréal-Ouest,Centre intégré universitaire de santé et de services sociaux de l'Ouest-de-l'Île-de-Montréal,-73.6275939941,45.4772567749,"4559, avenue d'Oxford",Montréal,QC,H4A2Y9,Province of Quebec
378,CLSC DE LAC-BROME,RLS de la Pommeraie,Centre intégré universitaire de santé et de services sociaux de l'Estrie – Centre hospitalier universitaire de Sherbrooke,-72.5297470093,45.2179832458,"383, chemin Knowlton",Brome-Missisquoi,QC,J0E1V0,Province of Quebec
379,CLSC CHAMPLAIN,RLS de Lac-Saint-Jean-Est,Centre intégré universitaire de santé et de services sociaux du Saguenay – Lac-Saint-Jean,-71.6660385132,48.5478897095,"402, boulevard Champlain Sud",Lac-Saint-Jean-Est,QC,G8B3N8,Province of Quebec
380,CENTRE D'ACTIVITES DE JOUR,RLS de Rimouski,Centre intégré de santé et de services sociaux du Bas-Saint-Laurent,-68.5582809448,48.435218811,"555, rue de Lausanne",Rimouski-Neigette,QC,G5L4A7,Province of Quebec
381,POINT DE SERVICE MRC RIMOUSKI-NEIGETTE,RLS de Rimouski,Centre intégré de santé et de services sociaux du Bas-Saint-Laurent,-68.5259246826,48.4448623657,"274, rue Potvin",Rimouski-Neigette,QC,G5L7P5,Province of Quebec
382,ATELIER DE COUTURE ET ECONO POSTE,RLS de La Mitis,Centre intégré de santé et de services sociaux du Bas-Saint-Laurent,-68.2088851929,48.5890617371,"1111, rue Industrielle",La Mitis,QC,G5H3T9,Province of Quebec
383,L'INTERACTION - PAVILLON ALPHONSE-COUTURIER (POINT DE SERVICE),RLS de Rivière-du-Loup,Centre intégré de santé et de services sociaux du Bas-Saint-Laurent,-69.5386962891,47.818561554,"73, rue Saint-Henri, poste de quartier 9",Rivière-du-Loup,QC,G5R4V2,Province of Quebec
384,HÔPITAL DE LASALLE,RLS de Dorval - Lachine - Lasalle,Centre intégré universitaire de santé et de services sociaux de l'Ouest-de-l'Île-de-Montréal,-73.6233673096,45.4208374023,"8585, terrasse Champlain",Montréal,QC,H8P1C1,Province of Quebec
385,CLSC J-OLIVIER-CAMIRAND,RLS de Sherbrooke,Centre de santé et de services sociaux - Institut universitaire de gériatrie de Sherbrooke,-71.8947296143,45.3981933594,"95, rue Camirand",Sherbrooke,QC,J1H4J6,Province of Quebec
386,CLSC KING EST,RLS de Sherbrooke,Centre de santé et de services sociaux - Institut universitaire de gériatrie de Sherbrooke,-71.8950424194,45.3990058899,"356, rue King Ouest",Sherbrooke,QC,J1H1R4,Province of Quebec
387,CLSC ET AIRE OUVERTE DE LA RUE CHAMPLAIN,RLS du Haut-Richelieu - Rouville,Centre intégré de santé et de services sociaux de la Montérégie-Centre,-73.2518768311,45.3057250977,"185, rue Champlain",Le Haut-Richelieu,QC,J3B6V5,Province of Quebec
388,CENTRE DE READAPTATION SAPUMMIVIK,,Centre de santé Tulattavik de l'Ungava,-75.6404495239,62.2000961304,Case postale 39,Administration régionale Kativik,QC,J0M1S0,Province of Quebec
389,HÔPITAL ET CENTRE DE RÉADAPTATION DE JONQUIÈRE,RLS de Jonquière,Centre intégré universitaire de santé et de services sociaux du Saguenay – Lac-Saint-Jean,-71.2351303101,48.4135971069,"2230, rue de l'Hôpital",Saguenay,QC,G7X7X2,Province of Quebec
390,CLSC DE JONQUIÈRE,RLS de Jonquière,Centre intégré universitaire de santé et de services sociaux du Saguenay – Lac-Saint-Jean,-71.23777771,48.4117393494,"3667, boulevard Harvey",Saguenay,QC,G7X3A9,Province of Quebec
391,CLSC DE SAINTE-JULIE,RLS Pierre-Boucher,Centre intégré de santé et de services sociaux de la Montérégie-Est,-73.3363876343,45.5925445557,"461, boulevard Saint-Joseph, bureau 112",Marguerite-D'Youville,QC,J3E1W8,Province of Quebec
392,CLSC ET GROUPE DE MÉDECINE DE FAMILLE UNIVERSITAIRE DU MARIGOT,RLS de Laval,Centre intégré de santé et de services sociaux de Laval,-73.7101516724,45.5869178772,"1351, boulevard des Laurentides",Laval,QC,H7M2Y2,Province of Quebec
393,CENTRE D'HEBERGEMENT ET DE SOINS DE LONGUE DUREE DES FLORALIES-DE-LACHINE,RLS de Dorval - Lachine - Lasalle,Centre d'hébergement et de soins de longue durée des Floralies-de-Lachine Inc.,-73.6918411255,45.4408493042,"650, 32e Avenue",Montréal,QC,H8T3K4,Province of Quebec
394,CENTRE DE RÉADAPTATION POUR LES JEUNES EN DIFFICULTÉ D'ADAPTATION DE SEPT-ÎLES,RLS de Sept-Îles,Centre intégré de santé et de services sociaux de la Côte-Nord,-66.3657302856,50.2203483582,"27, rue La Vérendrye",Sept-Rivières,QC,G4R5E3,Province of Quebec
395,CLSC DE QUYON,RLS du Pontiac,Centre intégré de santé et de services sociaux de l'Outaouais,-76.2306365967,45.5202522278,"1164, rue Clarendon",Les Collines-de-l'Outaouais,QC,J0X2V0,Province of Quebec
396,POINT DE SERVICE HAUT SAINT-FRANCOIS,RLS du Haut-Saint-François,Centre intégré universitaire de santé et de services sociaux de l'Estrie – Centre hospitalier universitaire de Sherbrooke,-71.6536026001,45.489112854,"149, rue Kennedy",Le Haut-Saint-François,QC,J0B1R0,Province of Quebec
397,CLSC ET GROUPE DE MÉDECINE DE FAMILLE UNIVERSITAIRE LAFONTAINE,RLS de la Rivière-du-Nord - Mirabel-Nord,Centre intégré de santé et de services sociaux des Laurentides,-74.0093536377,45.7930450439,"1000, rue Labelle",La Rivière-du-Nord,QC,J7Z5N6,Province of Quebec
398,CENTRE D'HEBERGEMENT CHAMPLAIN - CHANOINE-AUDET,RLS Alphonse-Desjardins,Groupe Champlain Inc,-71.2377166748,46.7553138733,"2155, chemin du Sault",Lévis,QC,G6W2K7,Province of Quebec
399,HÔPITAL CHAUVEAU,RLS de Québec-Nord,Centre intégré universitaire de santé et de services sociaux de la Capitale-Nationale,-71.3699645996,46.8531990051,"11999, rue de l'Hôpital",Québec,QC,G2A2T7,Province of Quebec
400,CENTRE D'HEBERGEMENT DE LA MAREE,RLS de Rivière-des-Prairies - Anjou - Montréal-Est,Centre d'hébergement de la Marée Inc.,-73.6190414429,45.6300621033,"7015, boulevard Gouin Est",Montréal,QC,H1E5N2,Province of Quebec
401,CHSLD JOSEPH-FRANÇOIS-PERREAULT,RLS de Saint-Léonard - Saint-Michel,Centre intégré universitaire de santé et de services sociaux de l'Est-de-l'Île-de-Montréal,-73.601776123,45.5593833923,"7400, boulevard Saint-Michel",Montréal,QC,H2A2Z8,Province of Quebec
402,CENTRE DE SERVICES AMBULATOIRES EN SANTÉ MENTALE SAINT-CHARLES,RLS de Pierrefonds - Lac Saint-Louis,Centre intégré universitaire de santé et de services sociaux de l'Ouest-de-l'Île-de-Montréal,-73.8537521362,45.4467506409,"2840, boulevard Saint-Charles",Montréal,QC,H9H3B6,Province of Quebec
403,CENTRE DE RÉADAPTATION EN DÉFICIENCE INTELLECTUELLE ET EN TROUBLE DU SPECTRE DE L’AUTISME DE LA RUE BEAUHARNOIS,RLS Pierre-Boucher,Centre intégré de santé et de services sociaux de la Montérégie-Ouest,-73.4536361694,45.5355186462,"1442, rue Beauharnois",Longueuil,QC,J4M1C2,Province of Quebec
404,CENTRE DE RÉADAPTATION EN DÉFICIENCE INTELLECTUELLE ET EN TROUBLE DU SPECTRE DE L'AUTISME DE GRANBY,RLS de la Haute-Yamaska,Centre intégré de santé et de services sociaux de la Montérégie-Ouest,-72.7298126221,45.411491394,"290, rue Saint-Hubert",La Haute-Yamaska,QC,J2G5N3,Province of Quebec
405,CLSC DE MONTCALM,RLS de Québec-Sud,Centre intégré universitaire de santé et de services sociaux de la Capitale-Nationale,-71.2329788208,46.803150177,"383, chemin Sainte-Foy",Québec,QC,G1S2J1,Province of Quebec
406,FOYER DE GROUPE POUR LES JEUNES EN DIFFICULTÉ D'ADAPTATION LE COLIBRI,RLS du Suroît,Centre intégré de santé et de services sociaux de la Montérégie-Est,-74.1397781372,45.2666893005,"153, rue Saint-Philippe",Beauharnois-Salaberry,QC,J6S3H3,Province of Quebec
407,CENTRE D'HÉBERGEMENT MARGUERITE-D'YOUVILLE,RLS de Drummond,Centre intégré universitaire de santé et de services sociaux de la Mauricie-et-du-Centre-du-Québec,-72.47706604,45.8794784546,"574, rue Heriot",Drummond,QC,J2B1B9,Province of Quebec
408,CENTRE DE RÉADAPTATION EN DÉFICIENCE PHYSIQUE LE TOURET,RLS de Sherbrooke,Centre intégré universitaire de santé et de services sociaux de l'Estrie – Centre hospitalier universitaire de Sherbrooke,-71.9618530273,45.3626594543,"4076, boulevard de l'Université",Sherbrooke,QC,J1N2Y1,Province of Quebec
