{
"type": "FeatureCollection",
"name": "Medical_Clinics",
"crs": { "type": "name", "properties": { "name": "urn:ogc:def:crs:OGC:1.3:CRS84" } },
"features": [
{ "type": "Feature", "properties": { "OBJECTID": 1, "Name": "Clinique Après Heures Champlain", "Phone": "(506) 383-7709", "Address": "123 Champlain Street, Dieppe", "Hours": "Monday-Friday: 6pm-9pm, Weekends and Holidays: 1pm-4pm", "Services": "Basic Medical Needs" }, "geometry": { "type": "Point", "coordinates": [ -64.752685342999939, 46.094927324000025 ] } },
{ "type": "Feature", "properties": { "OBJECTID": 2, "Name": "Clinique Dépannage du Marais", "Phone": "(506) 384-1110", "Address": "185 Acadie Avenue, Dieppe", "Hours": "Monday-Thursday: 1pm-4pm & 5:30pm-8pm, Friday-Sunday: 1pm-4pm", "Services": "Basic Medical Needs" }, "geometry": { "type": "Point", "coordinates": [ -64.74224176499996, 46.091927381000062 ] } },
{ "type": "Feature", "properties": { "OBJECTID": 3, "Name": "Clinique Dr. Louis Bourque", "Phone": "(506) 855-1125", "Address": "1116 Mountain Road, Moncton ", "Hours": "Monday-Friday: 2pm-8pm, Weekends & Holidays: 12pm-4pm", "Services": "Basic Medical Needs" }, "geometry": { "type": "Point", "coordinates": [ -64.823002765999945, 46.105709624000042 ] } },
{ "type": "Feature", "properties": { "OBJECTID": 4, "Name": "Clinique Providence", "Phone": "(506) 383-4331", "Address": "565 Elmwood Drive, Suite 202, Moncton", "Hours": "Monday-Friday: 6pm until full, Saturday-Sunday: 12pm until full", "Services": "Basic Medical Needs" }, "geometry": { "type": "Point", "coordinates": [ -64.770616073999975, 46.122618044000035 ] } },
{ "type": "Feature", "properties": { "OBJECTID": 5, "Name": "Dr. Georges-L.-Dumont University Hospital Centre", "Phone": "(506) 862-4000", "Address": "330 Université Avenue, Moncton", "Hours": "Emergency services 24 hours. ", "Services": "Healthcare and emergency services" }, "geometry": { "type": "Point", "coordinates": [ -64.787096168999938, 46.098120842000071 ] } },
{ "type": "Feature", "properties": { "OBJECTID": 6, "Name": "Moncton Hospital", "Phone": "(506) 857-5111", "Address": "135 Macbeath Avenue, Moncton", "Hours": "Emergency services 24 hours. ", "Services": "Healthcare and emergency services" }, "geometry": { "type": "Point", "coordinates": [ -64.806171132999964, 46.105174159000057 ] } },
{ "type": "Feature", "properties": { "OBJECTID": 7, "Name": "Trinity Medical Clinic", "Phone": "(506) 854-0133", "Address": "89 Trinity Drive, Moncton (Superstore)", "Hours": "Monday-Thursday: 1pm-4pm , 6pm-9pm, Friday-Sunday: 1pm-4pm", "Services": "Basic Medical Needs" }, "geometry": { "type": "Point", "coordinates": [ -64.832377080999947, 46.118236859000035 ] } },
{ "type": "Feature", "properties": { "OBJECTID": 8, "Name": "Moncton North After Hours Medical Clinic", "Phone": "(506) 854-2273", "Address": "1633 Mountain Road, Moncton", "Hours": "Phone lines open: 9am-9pm, Clinic open: 10am-12pm, 1:30pm-3:30pm, & 5:30pm-7:30pm", "Services": "Basic Medical Needs" }, "geometry": { "type": "Point", "coordinates": [ -64.839053251999985, 46.117419107000046 ] } },
{ "type": "Feature", "properties": { "OBJECTID": 9, "Name": "Mountain Road After Hours Clinic", "Phone": "(506) 388-9355", "Address": "1789 Mountain Road, Moncton (Jean-Coutu)", "Hours": "Monday-Thursday: 1pm-4pm, 6pm-9pm, Friday, Weekends, Holidays 1pm-4pm", "Services": "Basic Medical Needs" }, "geometry": { "type": "Point", "coordinates": [ -64.846123879999936, 46.121621363000031 ] } },
{ "type": "Feature", "properties": { "OBJECTID": 10, "Name": "Main Street Family Medical Clinic", "Phone": "(506) 854-8805", "Address": "165 Main Street, Moncton (Superstore)", "Hours": "Monday-Friday: 10am-12pm, 2pm-5pm, 6pm-9pm. Weekends and Holidays 1pm-4pm", "Services": "Basic Medical Needs" }, "geometry": { "type": "Point", "coordinates": [ -64.768052524999973, 46.093344598000044 ] } },
{ "type": "Feature", "properties": { "OBJECTID": 11, "Name": "Salvus Clinic ", "Phone": "(506) 384-7283", "Address": "22 Church Street, Unit T190, Moncton ", "Hours": "Monday-Thursday: 9am-4pm, Closed 12pm-1pm for lunch, Friday: 9am-12pm", "Services": "Primary Health Care to " }, "geometry": { "type": "Point", "coordinates": [ -64.77899122599996, 46.088967943000057 ] } },
{ "type": "Feature", "properties": { "OBJECTID": 12, "Name": "Riverview After Hours Clinic (Shoppers)", "Phone": "(506)387-7778", "Address": null, "Hours": "Mon - Fri, 6 pm-8 pm, Weekends and Holidays, 1 pm-3 pm", "Services": "Basic Medical Needs" }, "geometry": { "type": "Point", "coordinates": [ -64.806390610999983, 46.062730975000079 ] } },
{ "type": "Feature", "properties": { "OBJECTID": 13, "Name": "Coverdale Medical Clinic (Jean Coutu)", "Phone": null, "Address": "438 Coverdale Road, Riverview NB", "Hours": "Mon - Thurs, 4 pm-full, Fri 3:30pm - Full Weekends 10:30am - Full", "Services": "Basic Medical Needs" }, "geometry": { "type": "Point", "coordinates": [ -64.801777026999957, 46.063768314000072 ] } }
]
}
