{
"type": "FeatureCollection",
"name": "Pharmacies",
"crs": { "type": "name", "properties": { "name": "urn:ogc:def:crs:OGC:1.3:CRS84" } },
"features": [
{ "type": "Feature", "properties": { "FID": 1, "Name": "Bioscript Pharmacy", "Type": "Community Pharmacy", "Manager": "Andrea Walsh", "Address": "585 Mapleton Road Suite 202", "Phone": "(506) 204-7581" }, "geometry": { "type": "Point", "coordinates": [ -64.829947437999977, 46.124949480000055 ] } },
{ "type": "Feature", "properties": { "FID": 2, "Name": "Cameron Street Clinic", "Type": "Community Pharmacy", "Manager": "Kimberley Olscamp", "Address": "107 Cameron Street P.O. Box 792", "Phone": "(506) 858-0287" }, "geometry": { "type": "Point", "coordinates": [ -64.788494137999976, 46.088539592000075 ] } },
{ "type": "Feature", "properties": { "FID": 3, "Name": "Costco Pharmacy", "Type": "Community Pharmacy", "Manager": "Colin Enman", "Address": "140 Granite Drive, Moncton NB", "Phone": "Phone: (506) 317-0433" }, "geometry": { "type": "Point", "coordinates": [ -64.778399150999974, 46.129302644000063 ] } },
{ "type": "Feature", "properties": { "FID": 4, "Name": "CSC Atlantic Regional Pharmacy", "Type": "Institutional Pharmacy", "Manager": "Charline Cormier", "Address": "859 Main Street, Moncton NB", "Phone": "(506) 851-6386" }, "geometry": { "type": "Point", "coordinates": [ -64.780015618999983, 46.088137155000027 ] } },
{ "type": "Feature", "properties": { "FID": 5, "Name": "Ford's Family Pharmacy & Wellness Centre", "Type": "Community Pharmacy", "Manager": "Peter R. Ford", "Address": "544 St. George Blvd, Moncton NB", "Phone": "(506) 853-0830" }, "geometry": { "type": "Point", "coordinates": [ -64.797771839999939, 46.08750225600005 ] } },
{ "type": "Feature", "properties": { "FID": 6, "Name": "Healthconnect Pharmacy", "Type": "Community Pharmacy", "Manager": "Suellen Dunn", "Address": "10 Desbrisay Avenue, Unit 2, Moncton NB", "Phone": "(506) 867-9854" }, "geometry": { "type": "Point", "coordinates": [ -64.870987525999965, 46.095930975000044 ] } },
{ "type": "Feature", "properties": { "FID": 7, "Name": "Innomar Pharmacy Inc.", "Type": "Community Pharmacy", "Manager": "Crystal Parker", "Address": "100 Arden Street, Suite 309, Moncton NB", "Phone": "(506) 860-3428" }, "geometry": { "type": "Point", "coordinates": [ -64.806226317999972, 46.105931897000062 ] } },
{ "type": "Feature", "properties": { "FID": 8, "Name": "Jean Coutu Pharmacy", "Type": "Community Pharmacy", "Manager": "Monte Steeves", "Address": "1789 Mountain Road North, Moncton NB", "Phone": "(506) 387-9001" }, "geometry": { "type": "Point", "coordinates": [ -64.790318117999959, 46.089268226000058 ] } },
{ "type": "Feature", "properties": { "FID": 9, "Name": "Lawton's Drugs", "Type": "Community Pharmacy", "Manager": "Stephanie Estey", "Address": "565 Elmwood Drive, Moncton NB", "Phone": "(506) 386-3408" }, "geometry": { "type": "Point", "coordinates": [ -64.770591559999957, 46.122632365000072 ] } },
{ "type": "Feature", "properties": { "FID": 10, "Name": "Lawtons Drugs # 141", "Type": "Community Pharmacy", "Manager": "Stephanie Estey", "Address": "800 Mountain Road Suite 101, Moncton NB", "Phone": "(506) 386-3408" }, "geometry": { "type": "Point", "coordinates": [ -64.806746247999968, 46.099236369000039 ] } },
{ "type": "Feature", "properties": { "FID": 11, "Name": "Lawtons Drugs # 147", "Type": "Community Pharmacy", "Manager": "Rebecca Auffrey", "Address": "40 Mapleton Road, Moncton NB", "Phone": "(506) 857-9919" }, "geometry": { "type": "Point", "coordinates": [ -64.823053091999952, 46.107445162000033 ] } },
{ "type": "Feature", "properties": { "FID": 12, "Name": "Loblaw Pharmacy # 326", "Type": "Community Pharmacy", "Manager": "James Swetnam", "Address": "89 Trinity Drive, Moncton NB", "Phone": "(506) 383-4955" }, "geometry": { "type": "Point", "coordinates": [ -64.832481289999976, 46.118400867000048 ] } },
{ "type": "Feature", "properties": { "FID": 13, "Name": "\r\nLoblaw Pharmacy", "Type": "Community Pharmacy", "Manager": null, "Address": "165 Main Street, Moncton NB", "Phone": "(506) 852-2069" }, "geometry": { "type": "Point", "coordinates": [ -64.768574029999968, 46.093814273000078 ] } },
{ "type": "Feature", "properties": { "FID": 14, "Name": "Mapleton Pharmacy", "Type": "Community Pharmacy", "Manager": "Bradley Steeves", "Address": "500 Mapleton Road Suite 120, Moncton NB", "Phone": "(506) 855-2210" }, "geometry": { "type": "Point", "coordinates": [ -64.829534051999985, 46.12066346000006 ] } },
{ "type": "Feature", "properties": { "FID": 15, "Name": "McKesson Specialty Prescription Services", "Type": "Community Pharmacy", "Manager": "Kristian Jensen-Ouellette", "Address": "290 Frenette Ave, Moncton NB", "Phone": "(506) 777-1240" }, "geometry": { "type": "Point", "coordinates": [ -64.726711216999945, 46.13594807700008 ] } },
{ "type": "Feature", "properties": { "FID": 16, "Name": "Medicine Shoppe Pharmacy # 294", "Type": "Community Pharmacy", "Manager": "Georgina Hubbard", "Address": "1685 Main Street, Moncton NB", "Phone": "(506) 854-2010" }, "geometry": { "type": "Point", "coordinates": [ -64.796809577999966, 46.079518527000062 ] } },
{ "type": "Feature", "properties": { "FID": 17, "Name": "Pharmacie - Hopital Dr. Georges-L. Dumont", "Type": "Institutional Pharmacy", "Manager": "Melanie Cote", "Address": "330 Avenue Uiversite, Moncton NB", "Phone": "(506) 862-4200" }, "geometry": { "type": "Point", "coordinates": [ -64.787171106999949, 46.098065686000041 ] } },
{ "type": "Feature", "properties": { "FID": 18, "Name": "Pharmacy - The Moncton Hospital", "Type": "Institutional Pharmacy", "Manager": "Natalie Branch", "Address": "135 Macbeath Avenue, Moncton NB", "Phone": null }, "geometry": { "type": "Point", "coordinates": [ -64.80564891399996, 46.104804093000041 ] } },
{ "type": "Feature", "properties": { "FID": 19, "Name": "Phoenix Center ", "Type": "Community Pharmacy", "Manager": null, "Address": "353 High Street, Moncton NB", "Phone": "(506) 854-4673" }, "geometry": { "type": "Point", "coordinates": [ -64.79338990499997, 46.095921409000027 ] } },
{ "type": "Feature", "properties": { "FID": 20, "Name": "Shoppers Drug Mart # 182", "Type": "Community Pharmacy", "Manager": "Nicholas Steylen", "Address": "45 Vaughan Harvey Blvd. , Moncton NB", "Phone": "(506) 857-8702" }, "geometry": { "type": "Point", "coordinates": [ -64.788504404999969, 46.082569541000055 ] } },
{ "type": "Feature", "properties": { "FID": 21, "Name": "Shoppers Drug Mart # 588", "Type": "Community Pharmacy", "Manager": "Trevor Bourque", "Address": "350 St. George Street , Moncton NB", "Phone": "(506) 857-6330" }, "geometry": { "type": "Point", "coordinates": [ -64.786780953999937, 46.090073026000027 ] } },
{ "type": "Feature", "properties": { "FID": 22, "Name": "Shoppers Drug Mart # 593", "Type": "Community Pharmacy", "Manager": "Cynthia Jayne Gillam", "Address": " 1633 Mountain Road, Moncton NB", "Phone": "(506) 858-0055" }, "geometry": { "type": "Point", "coordinates": [ -64.838935219999939, 46.117189116000077 ] } },
{ "type": "Feature", "properties": { "FID": 23, "Name": "Shoppers Drug Mart # 184", "Type": "Community Pharmacy", "Manager": "Nicholas Steylen", "Address": " 860 Mountain Road PO Box 25066, Moncton NB", "Phone": "(506) 857-9700" }, "geometry": { "type": "Point", "coordinates": [ -64.811329046999958, 46.100382240000044 ] } },
{ "type": "Feature", "properties": { "FID": 24, "Name": "Shoppers Drug Mart # 590 ", "Type": "Community Pharmacy", "Manager": "Deirdre Kyle", "Address": "320 Elmwood Drive , Moncton NB", "Phone": "(506) 383-8303" }, "geometry": { "type": "Point", "coordinates": [ -64.774424311999951, 46.113265203000026 ] } },
{ "type": "Feature", "properties": { "FID": 25, "Name": "Shoppers Drug Mart # 2011", "Type": "Community Pharmacy", "Manager": "Timothy Dunn", "Address": "681 Mountain Road , Moncton NB", "Phone": "(506) 382-8615" }, "geometry": { "type": "Point", "coordinates": [ -64.802980283999943, 46.099805150000066 ] } },
{ "type": "Feature", "properties": { "FID": 26, "Name": "Sobeys Elmwood #783", "Type": "Community Pharmacy", "Manager": "Shannon MacKinnon", "Address": "77 Filles De Jesus Avenue , Moncton NB", "Phone": "(506) 855-6925" }, "geometry": { "type": "Point", "coordinates": [ -64.768110361999959, 46.122567709000066 ] } },
{ "type": "Feature", "properties": { "FID": 27, "Name": null, "Type": "Community Pharmacy", "Manager": " Cory Morris", "Address": " 1380 Mountain Road, Moncton NB", "Phone": "(506) 854-7727" }, "geometry": { "type": "Point", "coordinates": [ -64.832157683999981, 46.109316131000071 ] } },
{ "type": "Feature", "properties": { "FID": 28, "Name": "Sobeys Pharmacy ", "Type": "Community Pharmacy", "Manager": "Kassandra Campbell", "Address": "55 Vaughan Harvey Boulevard, Moncton NB", "Phone": "(506) 855-0253" }, "geometry": { "type": "Point", "coordinates": [ -64.787771762999967, 46.084472489000063 ] } },
{ "type": "Feature", "properties": { "FID": 29, "Name": "Staples Drugs", "Type": "Community Pharmacy", "Manager": "John Staples", "Address": "321 St George Street , Moncton NB", "Phone": "(506) 857-4150" }, "geometry": { "type": "Point", "coordinates": [ -64.786728958999959, 46.090513064000049 ] } },
{ "type": "Feature", "properties": { "FID": 30, "Name": "The Medicine Shoppe # 174 ", "Type": "Community Pharmacy", "Manager": "Alida Rautenbach", "Address": "90 Mapleton Road , Moncton NB", "Phone": "(506) 869-5221" }, "geometry": { "type": "Point", "coordinates": [ -64.824631089999968, 46.108809078000036 ] } },
{ "type": "Feature", "properties": { "FID": 31, "Name": "The Medicine Shoppe # 219", "Type": "Community Pharmacy", "Manager": "Natasha King", "Address": "960 St. George Blvd , Moncton NB", "Phone": "(506) 852-8082" }, "geometry": { "type": "Point", "coordinates": [ -64.821258051999962, 46.082426866000048 ] } },
{ "type": "Feature", "properties": { "FID": 32, "Name": "The Medicine Shoppe Pharmacy", "Type": "Community Pharmacy", "Manager": "Tammy Davis-Gallant", "Address": "120 Shediac Road , Moncton NB", "Phone": "(506) 858-6161" }, "geometry": { "type": "Point", "coordinates": [ -64.762122358999932, 46.103011882000033 ] } },
{ "type": "Feature", "properties": { "FID": 33, "Name": "Wal-Mart Pharmacy", "Type": "Community Pharmacy", "Manager": "Nicole Lidstone", "Address": "25 Plaza Boulevard, Moncton NB", "Phone": "(506) 853-7664" }, "geometry": { "type": "Point", "coordinates": [ -64.829112325999972, 46.114053836000039 ] } },
{ "type": "Feature", "properties": { "FID": 34, "Name": "Dieppe Guardian 556615", "Type": "Community Pharmacy", "Manager": "Nicole Barkhouse", "Address": "185 Acadie Avenue, Dieppe NB", "Phone": "(506) 384-6343" }, "geometry": { "type": "Point", "coordinates": [ -64.742287064999971, 46.09181974300003 ] } },
{ "type": "Feature", "properties": { "FID": 35, "Name": "Express Scripts Canada Pharmacy", "Type": "Community Pharmacy", "Manager": "Alan Strashok", "Address": " 1040 Champlain Street, Dieppe NB", "Phone": "(888) 204-4876" }, "geometry": { "type": "Point", "coordinates": [ -64.706459807999977, 46.10350840600006 ] } },
{ "type": "Feature", "properties": { "FID": 36, "Name": "Familiprix Dieppe ", "Type": "Community Pharmacy", "Manager": "Nicole Williams", "Address": "318 rue Amirault , Dieppe NB", "Phone": "506) 830-2555" }, "geometry": { "type": "Point", "coordinates": [ -64.732643037999935, 46.084822172000031 ] } },
{ "type": "Feature", "properties": { "FID": 37, "Name": "Jean Coutu #337", "Type": "Community Pharmacy", "Manager": "Erin Kierstead", "Address": "600 Blvd Dieppe , Dieppe NB", "Phone": "(506) 854-7474" }, "geometry": { "type": "Point", "coordinates": [ -64.699804707999988, 46.097597006000058 ] } },
{ "type": "Feature", "properties": { "FID": 38, "Name": "Jean Coutu Pharmacy", "Type": "Community Pharmacy", "Manager": "Dennis Abud", "Address": "123 Champlain Street , Dieppe NB", "Phone": "(506) 859-1990" }, "geometry": { "type": "Point", "coordinates": [ -64.752682267999944, 46.094904936000034 ] } },
{ "type": "Feature", "properties": { "FID": 39, "Name": "Shoppers Drug Mart # 181", "Type": "Community Pharmacy", "Manager": "Keith Bernard", "Address": "477 Paul Street , Dieppe NB", "Phone": "(506) 857-0820" }, "geometry": { "type": "Point", "coordinates": [ -64.759524347999957, 46.096349369000052 ] } },
{ "type": "Feature", "properties": { "FID": 40, "Name": "Shoppers Drug Mart 2005", "Type": "Community Pharmacy", "Manager": "Sylvie Despr√©s", "Address": "18 Champlain St , Dieppe NB", "Phone": "(506) 389-1680" }, "geometry": { "type": "Point", "coordinates": [ -64.758580880999943, 46.09276639400008 ] } },
{ "type": "Feature", "properties": { "FID": 41, "Name": "Sobeys Pharmacy #602 ", "Type": "Community Pharmacy", "Manager": "Yackoub Khalil", "Address": "477 Paul Street, Dieppe NB", "Phone": "(506) 857-8019" }, "geometry": { "type": "Point", "coordinates": [ -64.762982074999968, 46.095356712000068 ] } },
{ "type": "Feature", "properties": { "FID": 42, "Name": "Wal-Mart Pharmacy", "Type": "Community Pharmacy", "Manager": "Joshua Sharpe", "Address": "477 Paul Street, Dieppe NB", "Phone": "(506) 855-6011" }, "geometry": { "type": "Point", "coordinates": [ -64.760862956999972, 46.09725831600008 ] } },
{ "type": "Feature", "properties": { "FID": 43, "Name": "Ford's Pharmacy\/Jean Coutu Pharmacy", "Type": "Community Pharmacy", "Manager": "David Wadden", "Address": "438 Coverdale Road, Dieppe NB", "Phone": "(506) 853-0825" }, "geometry": { "type": "Point", "coordinates": [ -64.801759833999938, 46.063865683000074 ] } },
{ "type": "Feature", "properties": { "FID": 44, "Name": "Loblaw Pharmacy # 361", "Type": "Community Pharmacy", "Manager": "Jenna MacLellan", "Address": "425 Coverdale Road, Dieppe NB", "Phone": "(506) 387-5085" }, "geometry": { "type": "Point", "coordinates": [ -64.801177377999977, 46.065128169000047 ] } },
{ "type": "Feature", "properties": { "FID": 45, "Name": "Riverview Guardian Pharmacy", "Type": "Community Pharmacy", "Manager": "Jonathan Walsh", "Address": "645 Pinewood Road, Dieppe NB", "Phone": "(506) 386-2111" }, "geometry": { "type": "Point", "coordinates": [ -64.789980741999955, 46.052068095000038 ] } },
{ "type": "Feature", "properties": { "FID": 46, "Name": "Shoppers Drug Mart # 185", "Type": "Community Pharmacy", "Manager": "Stephen Kelloway", "Address": "500 Coverdale Road, Dieppe NB", "Phone": "(506) 857-6380" }, "geometry": { "type": "Point", "coordinates": [ -64.806448580999984, 46.062728869000068 ] } },
{ "type": "Feature", "properties": { "FID": 47, "Name": "Sobeys Pharmacy # 736", "Type": "Community Pharmacy", "Manager": "Candice Langille", "Address": "1160 Findlay Boulevard, Dieppe NB", "Phone": null }, "geometry": { "type": "Point", "coordinates": [ -64.794562672999973, 46.049329980000039 ] } }
]
}
