{
"type": "FeatureCollection",
"name": "Healthcare_Facilities",
"crs": { "type": "name", "properties": { "name": "urn:ogc:def:crs:OGC:1.3:CRS84" } },
"features": [
{ "type": "Feature", "properties": { "OBJECTID": 648, "TYPE": 5, "NAME": "North Whitby Medical Centre", "ADDRESS": "3975 Garden St", "TOWN": "Whitby", "MUNICIPALITY": "Whitby", "POSTAL_CODE": "L1H 7K5", "PHONE": "905-430-2400", "COMMENTS": " ", "WEBSITE": null, "INTERSECTION": null, "HOURS": null, "PROGRAMS": null, "SEASONAL": null, "GlobalID": "{D787F996-C04E-488B-AA7A-80EA1A46B3D0}" }, "geometry": { "type": "Point", "coordinates": [ -78.947265477482702, 43.917255890969116 ] } },
{ "type": "Feature", "properties": { "OBJECTID": 650, "TYPE": 5, "NAME": "Grandview Children's Centre", "ADDRESS": "451 Paxton St", "TOWN": "Port Perry", "MUNICIPALITY": "Scugog", "POSTAL_CODE": "L9L 1L9", "PHONE": "905-985-7321 x5568", "COMMENTS": " ", "WEBSITE": null, "INTERSECTION": null, "HOURS": null, "PROGRAMS": null, "SEASONAL": null, "GlobalID": "{33B6A20E-7939-4A33-B216-7CAD57992FC3}" }, "geometry": { "type": "Point", "coordinates": [ -78.954856787133934, 44.105182209310918 ] } },
{ "type": "Feature", "properties": { "OBJECTID": 652, "TYPE": 5, "NAME": "Oshawa Clinic Centre for Sleep Medicine", "ADDRESS": "13 Charles St", "TOWN": "Oshawa", "MUNICIPALITY": "Oshawa", "POSTAL_CODE": "L1H 4X5", "PHONE": "905-721-4052", "COMMENTS": " ", "WEBSITE": null, "INTERSECTION": null, "HOURS": null, "PROGRAMS": null, "SEASONAL": null, "GlobalID": "{D79C1300-5157-4E28-81DD-B7BA77A68A83}" }, "geometry": { "type": "Point", "coordinates": [ -78.858531838667389, 43.89819029210495 ] } },
{ "type": "Feature", "properties": { "OBJECTID": 654, "TYPE": 5, "NAME": "Provax Travel and Immunization Clinic", "ADDRESS": "604 Taunton Rd W", "TOWN": "Oshawa", "MUNICIPALITY": "Oshawa", "POSTAL_CODE": "L1H 7K4", "PHONE": "877-977-6829", "COMMENTS": " ", "WEBSITE": null, "INTERSECTION": null, "HOURS": null, "PROGRAMS": null, "SEASONAL": null, "GlobalID": "{6AAF05B1-ECFF-4BE3-A2B9-83E12C3BC4D1}" }, "geometry": { "type": "Point", "coordinates": [ -78.898967867860094, 43.927963044159114 ] } },
{ "type": "Feature", "properties": { "OBJECTID": 656, "TYPE": 5, "NAME": "Oshawa Clinic Foot Care Centre", "ADDRESS": "111 King St E", "TOWN": "Oshawa", "MUNICIPALITY": "Oshawa", "POSTAL_CODE": "L1H 1B8", "PHONE": "905-721-3567", "COMMENTS": " ", "WEBSITE": null, "INTERSECTION": null, "HOURS": null, "PROGRAMS": null, "SEASONAL": null, "GlobalID": "{34C86AD7-DE80-48B9-943E-B43EA2DCA5F5}" }, "geometry": { "type": "Point", "coordinates": [ -78.859586144701666, 43.898086481528217 ] } },
{ "type": "Feature", "properties": { "OBJECTID": 657, "TYPE": 5, "NAME": "Baywood After Hours Medical Centre", "ADDRESS": "75 Bayly St W, Unit 5", "TOWN": "Ajax", "MUNICIPALITY": "Ajax", "POSTAL_CODE": "L1S 7K7", "PHONE": "905-428-6495", "COMMENTS": " ", "WEBSITE": null, "INTERSECTION": null, "HOURS": null, "PROGRAMS": null, "SEASONAL": null, "GlobalID": "{044CFC80-69E0-4D8B-8ADC-845B95EB5AEE}" }, "geometry": { "type": "Point", "coordinates": [ -79.021216628823268, 43.842812669687596 ] } },
{ "type": "Feature", "properties": { "OBJECTID": 658, "TYPE": 5, "NAME": "Lakeridge Health Oshawa Eating Disorders Clinic", "ADDRESS": "850 King St W", "TOWN": "Oshawa", "MUNICIPALITY": "Oshawa", "POSTAL_CODE": "L1G 4W4", "PHONE": "905-576-8711 x4622", "COMMENTS": " ", "WEBSITE": null, "INTERSECTION": null, "HOURS": null, "PROGRAMS": null, "SEASONAL": null, "GlobalID": "{E197FA93-2565-4015-B881-A56EE65D8F14}" }, "geometry": { "type": "Point", "coordinates": [ -78.895139961513095, 43.891627410509642 ] } },
{ "type": "Feature", "properties": { "OBJECTID": 660, "TYPE": 5, "NAME": "King Street Medical Clinic", "ADDRESS": "600 King St E Unit 17", "TOWN": "Oshawa", "MUNICIPALITY": "Oshawa", "POSTAL_CODE": "L1H 1G6", "PHONE": "905-432-1017", "COMMENTS": " ", "WEBSITE": null, "INTERSECTION": null, "HOURS": null, "PROGRAMS": null, "SEASONAL": null, "GlobalID": "{E676422A-70B7-49DB-B693-FE5B4CF55345}" }, "geometry": { "type": "Point", "coordinates": [ -78.841459529499105, 43.90347398079318 ] } },
{ "type": "Feature", "properties": { "OBJECTID": 661, "TYPE": 5, "NAME": "Oshawa Phychological & Counselling Services", "ADDRESS": "117 King St E", "TOWN": "Oshawa", "MUNICIPALITY": "Oshawa", "POSTAL_CODE": "L1H 1B8", "PHONE": "905-721-7723", "COMMENTS": " ", "WEBSITE": null, "INTERSECTION": null, "HOURS": null, "PROGRAMS": null, "SEASONAL": null, "GlobalID": "{76B81B4F-19BF-4672-B9B4-81E6777DCDB7}" }, "geometry": { "type": "Point", "coordinates": [ -78.859133055279884, 43.898397071497079 ] } },
{ "type": "Feature", "properties": { "OBJECTID": 664, "TYPE": 5, "NAME": "Lakeridge Health Regional Evaluation Centre", "ADDRESS": "1000 Simcoe St N", "TOWN": "Oshawa", "MUNICIPALITY": "Oshawa", "POSTAL_CODE": "L1G 4W4", "PHONE": "905-433-4350", "COMMENTS": "Location Changed to 223 Brock St N", "WEBSITE": null, "INTERSECTION": null, "HOURS": null, "PROGRAMS": null, "SEASONAL": null, "GlobalID": "{587A747D-6A7E-42B8-BB46-5271B74E36B0}" }, "geometry": { "type": "Point", "coordinates": [ -78.875858563945926, 43.924013208084709 ] } },
{ "type": "Feature", "properties": { "OBJECTID": 665, "TYPE": 5, "NAME": "Lakeridge Health Base Hospital", "ADDRESS": "115 Simcoe St S", "TOWN": "Oshawa", "MUNICIPALITY": "Oshawa", "POSTAL_CODE": "L1G 4W4", "PHONE": "905-433-4350 x4370", "COMMENTS": " ", "WEBSITE": null, "INTERSECTION": null, "HOURS": null, "PROGRAMS": null, "SEASONAL": null, "GlobalID": "{7473E7A6-6300-49AA-92C5-AEE0A70DE698}" }, "geometry": { "type": "Point", "coordinates": [ -78.861772577336126, 43.8946691174676 ] } },
{ "type": "Feature", "properties": { "OBJECTID": 669, "TYPE": 5, "NAME": "Port Perry Imaging", "ADDRESS": "462 Paxton St", "TOWN": "Port Perry", "MUNICIPALITY": "Scugog", "POSTAL_CODE": "L9L 1L9", "PHONE": "905-985-9727", "COMMENTS": " ", "WEBSITE": null, "INTERSECTION": null, "HOURS": null, "PROGRAMS": null, "SEASONAL": null, "GlobalID": "{D1BFAE54-6642-4D9F-8CAB-DF778B75DC3E}" }, "geometry": { "type": "Point", "coordinates": [ -78.95389107315313, 44.10413756972536 ] } },
{ "type": "Feature", "properties": { "OBJECTID": 670, "TYPE": 5, "NAME": "Bowmanville Urgent Care Clinic (After Hours Clinic)", "ADDRESS": "222 King St E", "TOWN": "Bowmanville", "MUNICIPALITY": "Clarington", "POSTAL_CODE": "L1C 1P6", "PHONE": "905-623-6458", "COMMENTS": " ", "WEBSITE": null, "INTERSECTION": null, "HOURS": null, "PROGRAMS": null, "SEASONAL": null, "GlobalID": "{54DFD37D-D647-4212-BE7E-91775E9C3403}" }, "geometry": { "type": "Point", "coordinates": [ -78.6769769336872, 43.911608705508307 ] } },
{ "type": "Feature", "properties": { "OBJECTID": 672, "TYPE": 5, "NAME": "The Airport Dental Centre", "ADDRESS": "1290 Keith Ross Ct", "TOWN": "Oshawa", "MUNICIPALITY": "Oshawa", "POSTAL_CODE": "L1H 7K4", "PHONE": "905-434-5486", "COMMENTS": " ", "WEBSITE": null, "INTERSECTION": null, "HOURS": null, "PROGRAMS": null, "SEASONAL": null, "GlobalID": "{CBD38729-E640-4D2A-AB3E-2284211606C2}" }, "geometry": { "type": "Point", "coordinates": [ -78.902192333934195, 43.927195286388518 ] } },
{ "type": "Feature", "properties": { "OBJECTID": 673, "TYPE": 5, "NAME": "Lakeridge Health Outpatient Services", "ADDRESS": "58 Rossland Rd W", "TOWN": "Oshawa", "MUNICIPALITY": "Oshawa", "POSTAL_CODE": "L1G 2V5", "PHONE": "905-576-8711 x4355", "COMMENTS": "Rehabilitation", "WEBSITE": null, "INTERSECTION": null, "HOURS": null, "PROGRAMS": null, "SEASONAL": null, "GlobalID": "{169D6783-777A-4761-986F-22CA8EF1A934}" }, "geometry": { "type": "Point", "coordinates": [ -78.873824943903756, 43.914870029619635 ] } },
{ "type": "Feature", "properties": { "OBJECTID": 674, "TYPE": 5, "NAME": "Lakeridge Health Oshawa Mental Health Outpatient Services", "ADDRESS": "850 King St W", "TOWN": "Oshawa", "MUNICIPALITY": "Oshawa", "POSTAL_CODE": "L1G 4W4", "PHONE": "905-576-8711 x4144", "COMMENTS": " ", "WEBSITE": null, "INTERSECTION": null, "HOURS": null, "PROGRAMS": null, "SEASONAL": null, "GlobalID": "{B1744143-91E1-4112-AEC2-9F7C7BFBB6E0}" }, "geometry": { "type": "Point", "coordinates": [ -78.894943191936605, 43.891163141478387 ] } },
{ "type": "Feature", "properties": { "OBJECTID": 675, "TYPE": 5, "NAME": "North Oshawa Medical Centre", "ADDRESS": "1400 Ritson Rd N", "TOWN": "Oshawa", "MUNICIPALITY": "Oshawa", "POSTAL_CODE": "L1G 7W4", "PHONE": "905-433-5026", "COMMENTS": " ", "WEBSITE": null, "INTERSECTION": null, "HOURS": null, "PROGRAMS": null, "SEASONAL": null, "GlobalID": "{B8C28B58-6193-4281-92E9-8DF28C2FD6BB}" }, "geometry": { "type": "Point", "coordinates": [ -78.870311254434483, 43.937206192206972 ] } },
{ "type": "Feature", "properties": { "OBJECTID": 676, "TYPE": 5, "NAME": "Hands on Health Care Massage Therapy", "ADDRESS": "617 Brock St S", "TOWN": "Whitby", "MUNICIPALITY": "Whitby", "POSTAL_CODE": "L1N 4L1", "PHONE": "905-666-1363", "COMMENTS": " ", "WEBSITE": null, "INTERSECTION": null, "HOURS": null, "PROGRAMS": null, "SEASONAL": null, "GlobalID": "{220FCD52-9EB4-4071-B834-153DEE805677}" }, "geometry": { "type": "Point", "coordinates": [ -78.939597695509732, 43.874595609354657 ] } },
{ "type": "Feature", "properties": { "OBJECTID": 677, "TYPE": 5, "NAME": "The Youth Centre - Pickering", "ADDRESS": "655 Shepard Ave", "TOWN": "Pickering", "MUNICIPALITY": "Pickering", "POSTAL_CODE": "L1V 1G2", "PHONE": "905-428-1212", "COMMENTS": "Dunbarton HS", "WEBSITE": null, "INTERSECTION": null, "HOURS": null, "PROGRAMS": null, "SEASONAL": null, "GlobalID": "{86E07B04-DDEB-4F1A-96E1-A8F983051D10}" }, "geometry": { "type": "Point", "coordinates": [ -79.119892837095179, 43.822337486961871 ] } },
{ "type": "Feature", "properties": { "OBJECTID": 678, "TYPE": 5, "NAME": "Family Care Medical Centre", "ADDRESS": "3050 Garden St, Unit 104", "TOWN": "Whitby", "MUNICIPALITY": "Whitby", "POSTAL_CODE": "L1R 2G7", "PHONE": "905-430-5305", "COMMENTS": " ", "WEBSITE": null, "INTERSECTION": null, "HOURS": null, "PROGRAMS": null, "SEASONAL": null, "GlobalID": "{86939C17-D49A-4F04-826F-D2F8BE4689BF}" }, "geometry": { "type": "Point", "coordinates": [ -78.941638925138747, 43.900130464560299 ] } },
{ "type": "Feature", "properties": { "OBJECTID": 686, "TYPE": 5, "NAME": "Durham Radiology Associates X-Ray and Ultrasound", "ADDRESS": "95 Bayly St W, Unit 101", "TOWN": "Ajax", "MUNICIPALITY": "Ajax", "POSTAL_CODE": "L1S 7K8", "PHONE": "905-428-0444", "COMMENTS": " ", "WEBSITE": null, "INTERSECTION": null, "HOURS": null, "PROGRAMS": null, "SEASONAL": null, "GlobalID": "{3A45218E-8757-4586-ABA5-B0F2528C605C}" }, "geometry": { "type": "Point", "coordinates": [ -79.021394156144453, 43.842169299737435 ] } },
{ "type": "Feature", "properties": { "OBJECTID": 688, "TYPE": 6, "NAME": "Markham Stouffville Hospital Uxbridge Site", "ADDRESS": "4 Campbell Dr, Box 5003", "TOWN": "Uxbridge", "MUNICIPALITY": "Uxbridge", "POSTAL_CODE": "L9P 1S4", "PHONE": "905-852-9771", "COMMENTS": " ", "WEBSITE": null, "INTERSECTION": null, "HOURS": null, "PROGRAMS": null, "SEASONAL": null, "GlobalID": "{50C47C37-C6D4-4E39-A0D2-5237F8E49650}" }, "geometry": { "type": "Point", "coordinates": [ -79.127434330587192, 44.102917710269011 ] } },
{ "type": "Feature", "properties": { "OBJECTID": 689, "TYPE": 5, "NAME": "Doctors Office Wellness Centre", "ADDRESS": "1801 Dundas St E", "TOWN": "Whitby", "MUNICIPALITY": "Whitby", "POSTAL_CODE": "L1N 7C5", "PHONE": "905-436-6868", "COMMENTS": " ", "WEBSITE": null, "INTERSECTION": null, "HOURS": null, "PROGRAMS": null, "SEASONAL": null, "GlobalID": "{AE19E125-D3AC-4AB0-B6AA-E221586A10A8}" }, "geometry": { "type": "Point", "coordinates": [ -78.903294341529261, 43.888128186968046 ] } },
{ "type": "Feature", "properties": { "OBJECTID": 690, "TYPE": 5, "NAME": "Lakeridge Health Pinewood, Ajax", "ADDRESS": "95 Bayly St W, Suite 406", "TOWN": "Ajax", "MUNICIPALITY": "Ajax", "POSTAL_CODE": "L1S 7K8", "PHONE": "905-683-5950", "COMMENTS": "Addiction Support Services", "WEBSITE": null, "INTERSECTION": null, "HOURS": null, "PROGRAMS": null, "SEASONAL": null, "GlobalID": "{395582EF-7A6D-4837-896B-64632B0DEA07}" }, "geometry": { "type": "Point", "coordinates": [ -79.021636923696718, 43.842108084491962 ] } },
{ "type": "Feature", "properties": { "OBJECTID": 692, "TYPE": 5, "NAME": "The Doctor's Office", "ADDRESS": "80 Thickson Rd S", "TOWN": "Whitby", "MUNICIPALITY": "Whitby", "POSTAL_CODE": "L1N 7T2", "PHONE": "905-668-6448", "COMMENTS": "aka - the-MCI Medical Clinics Inc", "WEBSITE": null, "INTERSECTION": null, "HOURS": null, "PROGRAMS": null, "SEASONAL": null, "GlobalID": "{170969FA-7249-4BCE-AE93-9A68AFF571D3}" }, "geometry": { "type": "Point", "coordinates": [ -78.913189688018335, 43.883169071227201 ] } },
{ "type": "Feature", "properties": { "OBJECTID": 694, "TYPE": 6, "NAME": "Lakeridge Health Ajax Pickering Hospital", "ADDRESS": "580 Harwood Av S", "TOWN": "Ajax", "MUNICIPALITY": "Ajax", "POSTAL_CODE": "L1S 2J4", "PHONE": "905-683-2320", "COMMENTS": " ", "WEBSITE": null, "INTERSECTION": null, "HOURS": null, "PROGRAMS": null, "SEASONAL": null, "GlobalID": "{5622278E-CAC1-4FD0-8414-0A4979E51603}" }, "geometry": { "type": "Point", "coordinates": [ -79.016887060620348, 43.83719885071158 ] } },
{ "type": "Feature", "properties": { "OBJECTID": 701, "TYPE": 5, "NAME": "Oshawa Clinic Physiotherapy", "ADDRESS": "29 Charles St", "TOWN": "Oshawa", "MUNICIPALITY": "Oshawa", "POSTAL_CODE": "L1H 4X5", "PHONE": "905-721-4300", "COMMENTS": " ", "WEBSITE": null, "INTERSECTION": null, "HOURS": null, "PROGRAMS": null, "SEASONAL": null, "GlobalID": "{7131BF0C-5709-4890-94FF-5BA27F8487A9}" }, "geometry": { "type": "Point", "coordinates": [ -78.858346388239568, 43.897873324972792 ] } },
{ "type": "Feature", "properties": { "OBJECTID": 702, "TYPE": 5, "NAME": "Whitby Medical Walk-in Clinic", "ADDRESS": "3910 Brock St N, Unit 4", "TOWN": "Whitby", "MUNICIPALITY": "Whitby", "POSTAL_CODE": "L1R 3E1", "PHONE": "905-444-9493", "COMMENTS": "Special interest in children", "WEBSITE": null, "INTERSECTION": null, "HOURS": null, "PROGRAMS": null, "SEASONAL": null, "GlobalID": "{E94CD2AD-7BB8-446C-8E92-8186FD2D606A}" }, "geometry": { "type": "Point", "coordinates": [ -78.958253534519699, 43.914186765968964 ] } },
{ "type": "Feature", "properties": { "OBJECTID": 703, "TYPE": 5, "NAME": "Grandview Children's Centre", "ADDRESS": "570 Westney Rd S", "TOWN": "Ajax", "MUNICIPALITY": "Ajax", "POSTAL_CODE": "L1S 6V5", "PHONE": "905-619-6551", "COMMENTS": "aka - Grandview West", "WEBSITE": null, "INTERSECTION": null, "HOURS": null, "PROGRAMS": null, "SEASONAL": null, "GlobalID": "{1CC148D9-62EA-4968-AE29-3EB9D6FB3D34}" }, "geometry": { "type": "Point", "coordinates": [ -79.033136477036194, 43.829363467077314 ] } },
{ "type": "Feature", "properties": { "OBJECTID": 704, "TYPE": 5, "NAME": "Kinder Clinic Children's Urgent Care", "ADDRESS": "146 Simcoe St N", "TOWN": "Oshawa", "MUNICIPALITY": "Oshawa", "POSTAL_CODE": "L1G 4S7", "PHONE": "905-720-2757", "COMMENTS": " ", "WEBSITE": null, "INTERSECTION": null, "HOURS": null, "PROGRAMS": null, "SEASONAL": null, "GlobalID": "{028581CF-984F-4826-A621-CB77A5FFA738}" }, "geometry": { "type": "Point", "coordinates": [ -78.865659720243855, 43.90143507900526 ] } },
{ "type": "Feature", "properties": { "OBJECTID": 705, "TYPE": 5, "NAME": "Brooklin Medical Centre", "ADDRESS": "5959 Anderson St, Unit 1A", "TOWN": "Brooklin", "MUNICIPALITY": "Whitby", "POSTAL_CODE": "L1M 2E9", "PHONE": "905-655-3321", "COMMENTS": " ", "WEBSITE": null, "INTERSECTION": null, "HOURS": null, "PROGRAMS": null, "SEASONAL": null, "GlobalID": "{D73DBBE4-9C46-4C82-9598-E09FE90AF848}" }, "geometry": { "type": "Point", "coordinates": [ -78.946600766505171, 43.956342291099858 ] } },
{ "type": "Feature", "properties": { "OBJECTID": 706, "TYPE": 6, "NAME": "Lakeridge Health Port Perry", "ADDRESS": "451 Paxton St, Box 960", "TOWN": "Port Perry", "MUNICIPALITY": "Scugog", "POSTAL_CODE": "L9L 1L9", "PHONE": "905-985-7321", "COMMENTS": " ", "WEBSITE": null, "INTERSECTION": null, "HOURS": null, "PROGRAMS": null, "SEASONAL": null, "GlobalID": "{A5EF92F3-10ED-4FE1-8B44-6FBD80DF59FC}" }, "geometry": { "type": "Point", "coordinates": [ -78.954279643874216, 44.105363675542009 ] } },
{ "type": "Feature", "properties": { "OBJECTID": 715, "TYPE": 5, "NAME": "Lakeridge Health Wellness and Assessment Centre", "ADDRESS": "223 Brock St N", "TOWN": "Whitby", "MUNICIPALITY": "Whitby", "POSTAL_CODE": "L1M 4H6", "PHONE": "905-666-8033", "COMMENTS": "Assessment centre for motor vehicle accidents", "WEBSITE": null, "INTERSECTION": null, "HOURS": null, "PROGRAMS": null, "SEASONAL": null, "GlobalID": "{759067E1-84DC-4C47-8E22-715A255C4693}" }, "geometry": { "type": "Point", "coordinates": [ -78.942606310513852, 43.88259575705905 ] } },
{ "type": "Feature", "properties": { "OBJECTID": 719, "TYPE": 5, "NAME": "Lakeridge Health Pinewood, Port Perry", "ADDRESS": "180 Mary St", "TOWN": "Port Perry", "MUNICIPALITY": "Scugog", "POSTAL_CODE": "L9L 1C4", "PHONE": "905-985-4721", "COMMENTS": "Addiction Support Services", "WEBSITE": null, "INTERSECTION": null, "HOURS": null, "PROGRAMS": null, "SEASONAL": null, "GlobalID": "{FCE9EDE0-D696-412F-A5B7-86CD237EE876}" }, "geometry": { "type": "Point", "coordinates": [ -78.94262980608346, 44.103850620783177 ] } },
{ "type": "Feature", "properties": { "OBJECTID": 720, "TYPE": 5, "NAME": "Lakeridge Health Pinewood, Destiny Manor", "ADDRESS": "118 Cochrane St", "TOWN": "Whitby", "MUNICIPALITY": "Whitby", "POSTAL_CODE": "L1N 5H8", "PHONE": "905-668-1858", "COMMENTS": "Women's Residential and Day Treatment", "WEBSITE": null, "INTERSECTION": null, "HOURS": null, "PROGRAMS": null, "SEASONAL": null, "GlobalID": "{46BC6EAB-BDA9-4EF8-BFFC-0F81914481B8}" }, "geometry": { "type": "Point", "coordinates": [ -78.952581450392415, 43.878496239447394 ] } },
{ "type": "Feature", "properties": { "OBJECTID": 723, "TYPE": 5, "NAME": "Beaverton Thorah Health Centre", "ADDRESS": "468 Main Street East", "TOWN": "Beaverton", "MUNICIPALITY": "Brock", "POSTAL_CODE": "L0K1A0", "PHONE": null, "COMMENTS": null, "WEBSITE": null, "INTERSECTION": null, "HOURS": null, "PROGRAMS": null, "SEASONAL": null, "GlobalID": "{B89FC53C-4D30-4ECB-8470-4284B0255A31}" }, "geometry": { "type": "Point", "coordinates": [ -79.148723720635843, 44.433523209867708 ] } },
{ "type": "Feature", "properties": { "OBJECTID": 724, "TYPE": 5, "NAME": "Sunderland Medical Centre", "ADDRESS": "26 Church Street", "TOWN": "Sunderland", "MUNICIPALITY": "Brock", "POSTAL_CODE": "L0C1H0", "PHONE": null, "COMMENTS": null, "WEBSITE": null, "INTERSECTION": null, "HOURS": null, "PROGRAMS": null, "SEASONAL": null, "GlobalID": "{F8DDC022-42FE-42D7-B47C-C373887B6F17}" }, "geometry": { "type": "Point", "coordinates": [ -79.067421534237241, 44.260642060863098 ] } },
{ "type": "Feature", "properties": { "OBJECTID": 725, "TYPE": 5, "NAME": "Brock Community Health Centre", "ADDRESS": "64 Cameron Street East", "TOWN": "Cannington", "MUNICIPALITY": "Brock", "POSTAL_CODE": "L0E1E0", "PHONE": null, "COMMENTS": null, "WEBSITE": null, "INTERSECTION": null, "HOURS": null, "PROGRAMS": null, "SEASONAL": null, "GlobalID": "{60AB2246-53FB-4920-B1FE-904FAA8B4B62}" }, "geometry": { "type": "Point", "coordinates": [ -79.036032516795757, 44.35109825627061 ] } },
{ "type": "Feature", "properties": { "OBJECTID": 829, "TYPE": 5, "NAME": "South Ajax Family Doctors", "ADDRESS": "969 Westney Rd S, Unit 10", "TOWN": "Ajax", "MUNICIPALITY": "Ajax", "POSTAL_CODE": "L1S 3K7", "PHONE": "905-428-6311", "COMMENTS": " ", "WEBSITE": null, "INTERSECTION": null, "HOURS": null, "PROGRAMS": null, "SEASONAL": null, "GlobalID": "{74F815A8-45C5-4B4D-91DB-A3586CF1D338}" }, "geometry": { "type": "Point", "coordinates": [ -79.016077416849157, 43.831506535920035 ] } },
{ "type": "Feature", "properties": { "OBJECTID": 830, "TYPE": 5, "NAME": "Whitby Clinic", "ADDRESS": "200 Brock St N", "TOWN": "Whitby", "MUNICIPALITY": "Whitby", "POSTAL_CODE": "L1N 4H5", "PHONE": "905-668-3378", "COMMENTS": " ", "WEBSITE": null, "INTERSECTION": null, "HOURS": null, "PROGRAMS": null, "SEASONAL": null, "GlobalID": "{EDBD8560-FFCA-4ACA-A6A4-9FEDA35FEE14}" }, "geometry": { "type": "Point", "coordinates": [ -78.94319045868906, 43.881901350588919 ] } },
{ "type": "Feature", "properties": { "OBJECTID": 833, "TYPE": 5, "NAME": "Whites Road Medical Clinic", "ADDRESS": "1822 Whites Rd", "TOWN": "Pickering", "MUNICIPALITY": "Pickering", "POSTAL_CODE": "L1V 4M1", "PHONE": "905-831-8666", "COMMENTS": " ", "WEBSITE": null, "INTERSECTION": null, "HOURS": null, "PROGRAMS": null, "SEASONAL": null, "GlobalID": "{B2A8FEC4-E54F-48B6-A53A-D2D75CABF0D3}" }, "geometry": { "type": "Point", "coordinates": [ -79.122794325689867, 43.830540668909208 ] } },
{ "type": "Feature", "properties": { "OBJECTID": 839, "TYPE": 5, "NAME": "The Youth Centre - Ajax", "ADDRESS": "360 Bayly St, Unit #5", "TOWN": "Ajax", "MUNICIPALITY": "Ajax", "POSTAL_CODE": "L1S 1P1", "PHONE": "905-428-1212", "COMMENTS": " ", "WEBSITE": null, "INTERSECTION": null, "HOURS": null, "PROGRAMS": null, "SEASONAL": null, "GlobalID": "{2618568A-AC11-49A4-B737-EADCA1B076C8}" }, "geometry": { "type": "Point", "coordinates": [ -79.03224072810967, 43.841838744235893 ] } },
{ "type": "Feature", "properties": { "OBJECTID": 905, "TYPE": 5, "NAME": "Toronto Street Medical Centre", "ADDRESS": "29 Toronto St S", "TOWN": "Uxbridge", "MUNICIPALITY": "Uxbridge", "POSTAL_CODE": "L9P 1V9", "PHONE": "905-852-6101", "COMMENTS": " ", "WEBSITE": null, "INTERSECTION": null, "HOURS": null, "PROGRAMS": null, "SEASONAL": null, "GlobalID": "{ECBCB9EB-6D2C-417A-A66E-3C653515D038}" }, "geometry": { "type": "Point", "coordinates": [ -79.12247712677609, 44.107672773965753 ] } },
{ "type": "Feature", "properties": { "OBJECTID": 906, "TYPE": 5, "NAME": "Whitby Urgent Care", "ADDRESS": "220 Dundas St W", "TOWN": "Whitby", "MUNICIPALITY": "Whitby", "POSTAL_CODE": "L1N 8M7", "PHONE": "905-668-7899", "COMMENTS": " ", "WEBSITE": null, "INTERSECTION": null, "HOURS": null, "PROGRAMS": null, "SEASONAL": null, "GlobalID": "{C448885E-99A2-4CCB-930F-290A31DDF831}" }, "geometry": { "type": "Point", "coordinates": [ -78.944419904958878, 43.879616505459978 ] } },
{ "type": "Feature", "properties": { "OBJECTID": 907, "TYPE": 5, "NAME": "Pickering Medical Centre", "ADDRESS": "1885 Glenanna Rd", "TOWN": "Pickering", "MUNICIPALITY": "Pickering", "POSTAL_CODE": "L1V 6R6", "PHONE": "905-839-3883", "COMMENTS": " ", "WEBSITE": null, "INTERSECTION": null, "HOURS": null, "PROGRAMS": null, "SEASONAL": null, "GlobalID": "{9175213B-8292-4A8B-A219-19E6AEAB8490}" }, "geometry": { "type": "Point", "coordinates": [ -79.085497330748325, 43.838505632555794 ] } },
{ "type": "Feature", "properties": { "OBJECTID": 908, "TYPE": 5, "NAME": "Pickering Urgent Care Medi-Centre", "ADDRESS": "1450 Kingston Rd, Unit 6B", "TOWN": "Pickering", "MUNICIPALITY": "Pickering", "POSTAL_CODE": "L1V 1C1", "PHONE": "905-831-8333", "COMMENTS": " ", "WEBSITE": null, "INTERSECTION": null, "HOURS": null, "PROGRAMS": null, "SEASONAL": null, "GlobalID": "{4EE92BF5-42EE-4507-B5DF-47B82C9BAB61}" }, "geometry": { "type": "Point", "coordinates": [ -79.084008622664001, 43.84182202817302 ] } },
{ "type": "Feature", "properties": { "OBJECTID": 910, "TYPE": 5, "NAME": "The Children's Clinic", "ADDRESS": "33 Church St S", "TOWN": "Ajax", "MUNICIPALITY": "Ajax", "POSTAL_CODE": "L1S 6A6", "PHONE": "905-427-1445", "COMMENTS": " ", "WEBSITE": null, "INTERSECTION": null, "HOURS": null, "PROGRAMS": null, "SEASONAL": null, "GlobalID": "{F2D4B9B4-6303-49FD-86FB-836B55AB740A}" }, "geometry": { "type": "Point", "coordinates": [ -79.054586641801151, 43.853606378584459 ] } },
{ "type": "Feature", "properties": { "OBJECTID": 911, "TYPE": 5, "NAME": "Westney Heights Medical Centre", "ADDRESS": "15 Westney Rd N, Unit 2", "TOWN": "Ajax", "MUNICIPALITY": "Ajax", "POSTAL_CODE": "L1T 1P4", "PHONE": "905-428-8055", "COMMENTS": " ", "WEBSITE": null, "INTERSECTION": null, "HOURS": null, "PROGRAMS": null, "SEASONAL": null, "GlobalID": "{76FFEA37-6FB3-4EC8-B627-377068F4F397}" }, "geometry": { "type": "Point", "coordinates": [ -79.039932736694922, 43.859379840789558 ] } },
{ "type": "Feature", "properties": { "OBJECTID": 1165, "TYPE": 5, "NAME": "Lakeridge Health Pinewood, Bowmanville", "ADDRESS": "200 King St E, Suite 406", "TOWN": "Bowmanville", "MUNICIPALITY": "Clarington", "POSTAL_CODE": "L1C 1P3", "PHONE": "905-697-2747", "COMMENTS": "Addiction Support Services", "WEBSITE": null, "INTERSECTION": null, "HOURS": null, "PROGRAMS": null, "SEASONAL": null, "GlobalID": "{ECECE644-3257-4FB2-A624-6B22306F41CD}" }, "geometry": { "type": "Point", "coordinates": [ -78.67881049533456, 43.911030641033783 ] } },
{ "type": "Feature", "properties": { "OBJECTID": 1169, "TYPE": 6, "NAME": "Lakeridge Health Oshawa", "ADDRESS": "1 Hospital Ct", "TOWN": "Oshawa", "MUNICIPALITY": "Oshawa", "POSTAL_CODE": "L1G 2B9", "PHONE": "905-576-8711", "COMMENTS": " ", "WEBSITE": null, "INTERSECTION": null, "HOURS": null, "PROGRAMS": null, "SEASONAL": null, "GlobalID": "{07DDCDC7-7B65-4BE0-B9D1-F00B34330C1A}" }, "geometry": { "type": "Point", "coordinates": [ -78.869619556604334, 43.905462448045128 ] } },
{ "type": "Feature", "properties": { "OBJECTID": 1170, "TYPE": 6, "NAME": "Lakeridge Health Bowmanville", "ADDRESS": "47 Liberty St S", "TOWN": "Bowmanville", "MUNICIPALITY": "Clarington", "POSTAL_CODE": "L1C 2N4", "PHONE": "905-623-3331", "COMMENTS": " ", "WEBSITE": null, "INTERSECTION": null, "HOURS": null, "PROGRAMS": null, "SEASONAL": null, "GlobalID": "{B8712354-4331-4959-945B-3037D458F1B7}" }, "geometry": { "type": "Point", "coordinates": [ -78.67898861384549, 43.909062992732032 ] } },
{ "type": "Feature", "properties": { "OBJECTID": 1171, "TYPE": 6, "NAME": "Lakeridge Health Whitby", "ADDRESS": "300 Gordon St", "TOWN": "Whitby", "MUNICIPALITY": "Whitby", "POSTAL_CODE": "L1N 5T2", "PHONE": "905-668-6831", "COMMENTS": " ", "WEBSITE": null, "INTERSECTION": null, "HOURS": null, "PROGRAMS": null, "SEASONAL": null, "GlobalID": "{41A637B6-A8A6-4B2A-A27B-4A373408586D}" }, "geometry": { "type": "Point", "coordinates": [ -78.944681249834943, 43.856093027641819 ] } },
{ "type": "Feature", "properties": { "OBJECTID": 1172, "TYPE": 5, "NAME": "The Brooklin Natural Health Centre", "ADDRESS": "2 Princess St", "TOWN": "Brooklin", "MUNICIPALITY": "Whitby", "POSTAL_CODE": "L1M 1B1", "PHONE": "905-655-0752", "COMMENTS": " ", "WEBSITE": null, "INTERSECTION": null, "HOURS": null, "PROGRAMS": null, "SEASONAL": null, "GlobalID": "{F357A978-E061-4A33-8437-EE1B89AC52C9}" }, "geometry": { "type": "Point", "coordinates": [ -78.959322397567988, 43.954269603291692 ] } },
{ "type": "Feature", "properties": { "OBJECTID": 1205, "TYPE": 5, "NAME": "Dryden Medical Centre", "ADDRESS": "3455 Garrard Rd", "TOWN": "Whitby", "MUNICIPALITY": "Whitby", "POSTAL_CODE": "L1R 2J3", "PHONE": "905-571-4444", "COMMENTS": " ", "WEBSITE": null, "INTERSECTION": null, "HOURS": null, "PROGRAMS": null, "SEASONAL": null, "GlobalID": "{7494516D-4754-4404-8F6C-19AD12E2F6F5}" }, "geometry": { "type": "Point", "coordinates": [ -78.91441657941543, 43.916549643812409 ] } },
{ "type": "Feature", "properties": { "OBJECTID": 1206, "TYPE": 5, "NAME": "Oshawa East Urgent Care", "ADDRESS": "675 King St E", "TOWN": "Oshawa", "MUNICIPALITY": "Oshawa", "POSTAL_CODE": "L1H 1G4", "PHONE": "905-433-8011", "COMMENTS": " ", "WEBSITE": null, "INTERSECTION": null, "HOURS": null, "PROGRAMS": null, "SEASONAL": null, "GlobalID": "{49C19E69-504C-4942-AC49-6A97B7FC2961}" }, "geometry": { "type": "Point", "coordinates": [ -78.839033083783505, 43.902951216775236 ] } },
{ "type": "Feature", "properties": { "OBJECTID": 1208, "TYPE": 6, "NAME": "Ontario Shores Centre for Mental Health Sciences", "ADDRESS": "700 Gordon Street", "TOWN": "Whitby", "MUNICIPALITY": "Whitby", "POSTAL_CODE": "L1N 5S9", "PHONE": "905-668-5881", "COMMENTS": " ", "WEBSITE": null, "INTERSECTION": null, "HOURS": null, "PROGRAMS": null, "SEASONAL": null, "GlobalID": "{38789165-9FAA-4300-96B3-67EE1BB1F204}" }, "geometry": { "type": "Point", "coordinates": [ -78.945505777065023, 43.847867230858135 ] } },
{ "type": "Feature", "properties": { "OBJECTID": 1209, "TYPE": 5, "NAME": "Grandview Children's Centre", "ADDRESS": "600 Townline Rd S", "TOWN": "Oshawa", "MUNICIPALITY": "Oshawa", "POSTAL_CODE": "L1H 7K6", "PHONE": "905-728-1673", "COMMENTS": " ", "WEBSITE": null, "INTERSECTION": null, "HOURS": null, "PROGRAMS": null, "SEASONAL": null, "GlobalID": "{275DEE4B-26BC-44AB-960C-B1D7193EE2DC}" }, "geometry": { "type": "Point", "coordinates": [ -78.808073188296632, 43.891705017433509 ] } },
{ "type": "Feature", "properties": { "OBJECTID": 1210, "TYPE": 5, "NAME": "Oshawa Community Health Centre", "ADDRESS": "115 Grassmere Ave", "TOWN": "Oshawa", "MUNICIPALITY": "Oshawa", "POSTAL_CODE": "L1H 3X7", "PHONE": "905-723-0036", "COMMENTS": " ", "WEBSITE": null, "INTERSECTION": null, "HOURS": null, "PROGRAMS": null, "SEASONAL": null, "GlobalID": "{B54FF73E-5FF2-4B95-A5FD-167FFA9A619A}" }, "geometry": { "type": "Point", "coordinates": [ -78.845046109312847, 43.869507461790903 ] } },
{ "type": "Feature", "properties": { "OBJECTID": 1211, "TYPE": 5, "NAME": "Glazier Medical Centre", "ADDRESS": "11 Gibb St", "TOWN": "Oshawa", "MUNICIPALITY": "Oshawa", "POSTAL_CODE": "L1H 2J9", "PHONE": "905-579-1212", "COMMENTS": " ", "WEBSITE": null, "INTERSECTION": null, "HOURS": null, "PROGRAMS": null, "SEASONAL": null, "GlobalID": "{B4E577FA-ADBB-46C0-9A1A-8E4AC83B5FEC}" }, "geometry": { "type": "Point", "coordinates": [ -78.860768405908303, 43.889911513033667 ] } },
{ "type": "Feature", "properties": { "OBJECTID": 1213, "TYPE": 5, "NAME": "First Step Oshawa", "ADDRESS": "32 Simcoe St S", "TOWN": "Oshawa", "MUNICIPALITY": "Oshawa", "POSTAL_CODE": "L1H 4G2", "PHONE": "905-720-0506", "COMMENTS": " ", "WEBSITE": null, "INTERSECTION": null, "HOURS": null, "PROGRAMS": null, "SEASONAL": null, "GlobalID": "{D24D1BFE-9D31-4CE0-8F6D-F906FD09DDBD}" }, "geometry": { "type": "Point", "coordinates": [ -78.863562651795917, 43.89684143080472 ] } },
{ "type": "Feature", "properties": { "OBJECTID": 1214, "TYPE": 5, "NAME": "Courtice Health Centre", "ADDRESS": "1450 Highway 2", "TOWN": "Courtice", "MUNICIPALITY": "Clarington", "POSTAL_CODE": "L1E 3C3", "PHONE": "905-723-8551", "COMMENTS": " ", "WEBSITE": null, "INTERSECTION": null, "HOURS": null, "PROGRAMS": null, "SEASONAL": null, "GlobalID": "{06848FA4-9947-4FD0-999D-0C09544A9632}" }, "geometry": { "type": "Point", "coordinates": [ -78.807635151375891, 43.907406080232597 ] } },
{ "type": "Feature", "properties": { "OBJECTID": 1254, "TYPE": 5, "NAME": "Pinewood Centre Street", "ADDRESS": "300 Centre Street", "TOWN": "Oshawa", "MUNICIPALITY": "Oshawa", "POSTAL_CODE": "L1H 4B2", "PHONE": "905-697-2747", "COMMENTS": "Addiction Services", "WEBSITE": null, "INTERSECTION": null, "HOURS": null, "PROGRAMS": null, "SEASONAL": null, "GlobalID": "{71D1862B-B4DD-44BD-B1E5-0D6794A2DCE9}" }, "geometry": { "type": "Point", "coordinates": [ -78.862376407334978, 43.888866732887337 ] } },
{ "type": "Feature", "properties": { "OBJECTID": 1255, "TYPE": 5, "NAME": "Lakeridge Health, Early Psychosis Intervention", "ADDRESS": "1615 Dundas St. E, Lang Tower, Suite W214", "TOWN": "Whitby", "MUNICIPALITY": "Whitby", "POSTAL_CODE": "L1N 2L1", "PHONE": "905-576-8711 x. 6029", "COMMENTS": null, "WEBSITE": null, "INTERSECTION": null, "HOURS": null, "PROGRAMS": null, "SEASONAL": null, "GlobalID": "{2F222219-7179-4F15-B2DE-658927E5EB60}" }, "geometry": { "type": "Point", "coordinates": [ -78.910572690326774, 43.88526034401638 ] } },
{ "type": "Feature", "properties": { "OBJECTID": 1293, "TYPE": 5, "NAME": "Lakeridge Health Oshawa Child, Youth & Family Program", "ADDRESS": "850 King St W", "TOWN": "Oshawa", "MUNICIPALITY": "Oshawa", "POSTAL_CODE": "L1G 4W4", "PHONE": "905-576-8711 x345", "COMMENTS": "Old Address, moved to LH Oshawa on June 24, 2011", "WEBSITE": null, "INTERSECTION": null, "HOURS": null, "PROGRAMS": null, "SEASONAL": null, "GlobalID": "{6BDBF136-00C1-46DD-80EF-8AC71C7138B9}" }, "geometry": { "type": "Point", "coordinates": [ -78.894395769877676, 43.891942833427166 ] } },
{ "type": "Feature", "properties": { "OBJECTID": 1296, "TYPE": 10, "NAME": "John Howard Society of Durham Region", "ADDRESS": "136 Commerical Avenue", "TOWN": "Ajax\r\n", "MUNICIPALITY": "AJAX", "POSTAL_CODE": "L1S 2HS", "PHONE": "905-427-8165", "COMMENTS": null, "WEBSITE": "johnhoward.on.ca/durham", "INTERSECTION": null, "HOURS": null, "PROGRAMS": "Counselling, parenting support and addictions support", "SEASONAL": null, "GlobalID": "{7C43B6D5-668A-4184-837E-F1259AA670DF}" }, "geometry": { "type": "Point", "coordinates": [ -79.02326470928918, 43.848439874718139 ] } },
{ "type": "Feature", "properties": { "OBJECTID": 1297, "TYPE": 10, "NAME": "Catholic Family Services of Durham ", "ADDRESS": "250 Bayly St West, Unit 22", "TOWN": "Ajax", "MUNICIPALITY": "AJAX", "POSTAL_CODE": "L1S 3V4", "PHONE": "905-428-1984", "COMMENTS": null, "WEBSITE": "www.cfsdurham.com/english/Contact_us.html", "INTERSECTION": null, "HOURS": null, "PROGRAMS": "Counselling, education and programs", "SEASONAL": null, "GlobalID": "{A077041E-C234-47A9-B68F-24089AC4425E}" }, "geometry": { "type": "Point", "coordinates": [ -79.027416771319054, 43.843317609070731 ] } },
{ "type": "Feature", "properties": { "OBJECTID": 1298, "TYPE": 10, "NAME": "Kids Clinic ", "ADDRESS": "300 Rossland Rd East, Suite 301", "TOWN": "Ajax", "MUNICIPALITY": "AJAX", "POSTAL_CODE": "L1Z 0M1", "PHONE": "905-683-4440", "COMMENTS": null, "WEBSITE": "www.kidsclinic.ca/support_services/index.html ", "INTERSECTION": null, "HOURS": null, "PROGRAMS": "Behavioural problems and counselling support", "SEASONAL": null, "GlobalID": "{F0CC76E0-E37D-41CB-9FA3-A9B88C347F8B}" }, "geometry": { "type": "Point", "coordinates": [ -79.018439896420233, 43.882323332512833 ] } },
{ "type": "Feature", "properties": { "OBJECTID": 1299, "TYPE": 10, "NAME": "Family Services Durham", "ADDRESS": "339 Westney Rd South", "TOWN": "Ajax", "MUNICIPALITY": "AJAX", "POSTAL_CODE": "L1S 7J6", "PHONE": "905-683-3451", "COMMENTS": null, "WEBSITE": "www.durham.ca/social.asp?nr=/departments/social/family/counselling/core_counselling.htm&setFooter=/includes/family_couselFooter.inc", "INTERSECTION": null, "HOURS": null, "PROGRAMS": "Family, couple and individual counselling", "SEASONAL": null, "GlobalID": "{B40C626E-FDCA-49AF-B19B-F707CC6EAE41}" }, "geometry": { "type": "Point", "coordinates": [ -79.034088685652335, 43.838899257303481 ] } },
{ "type": "Feature", "properties": { "OBJECTID": 1300, "TYPE": 10, "NAME": "Carea Community Health Centre (Ajax)", "ADDRESS": "360 Bayly St West, Unit 5", "TOWN": "Ajax", "MUNICIPALITY": "AJAX", "POSTAL_CODE": "L1S 1P1", "PHONE": "905-428-1212", "COMMENTS": null, "WEBSITE": "www.ochc.ca", "INTERSECTION": null, "HOURS": null, "PROGRAMS": "Counselling and support", "SEASONAL": null, "GlobalID": "{AE4D17BB-2D24-4D2B-878C-1F62B587D794}" }, "geometry": { "type": "Point", "coordinates": [ -79.032190437092879, 43.841685500276043 ] } },
{ "type": "Feature", "properties": { "OBJECTID": 1301, "TYPE": 10, "NAME": "Durham Counselling Walk in Clinic ", "ADDRESS": "360 Bayly St West, Unit 5", "TOWN": "Ajax", "MUNICIPALITY": "AJAX", "POSTAL_CODE": "L1S 1P1", "PHONE": "905-428-1212 ext 269", "COMMENTS": null, "WEBSITE": "www.theyouthcentre.ca/resources/DCWICinfosheet.pdf", "INTERSECTION": null, "HOURS": null, "PROGRAMS": "Free single session counselling", "SEASONAL": null, "GlobalID": "{BB0D6B78-CB5D-4FFD-875F-024554102DD8}" }, "geometry": { "type": "Point", "coordinates": [ -79.032303810130287, 43.84199118208376 ] } },
{ "type": "Feature", "properties": { "OBJECTID": 1302, "TYPE": 10, "NAME": "Rouge Valley Health System Ajax Pickering Health Centre ", "ADDRESS": "580 Harwood Ave South", "TOWN": "Ajax", "MUNICIPALITY": "AJAX", "POSTAL_CODE": "L1S 2J4", "PHONE": "905-683-2320 ext 3523", "COMMENTS": null, "WEBSITE": "www.rougevalley.ca/mental-health", "INTERSECTION": null, "HOURS": null, "PROGRAMS": "Psychiatric emergency, assessment and support", "SEASONAL": null, "GlobalID": "{4ADCFAC0-5880-4AAF-AD98-6B2101EE2D96}" }, "geometry": { "type": "Point", "coordinates": [ -79.016801630178719, 43.836999200613 ] } },
{ "type": "Feature", "properties": { "OBJECTID": 1303, "TYPE": 10, "NAME": "Mental Health and Pinewood Centre of Lakeridge Health", "ADDRESS": "95 Bayly St West, Suite 406", "TOWN": "Ajax", "MUNICIPALITY": "AJAX", "POSTAL_CODE": "L1S 7K8", "PHONE": "905-683-5950", "COMMENTS": null, "WEBSITE": "www.lakeridgehealth.on.ca/en/ourservices/pinewood-addiction-services.asp", "INTERSECTION": null, "HOURS": null, "PROGRAMS": "Addictions counselling and treatment", "SEASONAL": null, "GlobalID": "{236C1FBD-91B4-4E33-834F-38ADBFAE6CD9}" }, "geometry": { "type": "Point", "coordinates": [ -79.021044923471848, 43.842245150297501 ] } },
{ "type": "Feature", "properties": { "OBJECTID": 1304, "TYPE": 10, "NAME": "John Howard Society of Durham Region", "ADDRESS": "132 Church St", "TOWN": "Bowmanville", "MUNICIPALITY": "CLARINGTON", "POSTAL_CODE": "L1C 1T5", "PHONE": "905-623-6814", "COMMENTS": null, "WEBSITE": "johnhoward.on.ca/durham", "INTERSECTION": null, "HOURS": null, "PROGRAMS": "Counselling, parenting support and addictions support", "SEASONAL": null, "GlobalID": "{B78160B3-462B-4426-B073-DE1936A4B93D}" }, "geometry": { "type": "Point", "coordinates": [ -78.687673719084813, 43.913186010261796 ] } },
{ "type": "Feature", "properties": { "OBJECTID": 1305, "TYPE": 10, "NAME": "Mental Health and Pinewood Centre of Lakeridge Health", "ADDRESS": "200 King St East, Suite 206", "TOWN": "Bowmanville", "MUNICIPALITY": "CLARINGTON", "POSTAL_CODE": "L1C 1P3", "PHONE": "905-697-2746", "COMMENTS": null, "WEBSITE": "www.lakeridgehealth.on.ca/en/ourservices/pinewood-addiction-services.asp", "INTERSECTION": null, "HOURS": null, "PROGRAMS": "Addictions counselling and treatment", "SEASONAL": null, "GlobalID": "{899AFB9D-14A6-4EAD-9177-46A504F34E6F}" }, "geometry": { "type": "Point", "coordinates": [ -78.678947823555205, 43.910997279849454 ] } },
{ "type": "Feature", "properties": { "OBJECTID": 1306, "TYPE": 10, "NAME": "Community Care Durham: COPE Mental Health Program", "ADDRESS": "2440 Hwy. 2, Unit 1", "TOWN": "Bowmanville", "MUNICIPALITY": "CLARINGTON", "POSTAL_CODE": "L1C 0K6", "PHONE": "905-623-4123", "COMMENTS": null, "WEBSITE": "www.communitycaredurham.on.ca/copeservices.html", "INTERSECTION": null, "HOURS": null, "PROGRAMS": "Support for adults with emotional or psychiatric concerns", "SEASONAL": null, "GlobalID": "{15165E31-F6B7-4E1A-B7FA-141D58AB7F05}" }, "geometry": { "type": "Point", "coordinates": [ -78.70370188439702, 43.911978344253178 ] } },
{ "type": "Feature", "properties": { "OBJECTID": 1307, "TYPE": 10, "NAME": "Lakeridge Health Bowmanville", "ADDRESS": "47 Liberty St South", "TOWN": "Bowmanville", "MUNICIPALITY": "CLARINGTON", "POSTAL_CODE": "L1C 2N4", "PHONE": "905-623-3331", "COMMENTS": null, "WEBSITE": "www.lakeridgehealth.on.ca/en/patientsandvisitors/gettingtous.asp", "INTERSECTION": null, "HOURS": null, "PROGRAMS": "Psychiatric emergency, assessment and support ", "SEASONAL": null, "GlobalID": "{4BBAAE04-0BC3-48FF-8168-74504B782A75}" }, "geometry": { "type": "Point", "coordinates": [ -78.678933779218681, 43.908876188499995 ] } },
{ "type": "Feature", "properties": { "OBJECTID": 1308, "TYPE": 10, "NAME": "Community Care Durham: COPE Mental Health Program ", "ADDRESS": "1 Cameron St East", "TOWN": "Cannington", "MUNICIPALITY": "BROCK", "POSTAL_CODE": "L0E 1E0", "PHONE": "705-432-3044", "COMMENTS": null, "WEBSITE": "www.communitycaredurham.on.ca/copeservices.html", "INTERSECTION": null, "HOURS": null, "PROGRAMS": "Support for adults with emotional or psychiatric concerns", "SEASONAL": null, "GlobalID": "{B375DA48-2BE8-41A7-A2BA-960FD43B8D5C}" }, "geometry": { "type": "Point", "coordinates": [ -79.038317288740586, 44.350102197689019 ] } },
{ "type": "Feature", "properties": { "OBJECTID": 1309, "TYPE": 10, "NAME": "Brock Community Health Centre", "ADDRESS": "64 Cameron St East", "TOWN": "Cannington", "MUNICIPALITY": "BROCK", "POSTAL_CODE": "L0E 1E0", "PHONE": "705-432-3388", "COMMENTS": null, "WEBSITE": "www.brockchc.ca/primary-health-care", "INTERSECTION": null, "HOURS": null, "PROGRAMS": "Mental health and addictions counselling, primary care ", "SEASONAL": null, "GlobalID": "{D1E95252-1DB6-4851-9293-15E8704EFAA3}" }, "geometry": { "type": "Point", "coordinates": [ -79.035988531690862, 44.350997101066497 ] } },
{ "type": "Feature", "properties": { "OBJECTID": 1310, "TYPE": 10, "NAME": "Lakeridge Health Oshawa", "ADDRESS": "1 Hospital Court", "TOWN": "Oshawa", "MUNICIPALITY": "OSHAWA", "POSTAL_CODE": "L1G 2B9", "PHONE": "905-576-8711 ext 4384", "COMMENTS": null, "WEBSITE": "www.lakeridgehealth.on.ca/en/ourservices/Adult-Mental-Health.asp", "INTERSECTION": null, "HOURS": null, "PROGRAMS": "Psychiatric emergency, assessment and support", "SEASONAL": null, "GlobalID": "{DCDBC21A-87EA-49EA-A385-AF8F039DF749}" }, "geometry": { "type": "Point", "coordinates": [ -78.869022782685434, 43.905231335564864 ] } },
{ "type": "Feature", "properties": { "OBJECTID": 1311, "TYPE": 10, "NAME": "Lakeridge Health Child, Youth, and Family Program ", "ADDRESS": "1 Hospital Court", "TOWN": "Oshawa", "MUNICIPALITY": "OSHAWA", "POSTAL_CODE": "L1G 2B9", "PHONE": "905-576-8711", "COMMENTS": null, "WEBSITE": "www.lakeridgehealth.on.ca/en/ourservices/childyouthandfamilyprogram.asp", "INTERSECTION": null, "HOURS": null, "PROGRAMS": "Psychiatric emergency, assessment and support for youth", "SEASONAL": null, "GlobalID": "{B9ADB13A-8E06-43F7-B60E-88F0C92EAD69}" }, "geometry": { "type": "Point", "coordinates": [ -78.868324114273491, 43.905420782002324 ] } },
{ "type": "Feature", "properties": { "OBJECTID": 1312, "TYPE": 10, "NAME": "Carea Community Health Centre (Oshawa) ", "ADDRESS": "115 Grassmere Ave", "TOWN": "Oshawa", "MUNICIPALITY": "OSHAWA", "POSTAL_CODE": "L1H 3X7", "PHONE": "905-723-0036", "COMMENTS": null, "WEBSITE": "www.ochc.ca", "INTERSECTION": null, "HOURS": null, "PROGRAMS": "Counselling and support", "SEASONAL": null, "GlobalID": "{C850256C-E060-41D5-93E1-B1FD47355162}" }, "geometry": { "type": "Point", "coordinates": [ -78.844910036235802, 43.869387883875262 ] } },
{ "type": "Feature", "properties": { "OBJECTID": 1313, "TYPE": 10, "NAME": "Catholic Family Services of Durham ", "ADDRESS": "115 Simcoe St South", "TOWN": "Oshawa", "MUNICIPALITY": "OSHAWA", "POSTAL_CODE": "L1H 4G7", "PHONE": "905-725-3513", "COMMENTS": null, "WEBSITE": "www.cfsdurham.com/english/Contact_us.html", "INTERSECTION": null, "HOURS": null, "PROGRAMS": "Counselling, education and programs", "SEASONAL": null, "GlobalID": "{5844D01D-9458-4D60-A7EA-EF7C77C3065E}" }, "geometry": { "type": "Point", "coordinates": [ -78.861977502963342, 43.894610255352681 ] } },
{ "type": "Feature", "properties": { "OBJECTID": 1314, "TYPE": 10, "NAME": "Frontenac Youth Services ", "ADDRESS": "1160 Simcoe St South", "TOWN": "Oshawa", "MUNICIPALITY": "OSHAWA", "POSTAL_CODE": "L1H 5L8", "PHONE": "905-579-1551 or 1-877-455-5527", "COMMENTS": null, "WEBSITE": "frontenacyouthservices.org", "INTERSECTION": null, "HOURS": null, "PROGRAMS": "Counselling and programs ", "SEASONAL": null, "GlobalID": "{E0BE3C68-1D1F-413A-AA4E-503246A2E424}" }, "geometry": { "type": "Point", "coordinates": [ -78.841252842464243, 43.871737010517251 ] } },
{ "type": "Feature", "properties": { "OBJECTID": 1315, "TYPE": 10, "NAME": "Boys and Girls Club of Durham (Northview Unit)", "ADDRESS": "150 Beatrice St East", "TOWN": "Oshawa", "MUNICIPALITY": "OSHAWA", "POSTAL_CODE": "L1H 7T6", "PHONE": "905-436-3311 ext 2871", "COMMENTS": null, "WEBSITE": "www.bgcdurham.com", "INTERSECTION": null, "HOURS": null, "PROGRAMS": "Youth support services ", "SEASONAL": null, "GlobalID": "{EA769895-E0E9-4123-B658-94887A2819A5}" }, "geometry": { "type": "Point", "coordinates": [ -78.870056993290575, 43.929735511392281 ] } },
{ "type": "Feature", "properties": { "OBJECTID": 1316, "TYPE": 10, "NAME": "Rose of Durham", "ADDRESS": "200 Bond St West", "TOWN": "Oshawa", "MUNICIPALITY": "OSHAWA", "POSTAL_CODE": "L1J 2L7", "PHONE": "905-432-3622", "COMMENTS": null, "WEBSITE": "www.roseofdurham.com", "INTERSECTION": null, "HOURS": null, "PROGRAMS": "Counselling and support for young parents ", "SEASONAL": null, "GlobalID": "{104C743C-7E6E-49E9-97FF-495EA0CB2D8D}" }, "geometry": { "type": "Point", "coordinates": [ -78.871525201837997, 43.897354979032002 ] } },
{ "type": "Feature", "properties": { "OBJECTID": 1317, "TYPE": 10, "NAME": "Durham College Campus Health Centre", "ADDRESS": "2000 Simcoe St North, CRWC Room G1030", "TOWN": "Oshawa", "MUNICIPALITY": "OSHAWA", "POSTAL_CODE": "L1H 7K4", "PHONE": "905-721-3037", "COMMENTS": null, "WEBSITE": "www.durhamcollege.ca/services/campus-services/health-and-medical/mental-health-services", "INTERSECTION": null, "HOURS": null, "PROGRAMS": "Support and counselling", "SEASONAL": null, "GlobalID": "{78E2DEF6-8DA3-41A1-B75D-391593D1169E}" }, "geometry": { "type": "Point", "coordinates": [ -78.89466431431687, 43.945825499340557 ] } },
{ "type": "Feature", "properties": { "OBJECTID": 1318, "TYPE": 10, "NAME": "Reflections Mental Health and Behavioral Services ", "ADDRESS": "286 King St West, Unit 302", "TOWN": "Oshawa", "MUNICIPALITY": "OSHAWA", "POSTAL_CODE": "L1J 2J9", "PHONE": "289-385-3322", "COMMENTS": null, "WEBSITE": "www.reflectionsmentalhealth.com", "INTERSECTION": null, "HOURS": null, "PROGRAMS": "Staffing support, respite care and behavioural services", "SEASONAL": null, "GlobalID": "{F0A3E1FE-20FA-4350-9F7F-3709A9633DCA}" }, "geometry": { "type": "Point", "coordinates": [ -78.874299628761477, 43.895435804285491 ] } },
{ "type": "Feature", "properties": { "OBJECTID": 1319, "TYPE": 10, "NAME": "Mental Health and Pinewood Centre of Lakeridge Health", "ADDRESS": "300 Centre St South", "TOWN": "Oshawa", "MUNICIPALITY": "OSHAWA", "POSTAL_CODE": "L1H 4B2", "PHONE": "905-723-8195 or 1-888-881-8878", "COMMENTS": null, "WEBSITE": "www.lakeridgehealth.on.ca/en/ourservices/pinewood-addiction-services.asp", "INTERSECTION": null, "HOURS": null, "PROGRAMS": "Addictions counselling and treatment", "SEASONAL": null, "GlobalID": "{40F81DBC-B4E4-4300-8815-CCC02892CD6D}" }, "geometry": { "type": "Point", "coordinates": [ -78.862616708122914, 43.888822830809488 ] } },
{ "type": "Feature", "properties": { "OBJECTID": 1320, "TYPE": 10, "NAME": "Mental Health and Pinewood Centre of Lakeridge Health", "ADDRESS": "419 King St West, Suite 125", "TOWN": "Oshawa", "MUNICIPALITY": "OSHAWA", "POSTAL_CODE": "L1J 2K5", "PHONE": "905-571-3344", "COMMENTS": null, "WEBSITE": "www.lakeridgehealth.on.ca/en/ourservices/pinewood-addiction-services.asp", "INTERSECTION": null, "HOURS": null, "PROGRAMS": "Addictions counselling and treatment", "SEASONAL": null, "GlobalID": "{38122635-C17F-4B93-8953-7A829A1F139D}" }, "geometry": { "type": "Point", "coordinates": [ -78.879209161212231, 43.890554697957754 ] } },
{ "type": "Feature", "properties": { "OBJECTID": 1321, "TYPE": 10, "NAME": "Boys and Girls Club of Durham (Eastview Unit)", "ADDRESS": "433 Eulalie Ave", "TOWN": "Oshawa", "MUNICIPALITY": "OSHAWA", "POSTAL_CODE": "L1H 2C6", "PHONE": "905-728-5121", "COMMENTS": null, "WEBSITE": "www.bgcdurham.com", "INTERSECTION": null, "HOURS": null, "PROGRAMS": "Youth support services ", "SEASONAL": null, "GlobalID": "{0D1DE158-F1E5-4654-A75C-CEFF685DD343}" }, "geometry": { "type": "Point", "coordinates": [ -78.845373103774705, 43.896181005827017 ] } },
{ "type": "Feature", "properties": { "OBJECTID": 1322, "TYPE": 10, "NAME": "Salvation Army Community and Family Services ", "ADDRESS": "45 King St East", "TOWN": "Oshawa", "MUNICIPALITY": "OSHAWA", "POSTAL_CODE": "L1H 8S5", "PHONE": "905-723-7422 ext 224", "COMMENTS": null, "WEBSITE": "www.oshawa-temple.org", "INTERSECTION": null, "HOURS": null, "PROGRAMS": "Therapy for individuals and families ", "SEASONAL": null, "GlobalID": "{7F931EA6-9E1D-42F4-83B2-4D6D3A060BAB}" }, "geometry": { "type": "Point", "coordinates": [ -78.861850721675509, 43.897731326063607 ] } },
{ "type": "Feature", "properties": { "OBJECTID": 1323, "TYPE": 10, "NAME": "Murray McKinnon Foundation", "ADDRESS": "52 Simcoe St South ", "TOWN": "Oshawa", "MUNICIPALITY": "OSHAWA", "POSTAL_CODE": "L1H 4G3", "PHONE": "905-571-4655", "COMMENTS": null, "WEBSITE": "www.murraymckinnon.ca", "INTERSECTION": null, "HOURS": null, "PROGRAMS": "Support, education and rehabilitation", "SEASONAL": null, "GlobalID": "{7751803F-00C1-4E40-8D5E-29E413D56B6F}" }, "geometry": { "type": "Point", "coordinates": [ -78.863372140533841, 43.896138589324217 ] } },
{ "type": "Feature", "properties": { "OBJECTID": 1324, "TYPE": 10, "NAME": "Canadian Mental Health Association of Durham ", "ADDRESS": "60 Bond St West", "TOWN": "Oshawa", "MUNICIPALITY": "OSHAWA", "POSTAL_CODE": "L1G 1A5", "PHONE": "905-436-8760", "COMMENTS": null, "WEBSITE": "www.cmhadurham.ca", "INTERSECTION": null, "HOURS": null, "PROGRAMS": "Treatment team, support services, and life skills training", "SEASONAL": null, "GlobalID": "{95D29ACA-2AB2-436F-B5CF-4F6AB527AF82}" }, "geometry": { "type": "Point", "coordinates": [ -78.866542884923376, 43.898217292752193 ] } },
{ "type": "Feature", "properties": { "OBJECTID": 1325, "TYPE": 10, "NAME": "John Howard Society of Durham Region", "ADDRESS": "75 Richmond St West", "TOWN": "Oshawa", "MUNICIPALITY": "OSHAWA", "POSTAL_CODE": "L1G 1E3", "PHONE": "905-579-8482", "COMMENTS": null, "WEBSITE": "johnhoward.on.ca/durham", "INTERSECTION": null, "HOURS": null, "PROGRAMS": "Counselling, parenting support and addictions support", "SEASONAL": null, "GlobalID": "{45CB4273-A1EE-41AF-8395-0C4258E064FA}" }, "geometry": { "type": "Point", "coordinates": [ -78.867038531819375, 43.898483437698211 ] } },
{ "type": "Feature", "properties": { "OBJECTID": 1326, "TYPE": 10, "NAME": "Community Care Durham: COPE Mental Health Program ", "ADDRESS": "1420 Bayly St, Unit 6", "TOWN": "Pickering", "MUNICIPALITY": "PICKERING", "POSTAL_CODE": "L1W 3R4", "PHONE": "905-837-0017 ext 229", "COMMENTS": null, "WEBSITE": "www.communitycaredurham.on.ca/copeservices.html", "INTERSECTION": null, "HOURS": null, "PROGRAMS": "Support for adults with emotional or psychiatric concerns", "SEASONAL": null, "GlobalID": "{71750B51-10D4-4146-BC13-DD5C01B3B527}" }, "geometry": { "type": "Point", "coordinates": [ -79.081348419338667, 43.831224021717546 ] } },
{ "type": "Feature", "properties": { "OBJECTID": 1327, "TYPE": 10, "NAME": "New Awakenings Wellness Centre", "ADDRESS": "10420 Russell Rd", "TOWN": "Port Perry", "MUNICIPALITY": "SCUGOG", "POSTAL_CODE": "L9L 1B3", "PHONE": "905-985-1039", "COMMENTS": null, "WEBSITE": "www.newawakenings.ca", "INTERSECTION": null, "HOURS": null, "PROGRAMS": "Addiction treatment and wellness centre ", "SEASONAL": null, "GlobalID": "{CB0F5AEA-8F52-4AE0-AA4C-E60C34E93C8F}" }, "geometry": { "type": "Point", "coordinates": [ -78.875345686116162, 44.047960052367266 ] } },
{ "type": "Feature", "properties": { "OBJECTID": 1328, "TYPE": 10, "NAME": "Community Care Durham: COPE Mental Health Program ", "ADDRESS": "16100 Old Simcoe Road", "TOWN": "Port Perry", "MUNICIPALITY": "SCUGOG", "POSTAL_CODE": "L9L 1P3", "PHONE": "905-985-8461 ext 225", "COMMENTS": null, "WEBSITE": "www.communitycaredurham.on.ca/copeservices.html", "INTERSECTION": null, "HOURS": null, "PROGRAMS": "Support for adults with emotional or psychiatric concerns", "SEASONAL": null, "GlobalID": "{0C837BC2-DCCD-42ED-B836-4C32E90CC96C}" }, "geometry": { "type": "Point", "coordinates": [ -78.957181948285722, 44.112084189719674 ] } },
{ "type": "Feature", "properties": { "OBJECTID": 1329, "TYPE": 10, "NAME": "Catholic Family Services of Durham ", "ADDRESS": "1710 Scugog Street", "TOWN": "Port Perry", "MUNICIPALITY": "SCUGOG", "POSTAL_CODE": "L9L 1E2", "PHONE": "905-985-4221", "COMMENTS": null, "WEBSITE": "www.cfsdurham.com/english/Contact_us.html", "INTERSECTION": null, "HOURS": null, "PROGRAMS": "Counselling, education and programs", "SEASONAL": null, "GlobalID": "{95894F4B-0E09-4E8D-9535-E70BFFF4EA78}" }, "geometry": { "type": "Point", "coordinates": [ -78.951845649410757, 44.098341593153521 ] } },
{ "type": "Feature", "properties": { "OBJECTID": 1330, "TYPE": 10, "NAME": "Mental Health and Pinewood Centre of Lakeridge Health", "ADDRESS": "180 Mary St", "TOWN": "Port Perry", "MUNICIPALITY": "SCUGOG", "POSTAL_CODE": "L9L 1C4", "PHONE": "905-985-4721", "COMMENTS": null, "WEBSITE": "www.lakeridgehealth.on.ca/en/ourservices/pinewood-addiction-services.asp", "INTERSECTION": null, "HOURS": null, "PROGRAMS": "Addictions counselling and treatment", "SEASONAL": null, "GlobalID": "{73E3112A-FA13-4B1B-8092-D47CEA311923}" }, "geometry": { "type": "Point", "coordinates": [ -78.94271822954083, 44.10390599228009 ] } },
{ "type": "Feature", "properties": { "OBJECTID": 1331, "TYPE": 10, "NAME": "Lakerige Health Port Perry", "ADDRESS": "451 Paxton St ", "TOWN": "Port Perry", "MUNICIPALITY": "SCUGOG", "POSTAL_CODE": "L1L 1L9", "PHONE": "905-985-7321", "COMMENTS": null, "WEBSITE": "www.lakeridgehealth.on.ca/en/patientsandvisitors/gettingtous.asp", "INTERSECTION": null, "HOURS": null, "PROGRAMS": "Psychiatric emergency, assessment and support ", "SEASONAL": null, "GlobalID": "{E9D6A6A6-7AE9-4D49-9669-C876B66EE879}" }, "geometry": { "type": "Point", "coordinates": [ -78.954609584357698, 44.10530971616501 ] } },
{ "type": "Feature", "properties": { "OBJECTID": 1332, "TYPE": 10, "NAME": "Markham Stouffville Hospital Uxbridge Site", "ADDRESS": "4 Campbell Drive", "TOWN": "Uxbridge", "MUNICIPALITY": "UXBRIDGE", "POSTAL_CODE": "L9P 1S4", "PHONE": "905-852-9771", "COMMENTS": null, "WEBSITE": "www.msh.on.ca", "INTERSECTION": null, "HOURS": null, "PROGRAMS": "Psychiatric emergency, assessment and support ", "SEASONAL": null, "GlobalID": "{A0778290-E41B-4362-9C33-EBE4C17AE1C0}" }, "geometry": { "type": "Point", "coordinates": [ -79.128038094295988, 44.102775968029547 ] } },
{ "type": "Feature", "properties": { "OBJECTID": 1333, "TYPE": 10, "NAME": "Community Care Durham: COPE Mental Health Program", "ADDRESS": "75 Marietta St, Unit 1", "TOWN": "Uxbridge", "MUNICIPALITY": "UXBRIDGE", "POSTAL_CODE": "L9P 1K7", "PHONE": "905-852-7445 ext 24", "COMMENTS": null, "WEBSITE": "www.communitycaredurham.on.ca/copeservices.html", "INTERSECTION": null, "HOURS": null, "PROGRAMS": "Support for adults with emotional or psychiatric concerns", "SEASONAL": null, "GlobalID": "{FC5D410B-5C9E-4B40-B793-60C0748883C8}" }, "geometry": { "type": "Point", "coordinates": [ -79.117499017877634, 44.107445255263876 ] } },
{ "type": "Feature", "properties": { "OBJECTID": 1334, "TYPE": 10, "NAME": "John Howard Society of Durham Region", "ADDRESS": "114 Dundas St East, Unit 200", "TOWN": "Whitby ", "MUNICIPALITY": "WHITBY", "POSTAL_CODE": "L1N 2H7", "PHONE": "905-666-8847", "COMMENTS": null, "WEBSITE": "johnhoward.on.ca/durham", "INTERSECTION": null, "HOURS": null, "PROGRAMS": "Counselling, parenting support and addictions support", "SEASONAL": null, "GlobalID": "{2D891DE5-A448-42A2-B90E-3464A1B04B34}" }, "geometry": { "type": "Point", "coordinates": [ -78.941068732399799, 43.880677634861321 ] } },
{ "type": "Feature", "properties": { "OBJECTID": 1335, "TYPE": 10, "NAME": "Alzheimer Society Durham Region", "ADDRESS": "1600 Champlain Ave, Suite 202", "TOWN": "Whitby ", "MUNICIPALITY": "WHITBY", "POSTAL_CODE": "L1N 9B2", "PHONE": "905-576-2567", "COMMENTS": null, "WEBSITE": "www.alzheimer.ca/en/durham", "INTERSECTION": null, "HOURS": null, "PROGRAMS": "Support", "SEASONAL": null, "GlobalID": "{D8A8B3C5-1A49-4D6C-8EBF-8AEAD0251E95}" }, "geometry": { "type": "Point", "coordinates": [ -78.904897232173596, 43.87345284216682 ] } },
{ "type": "Feature", "properties": { "OBJECTID": 1336, "TYPE": 10, "NAME": "Kinark Child and Family Services", "ADDRESS": "20 Sunray St, Suite 1", "TOWN": "Whitby ", "MUNICIPALITY": "WHITBY", "POSTAL_CODE": "L1N 8Y3", "PHONE": "905-668-2411 or 1-866-929-0061", "COMMENTS": null, "WEBSITE": "www.kinark.on.ca", "INTERSECTION": null, "HOURS": null, "PROGRAMS": "Services for children with mental health and behaviour problems, support for families", "SEASONAL": null, "GlobalID": "{1B4025EE-B3CB-4C2C-8D84-C9F840A9C48D}" }, "geometry": { "type": "Point", "coordinates": [ -78.914736528890259, 43.871566449249308 ] } },
{ "type": "Feature", "properties": { "OBJECTID": 1337, "TYPE": 10, "NAME": "Community Care Durham: COPE Mental Health Program (Whitby)", "ADDRESS": "20 Sunray St, Unit 5", "TOWN": "Whitby ", "MUNICIPALITY": "WHITBY", "POSTAL_CODE": "L1N 8Y3", "PHONE": "905-668-6223 ext 227", "COMMENTS": null, "WEBSITE": "www.communitycaredurham.on.ca/copeservices.html", "INTERSECTION": null, "HOURS": null, "PROGRAMS": "Support for adults with emotional or psychiatric concerns", "SEASONAL": null, "GlobalID": "{7B49F818-00DD-48B4-BCDA-115E4718633C}" }, "geometry": { "type": "Point", "coordinates": [ -78.914557204648148, 43.871609627148942 ] } },
{ "type": "Feature", "properties": { "OBJECTID": 1338, "TYPE": 10, "NAME": "Community Care Durham: COPE Mental Health Program (Oshawa)", "ADDRESS": "20 Sunray St, Unit 6", "TOWN": "Whitby ", "MUNICIPALITY": "WHITBY", "POSTAL_CODE": "L1N 8Y3", "PHONE": "905-666-0689", "COMMENTS": null, "WEBSITE": "www.communitycaredurham.on.ca/copeservices.html", "INTERSECTION": null, "HOURS": null, "PROGRAMS": "Support for adults with emotional or psychiatric concerns", "SEASONAL": null, "GlobalID": "{335FAE24-C970-41B5-AA72-574BA2381A70}" }, "geometry": { "type": "Point", "coordinates": [ -78.914358383032678, 43.871645303624035 ] } },
{ "type": "Feature", "properties": { "OBJECTID": 1339, "TYPE": 10, "NAME": "Durham Mental Health Services", "ADDRESS": "519 Brock St South", "TOWN": "Whitby ", "MUNICIPALITY": "WHITBY", "POSTAL_CODE": "L1N 4K8", "PHONE": "905-666-0831 or 1-855-888-3647", "COMMENTS": null, "WEBSITE": "dmhs.ca", "INTERSECTION": null, "HOURS": null, "PROGRAMS": "Counselling, supportive housing, education and programs", "SEASONAL": null, "GlobalID": "{95A3C7B3-A3EC-4EC0-B872-7050C62B5815}" }, "geometry": { "type": "Point", "coordinates": [ -78.939794761932262, 43.874966772788085 ] } },
{ "type": "Feature", "properties": { "OBJECTID": 1340, "TYPE": 10, "NAME": "Family Services Durham", "ADDRESS": "605 Rossland Rd East", "TOWN": "Whitby ", "MUNICIPALITY": "WHITBY", "POSTAL_CODE": "L1N 6A3", "PHONE": "905-666-6240", "COMMENTS": null, "WEBSITE": "www.durham.ca/social.asp?nr=/departments/social/family/counselling/core_counselling.htm&setFooter=/includes/family_couselFooter.inc", "INTERSECTION": null, "HOURS": null, "PROGRAMS": "Family, couple and individual counselling", "SEASONAL": null, "GlobalID": "{6B16E864-EF2B-4630-BA64-03B4DEA0361E}" }, "geometry": { "type": "Point", "coordinates": [ -78.940343490611653, 43.898642439607414 ] } },
{ "type": "Feature", "properties": { "OBJECTID": 1341, "TYPE": 10, "NAME": "Ontario Shores Centre for Mental Health Sciences", "ADDRESS": "700 Gordon Street", "TOWN": "Whitby ", "MUNICIPALITY": "WHITBY", "POSTAL_CODE": "L1N 5S9", "PHONE": "905-668-5881", "COMMENTS": null, "WEBSITE": "www.ontarioshores.ca", "INTERSECTION": null, "HOURS": null, "PROGRAMS": "Assessment, treatment and support", "SEASONAL": null, "GlobalID": "{6680095E-4CEA-46BF-9B46-9A54D80CD5E4}" }, "geometry": { "type": "Point", "coordinates": [ -78.94374082446231, 43.849123918367944 ] } }
]
}
