{
"type": "FeatureCollection",
"name": "Hospital",
"crs": { "type": "name", "properties": { "name": "urn:ogc:def:crs:OGC:1.3:CRS84" } },
"features": [
{ "type": "Feature", "properties": { "OBJECTID": 1, "CRE_DATE": null, "GEO_MODDATE": null, "ATT_MODDATE": "2016-07-22T00:00:00Z", "CAP_METHOD": null, "NAME": "Markham-Stouffville - Uxbridge Cottage Hospital", "ADDRESS": "4 Campbell Drive", "TOWN_NAME": "Uxbridge", "REGION": "Durham", "POST_CODE": "L9P 1S4", "PHONE_NO": "905-852-9771", "STATUS": "Existing" }, "geometry": { "type": "Point", "coordinates": [ -79.126673196883033, 44.102575459449604 ] } },
{ "type": "Feature", "properties": { "OBJECTID": 2, "CRE_DATE": null, "GEO_MODDATE": null, "ATT_MODDATE": null, "CAP_METHOD": null, "NAME": "Princess Margaret Hospital", "ADDRESS": "610 University Avenue", "TOWN_NAME": "Toronto", "REGION": "Toronto", "POST_CODE": "M5G 2M9", "PHONE_NO": "416-946-2000", "STATUS": "Existing" }, "geometry": { "type": "Point", "coordinates": [ -79.390286336434229, 43.6580808901927 ] } },
{ "type": "Feature", "properties": { "OBJECTID": 3, "CRE_DATE": null, "GEO_MODDATE": null, "ATT_MODDATE": null, "CAP_METHOD": null, "NAME": "Women's College Hospital", "ADDRESS": "76 Grenville Street", "TOWN_NAME": "Toronto", "REGION": "Toronto", "POST_CODE": "M5S 1B2", "PHONE_NO": "416-323-6400", "STATUS": "Existing" }, "geometry": { "type": "Point", "coordinates": [ -79.387509061509078, 43.661381636083235 ] } },
{ "type": "Feature", "properties": { "OBJECTID": 4, "CRE_DATE": null, "GEO_MODDATE": null, "ATT_MODDATE": null, "CAP_METHOD": null, "NAME": "The Hospital for Sick Children", "ADDRESS": "555 University Avenue", "TOWN_NAME": "Toronto", "REGION": "Toronto", "POST_CODE": "M5G 1X8", "PHONE_NO": "416-813-1500", "STATUS": "Existing" }, "geometry": { "type": "Point", "coordinates": [ -79.388902107608629, 43.656553774869572 ] } },
{ "type": "Feature", "properties": { "OBJECTID": 5, "CRE_DATE": null, "GEO_MODDATE": null, "ATT_MODDATE": null, "CAP_METHOD": null, "NAME": "Sunnybrook Health Science Centre", "ADDRESS": "2075 Bayview Avenue", "TOWN_NAME": "Toronto", "REGION": "Toronto", "POST_CODE": "M4N 3M5", "PHONE_NO": "416-480-6100", "STATUS": "Existing" }, "geometry": { "type": "Point", "coordinates": [ -79.37898904757769, 43.722731409878598 ] } },
{ "type": "Feature", "properties": { "OBJECTID": 6, "CRE_DATE": null, "GEO_MODDATE": null, "ATT_MODDATE": null, "CAP_METHOD": null, "NAME": "St. Michael's Hospital", "ADDRESS": "30 Bond Street", "TOWN_NAME": "Toronto", "REGION": "Toronto", "POST_CODE": "M5B 1W8", "PHONE_NO": "416-360-4000", "STATUS": "Existing" }, "geometry": { "type": "Point", "coordinates": [ -79.377794316734821, 43.653567265283669 ] } },
{ "type": "Feature", "properties": { "OBJECTID": 7, "CRE_DATE": null, "GEO_MODDATE": null, "ATT_MODDATE": "2020-07-29T00:00:00Z", "CAP_METHOD": "Website", "NAME": "Scarborough Health Network - Centenary Campus", "ADDRESS": "2867 Ellesmere Road", "TOWN_NAME": "Toronto", "REGION": "Toronto", "POST_CODE": "M1E 4B9", "PHONE_NO": "416-284-8131", "STATUS": "Existing" }, "geometry": { "type": "Point", "coordinates": [ -79.20584194583995, 43.782073996270583 ] } },
{ "type": "Feature", "properties": { "OBJECTID": 8, "CRE_DATE": null, "GEO_MODDATE": null, "ATT_MODDATE": "2020-07-29T00:00:00Z", "CAP_METHOD": "Website", "NAME": "Scarborough Health Network - General Campus", "ADDRESS": "3050 Lawrence Avenue East", "TOWN_NAME": "Toronto", "REGION": "Toronto", "POST_CODE": "M1P 2V5", "PHONE_NO": "416-438-2911", "STATUS": "Existing" }, "geometry": { "type": "Point", "coordinates": [ -79.246685109979595, 43.755543289857556 ] } },
{ "type": "Feature", "properties": { "OBJECTID": 9, "CRE_DATE": null, "GEO_MODDATE": null, "ATT_MODDATE": "2016-07-22T00:00:00Z", "CAP_METHOD": null, "NAME": "North York General Hospital - General Site", "ADDRESS": "4001 Leslie Street", "TOWN_NAME": "Toronto", "REGION": "Toronto", "POST_CODE": "M2K 1E1", "PHONE_NO": "416-756-6000", "STATUS": "Existing" }, "geometry": { "type": "Point", "coordinates": [ -79.364083197972519, 43.769745171203091 ] } },
{ "type": "Feature", "properties": { "OBJECTID": 10, "CRE_DATE": "2005-02-22T11:45:39Z", "GEO_MODDATE": "2010-07-07T00:00:00Z", "ATT_MODDATE": "2013-07-15T00:00:00Z", "CAP_METHOD": "Website", "NAME": "Mackenzie Health", "ADDRESS": "10 Trench Street", "TOWN_NAME": "Richmond Hill", "REGION": "York", "POST_CODE": "L4C 4Z3", "PHONE_NO": "905-883-1212", "STATUS": "Existing" }, "geometry": { "type": "Point", "coordinates": [ -79.45071041004276, 43.870377925394813 ] } },
{ "type": "Feature", "properties": { "OBJECTID": 11, "CRE_DATE": null, "GEO_MODDATE": null, "ATT_MODDATE": "2020-07-29T00:00:00Z", "CAP_METHOD": "Website", "NAME": "Lakeridge Health - Port Perry Hospital", "ADDRESS": "451 Paxton Street", "TOWN_NAME": "Port Perry", "REGION": "Durham", "POST_CODE": "L9L 1L9", "PHONE_NO": "905-985-7321", "STATUS": "Existing" }, "geometry": { "type": "Point", "coordinates": [ -78.954219434393892, 44.104953655571094 ] } },
{ "type": "Feature", "properties": { "OBJECTID": 12, "CRE_DATE": null, "GEO_MODDATE": null, "ATT_MODDATE": "2020-07-29T00:00:00Z", "CAP_METHOD": "Website", "NAME": "Georgian Bay General Hospital - Midland Site", "ADDRESS": "1112 St Andrews Drive", "TOWN_NAME": "Midland", "REGION": "Simcoe", "POST_CODE": "L4R 4P4", "PHONE_NO": "705-526-1300", "STATUS": "Existing" }, "geometry": { "type": "Point", "coordinates": [ -79.911185846232556, 44.742359608946458 ] } },
{ "type": "Feature", "properties": { "OBJECTID": 13, "CRE_DATE": "2005-02-22T11:45:39Z", "GEO_MODDATE": "2010-07-07T00:00:00Z", "ATT_MODDATE": "2005-02-22T11:45:39Z", "CAP_METHOD": "Migration2005", "NAME": "Markham-Stouffville Hospital", "ADDRESS": "381 Church Street", "TOWN_NAME": "Markham", "REGION": "York", "POST_CODE": "L3P 7P3", "PHONE_NO": "905-472-7000", "STATUS": "Existing" }, "geometry": { "type": "Point", "coordinates": [ -79.232221533755123, 43.88363386673732 ] } },
{ "type": "Feature", "properties": { "OBJECTID": 14, "CRE_DATE": null, "GEO_MODDATE": null, "ATT_MODDATE": null, "CAP_METHOD": null, "NAME": "Trillium Health Centre - Mississauga", "ADDRESS": "100 Queensway West", "TOWN_NAME": "Mississauga", "REGION": "Peel", "POST_CODE": "L5B 1B8", "PHONE_NO": "905-848-7100", "STATUS": "Existing" }, "geometry": { "type": "Point", "coordinates": [ -79.607689589997108, 43.572919356178446 ] } },
{ "type": "Feature", "properties": { "OBJECTID": 15, "CRE_DATE": null, "GEO_MODDATE": null, "ATT_MODDATE": "2020-07-29T00:00:00Z", "CAP_METHOD": "Website", "NAME": "Scarborough Health Network - Birchmount Campus", "ADDRESS": "3030 Birchmount Road", "TOWN_NAME": "Toronto", "REGION": "Toronto", "POST_CODE": "M1W 3W3", "PHONE_NO": "416-495-2400", "STATUS": "Existing" }, "geometry": { "type": "Point", "coordinates": [ -79.307881329080871, 43.800743994773725 ] } },
{ "type": "Feature", "properties": { "OBJECTID": 16, "CRE_DATE": null, "GEO_MODDATE": null, "ATT_MODDATE": "2020-07-29T00:00:00Z", "CAP_METHOD": null, "NAME": "Lakeridge Health - Bowmanville Hospital", "ADDRESS": "47 Liberty Street South", "TOWN_NAME": "Bowmanville", "REGION": "Durham", "POST_CODE": "L1C 2N4", "PHONE_NO": "905-623-3331", "STATUS": "Existing" }, "geometry": { "type": "Point", "coordinates": [ -78.679097902701798, 43.909045442252427 ] } },
{ "type": "Feature", "properties": { "OBJECTID": 17, "CRE_DATE": null, "GEO_MODDATE": null, "ATT_MODDATE": "2012-05-17T00:00:00Z", "CAP_METHOD": null, "NAME": "The Royal Victoria Regional Health Centre", "ADDRESS": "201 Georgian Drive", "TOWN_NAME": "Barrie", "REGION": "Simcoe", "POST_CODE": "L4M 6M2", "PHONE_NO": "705-728-9802", "STATUS": "Existing" }, "geometry": { "type": "Point", "coordinates": [ -79.681166252983985, 44.400301690695223 ] } },
{ "type": "Feature", "properties": { "OBJECTID": 18, "CRE_DATE": null, "GEO_MODDATE": null, "ATT_MODDATE": null, "CAP_METHOD": "Website", "NAME": "The Collingwood General and Marine Hospital", "ADDRESS": "459 Hume Street", "TOWN_NAME": "Collingwood", "REGION": "Simcoe", "POST_CODE": "L9Y 1W9", "PHONE_NO": "705-445-2550", "STATUS": "Existing" }, "geometry": { "type": "Point", "coordinates": [ -80.201619803150265, 44.49841839335398 ] } },
{ "type": "Feature", "properties": { "OBJECTID": 19, "CRE_DATE": "2005-02-22T11:45:39Z", "GEO_MODDATE": "2010-07-07T00:00:00Z", "ATT_MODDATE": "2005-02-22T11:45:39Z", "CAP_METHOD": "Migration2005", "NAME": "Southlake Regional Health Centre", "ADDRESS": "596 Davis Drive", "TOWN_NAME": "Newmarket", "REGION": "York", "POST_CODE": "L3Y 2P9", "PHONE_NO": "905-895-4521", "STATUS": "Existing" }, "geometry": { "type": "Point", "coordinates": [ -79.451620451157268, 44.060450672125128 ] } },
{ "type": "Feature", "properties": { "OBJECTID": 20, "CRE_DATE": null, "GEO_MODDATE": null, "ATT_MODDATE": null, "CAP_METHOD": null, "NAME": "Toronto General Hospital", "ADDRESS": "200 Elizabeth Street", "TOWN_NAME": "Toronto", "REGION": "Toronto", "POST_CODE": "M5G 2C4", "PHONE_NO": "416-340-3111", "STATUS": "Existing" }, "geometry": { "type": "Point", "coordinates": [ -79.387332768912913, 43.659248201184823 ] } },
{ "type": "Feature", "properties": { "OBJECTID": 21, "CRE_DATE": null, "GEO_MODDATE": null, "ATT_MODDATE": null, "CAP_METHOD": null, "NAME": "Toronto Western Hospital", "ADDRESS": "399 Bathurst Street", "TOWN_NAME": "Toronto", "REGION": "Toronto", "POST_CODE": "M5T 2S8", "PHONE_NO": "416-603-2581", "STATUS": "Existing" }, "geometry": { "type": "Point", "coordinates": [ -79.406441846828727, 43.654108339041727 ] } },
{ "type": "Feature", "properties": { "OBJECTID": 22, "CRE_DATE": null, "GEO_MODDATE": null, "ATT_MODDATE": null, "CAP_METHOD": null, "NAME": "St. Joseph's Health Centre", "ADDRESS": "30 The Queensway", "TOWN_NAME": "Toronto", "REGION": "Toronto", "POST_CODE": "M6R 1B5", "PHONE_NO": "416-530-6000", "STATUS": "Existing" }, "geometry": { "type": "Point", "coordinates": [ -79.449867818957244, 43.639301985669803 ] } },
{ "type": "Feature", "properties": { "OBJECTID": 23, "CRE_DATE": null, "GEO_MODDATE": null, "ATT_MODDATE": "2020-07-29T00:00:00Z", "CAP_METHOD": "Website", "NAME": "Lakeridge Health - Ajax Pickering Hospital", "ADDRESS": "580 Harwood Avenue South", "TOWN_NAME": "Ajax", "REGION": "Durham", "POST_CODE": "L1S 2J4", "PHONE_NO": "905-683-2320", "STATUS": "Existing" }, "geometry": { "type": "Point", "coordinates": [ -79.015902508507068, 43.836488176512098 ] } },
{ "type": "Feature", "properties": { "OBJECTID": 24, "CRE_DATE": null, "GEO_MODDATE": null, "ATT_MODDATE": "2015-07-29T00:00:00Z", "CAP_METHOD": "Website", "NAME": "Trillium Health Centre - Credit Valley Hospital", "ADDRESS": "2200 Eglinton Avenue West", "TOWN_NAME": "Mississauga", "REGION": "Peel", "POST_CODE": "L5M 2N1", "PHONE_NO": "905-813-2200", "STATUS": "Existing" }, "geometry": { "type": "Point", "coordinates": [ -79.703573866342069, 43.560580813814724 ] } },
{ "type": "Feature", "properties": { "OBJECTID": 25, "CRE_DATE": null, "GEO_MODDATE": null, "ATT_MODDATE": null, "CAP_METHOD": null, "NAME": "William Osler Health Centre - Etobicoke", "ADDRESS": "101 Humber College Boulevard", "TOWN_NAME": "Toronto", "REGION": "Toronto", "POST_CODE": "M9V 1R8", "PHONE_NO": "416-747-3400", "STATUS": "Existing" }, "geometry": { "type": "Point", "coordinates": [ -79.601083189923827, 43.730301614068175 ] } },
{ "type": "Feature", "properties": { "OBJECTID": 26, "CRE_DATE": null, "GEO_MODDATE": null, "ATT_MODDATE": "2010-07-07T00:00:00Z", "CAP_METHOD": "Website", "NAME": "North York General Hospital - Branson Division", "ADDRESS": "555 Finch Avenue West", "TOWN_NAME": "Toronto", "REGION": "Toronto", "POST_CODE": "M2R 1N5", "PHONE_NO": "416-633-9420", "STATUS": "Existing" }, "geometry": { "type": "Point", "coordinates": [ -79.450461095810951, 43.772100028815423 ] } },
{ "type": "Feature", "properties": { "OBJECTID": 27, "CRE_DATE": null, "GEO_MODDATE": null, "ATT_MODDATE": "2020-07-29T00:00:00Z", "CAP_METHOD": "Website", "NAME": "Michael Garron Hospital", "ADDRESS": "825 Coxwell Avenue", "TOWN_NAME": "Toronto", "REGION": "Toronto", "POST_CODE": "M4C 3E7", "PHONE_NO": "416-461-8272", "STATUS": "Existing" }, "geometry": { "type": "Point", "coordinates": [ -79.325690672903377, 43.689733911212137 ] } },
{ "type": "Feature", "properties": { "OBJECTID": 28, "CRE_DATE": null, "GEO_MODDATE": null, "ATT_MODDATE": "2010-07-07T00:00:00Z", "CAP_METHOD": "Website", "NAME": "The Stevenson Memorial Hospital", "ADDRESS": "200 Fletcher Crescent", "TOWN_NAME": "Alliston", "REGION": "Simcoe", "POST_CODE": "L9R 1W7", "PHONE_NO": "705-435-6281", "STATUS": "Existing" }, "geometry": { "type": "Point", "coordinates": [ -79.876452322070165, 44.155886268833022 ] } },
{ "type": "Feature", "properties": { "OBJECTID": 29, "CRE_DATE": null, "GEO_MODDATE": null, "ATT_MODDATE": null, "CAP_METHOD": null, "NAME": "William Osler Health Centre - Brampton", "ADDRESS": "2100 Bovaird Drive East", "TOWN_NAME": "Brampton", "REGION": "Peel", "POST_CODE": "L6R 3J7", "PHONE_NO": "905-494-2120", "STATUS": "Existing" }, "geometry": { "type": "Point", "coordinates": [ -79.744289008354087, 43.745315381828085 ] } },
{ "type": "Feature", "properties": { "OBJECTID": 30, "CRE_DATE": null, "GEO_MODDATE": "2016-07-22T00:00:00Z", "ATT_MODDATE": "2020-07-29T00:00:00Z", "CAP_METHOD": "Website", "NAME": "Reactivation Care Centre (RCC) Church Site", "ADDRESS": "200 Church Street", "TOWN_NAME": "Toronto", "REGION": "Toronto", "POST_CODE": "M9N 1N8", "PHONE_NO": "416-249-8111", "STATUS": "Existing" }, "geometry": { "type": "Point", "coordinates": [ -79.509918643135649, 43.708826049232002 ] } },
{ "type": "Feature", "properties": { "OBJECTID": 31, "CRE_DATE": null, "GEO_MODDATE": null, "ATT_MODDATE": null, "CAP_METHOD": null, "NAME": "Mount Sinai Hospital", "ADDRESS": "600 University Avenue", "TOWN_NAME": "Toronto", "REGION": "Toronto", "POST_CODE": "M5G 1X5", "PHONE_NO": "416-596-4200", "STATUS": "Existing" }, "geometry": { "type": "Point", "coordinates": [ -79.390126122088574, 43.657676610178193 ] } },
{ "type": "Feature", "properties": { "OBJECTID": 32, "CRE_DATE": null, "GEO_MODDATE": null, "ATT_MODDATE": "2020-07-29T00:00:00Z", "CAP_METHOD": null, "NAME": "Lakeridge Health - Oshawa Hospital", "ADDRESS": "1 Hospital Court", "TOWN_NAME": "Oshawa", "REGION": "Durham", "POST_CODE": "L1G 2B9", "PHONE_NO": "905-576-8711", "STATUS": "Existing" }, "geometry": { "type": "Point", "coordinates": [ -78.868031753676647, 43.905779508128205 ] } },
{ "type": "Feature", "properties": { "OBJECTID": 33, "CRE_DATE": null, "GEO_MODDATE": null, "ATT_MODDATE": "2015-07-29T00:00:00Z", "CAP_METHOD": "Website", "NAME": "Joseph Brant Hospital", "ADDRESS": "1230 North Shore Boulevard", "TOWN_NAME": "Burlington", "REGION": "Halton", "POST_CODE": "L7S 1W7", "PHONE_NO": "905-632-3737", "STATUS": "Existing" }, "geometry": { "type": "Point", "coordinates": [ -79.802711291436665, 43.317130994126288 ] } },
{ "type": "Feature", "properties": { "OBJECTID": 34, "CRE_DATE": null, "GEO_MODDATE": null, "ATT_MODDATE": null, "CAP_METHOD": null, "NAME": "Halton Healthcare Services Corp- Oakville", "ADDRESS": "327 Reynolds Street", "TOWN_NAME": "Oakville", "REGION": "Halton", "POST_CODE": "L6J 3L7", "PHONE_NO": "905-845-2571", "STATUS": "Existing" }, "geometry": { "type": "Point", "coordinates": [ -79.674910519544696, 43.453812962703481 ] } },
{ "type": "Feature", "properties": { "OBJECTID": 35, "CRE_DATE": null, "GEO_MODDATE": null, "ATT_MODDATE": null, "CAP_METHOD": null, "NAME": "Halton Healthcare Services Corp - Milton", "ADDRESS": "7030 Derry Road East", "TOWN_NAME": "Milton", "REGION": "Halton", "POST_CODE": "L9T 7H6", "PHONE_NO": "905-878-2383", "STATUS": "Existing" }, "geometry": { "type": "Point", "coordinates": [ -79.870002477667256, 43.4965902496157 ] } },
{ "type": "Feature", "properties": { "OBJECTID": 36, "CRE_DATE": null, "GEO_MODDATE": null, "ATT_MODDATE": null, "CAP_METHOD": null, "NAME": "Halton Healthcare Services Corp - Georgetown", "ADDRESS": "1 Princess Anne Drive", "TOWN_NAME": "Georgetown", "REGION": "Halton", "POST_CODE": "L7G 2B8", "PHONE_NO": "905-873-0111", "STATUS": "Existing" }, "geometry": { "type": "Point", "coordinates": [ -79.934783660509069, 43.644199584256988 ] } },
{ "type": "Feature", "properties": { "OBJECTID": 37, "CRE_DATE": null, "GEO_MODDATE": "2012-05-17T00:00:00Z", "ATT_MODDATE": "2020-07-29T00:00:00Z", "CAP_METHOD": "Website", "NAME": "Trillium Health Centre - Queensway Health Centre", "ADDRESS": "150 Sherway Drive", "TOWN_NAME": "Toronto", "REGION": "Toronto", "POST_CODE": "M9C 1A5", "PHONE_NO": "416-259-6671", "STATUS": "Existing" }, "geometry": { "type": "Point", "coordinates": [ -79.560370206579037, 43.608617443333777 ] } },
{ "type": "Feature", "properties": { "OBJECTID": 38, "CRE_DATE": "2012-05-17T00:00:00Z", "GEO_MODDATE": "2012-05-17T00:00:00Z", "ATT_MODDATE": "2012-05-17T00:00:00Z", "CAP_METHOD": "Website", "NAME": "Sunnybrook-Holland Orthopaedic & Arthritic Centre", "ADDRESS": "43 Wellesley Street East", "TOWN_NAME": "Toronto", "REGION": "Toronto", "POST_CODE": "M4Y 1H1", "PHONE_NO": "416-967-8500", "STATUS": "Existing" }, "geometry": { "type": "Point", "coordinates": [ -79.381982054404617, 43.665235081206113 ] } },
{ "type": "Feature", "properties": { "OBJECTID": 39, "CRE_DATE": "2015-10-13T00:00:00Z", "GEO_MODDATE": null, "ATT_MODDATE": null, "CAP_METHOD": "Website", "NAME": "Humber River Hospital - Wilson Site", "ADDRESS": "1235 Wilson", "TOWN_NAME": "Toronto", "REGION": "Toronto", "POST_CODE": "M3M 0B2", "PHONE_NO": "416-242-1000", "STATUS": "Existing" }, "geometry": { "type": "Point", "coordinates": [ -79.488769559693623, 43.724287531656145 ] } },
{ "type": "Feature", "properties": { "OBJECTID": 40, "CRE_DATE": "2016-07-22T00:00:00Z", "GEO_MODDATE": null, "ATT_MODDATE": null, "CAP_METHOD": null, "NAME": "Casey House Hospice", "ADDRESS": "9 Huntley Street", "TOWN_NAME": "Toronto", "REGION": "Toronto", "POST_CODE": "M4Y 2K8", "PHONE_NO": "416-962-7600", "STATUS": "Existing" }, "geometry": { "type": "Point", "coordinates": [ -79.378409224182718, 43.668943565613347 ] } },
{ "type": "Feature", "properties": { "OBJECTID": 41, "CRE_DATE": "2020-07-29T00:00:00Z", "GEO_MODDATE": null, "ATT_MODDATE": null, "CAP_METHOD": "Website", "NAME": "Lakeridge Health - Whitby Hospital", "ADDRESS": "300 Gordon Street", "TOWN_NAME": "Whitby", "REGION": "Durham", "POST_CODE": "L1N 2T5", "PHONE_NO": "905-668-6831", "STATUS": "Existing" }, "geometry": { "type": "Point", "coordinates": [ -78.944434354784832, 43.856240223222393 ] } },
{ "type": "Feature", "properties": { "OBJECTID": 42, "CRE_DATE": null, "GEO_MODDATE": null, "ATT_MODDATE": null, "CAP_METHOD": "Website", "NAME": "Reactivation Care Centre (RCC) Finch Site", "ADDRESS": "2111 Finch Avenue West", "TOWN_NAME": "Toronto", "REGION": "Toronto", "POST_CODE": "M3N 1N1", "PHONE_NO": "416-744-2500", "STATUS": "Existing" }, "geometry": { "type": "Point", "coordinates": [ -79.526127447647497, 43.754375858438742 ] } },
{ "type": "Feature", "properties": { "OBJECTID": 43, "CRE_DATE": "2019-07-12T00:00:00Z", "GEO_MODDATE": "2020-07-29T00:00:00Z", "ATT_MODDATE": "2021-07-26T00:00:00Z", "CAP_METHOD": "Manual", "NAME": "Cortellucci Vaughan Hospital", "ADDRESS": "3100 Major MacKenzie Drive West", "TOWN_NAME": "Vaughan", "REGION": "York", "POST_CODE": "L6A 1S1", "PHONE_NO": "905-883-1212", "STATUS": "Existing" }, "geometry": { "type": "Point", "coordinates": [ -79.539866676895656, 43.850099009545147 ] } }
]
}
