Board Number,Board Name,Board Type,School Number,School Name,School Type,School Special Condition Code,School Level,School Language,Grade Range,Building Suite,P.O. Box,Street,Municipality,City,Province,Postal Code,Phone Number,Fax Number,School Website,Board Website,Enrolment,Latitude,Longitude,Percentage of Students Whose First Language Is Not English,Percentage of Students Whose First Language Is Not French,Percentage of Students Who Are New to Canada from a Non-English Speaking Country,Percentage of Students Who Are New to Canada from a Non-French Speaking Country,Percentage of Students Identified as Gifted,Percentage of Students Receiving Special Education Services,Percentage of Grade 3 Students Achieving the Provincial Standard in Reading,Change in Grade 3 Reading Achievement Over Three Years,Percentage of Grade 3 Students Achieving the Provincial Standard in Writing,Change in Grade 3 Writing Achievement Over Three Years,Percentage of Grade 3 Students Achieving the Provincial Standard in Mathematics,Change in Grade 3 Mathematics Achievement Over Three Years,Percentage of Grade 6 Students Achieving the Provincial Standard in Reading,Change in Grade 6 Reading Achievement Over Three Years,Percentage of Grade 6 Students Achieving the Provincial Standard in Writing,Change in Grade 6 Writing Achievement Over Three Years,Percentage of Grade 6 Students Achieving the Provincial Standard in Mathematics,Change in Grade 6 Mathematics Achievement Over Three Years,Percentage of Grade 9 Students Achieving the Provincial Standard in Academic Mathematics,Change in Grade 9 Academic Mathematics Achievement Over Three Years,Percentage of Grade 9 Students Achieving the Provincial Standard in Applied Mathematics,Change in Grade 9 Applied Mathematics Achievement Over Three Years,Percentage of Students That Passed the Grade 10 OSSLT on Their First Attempt,Change in Grade 10 OSSLT Literacy Achievement Over Three Years,Percentage of School-Aged Children Who Live in Low-Income Households,Percentage of Students Whose Parents Have Some University Education,Extract Date,ISCED010,ISCED020,ISCED1,ISCED2,ISCED3
B28010,Algoma DSB,Pub Dist Sch Brd (E/F),902344,Algoma Education Connection Secondary School,Public,Alternative,Secondary,English,9-12,,,550 Northern Ave,Sault Ste. Marie,Sault Ste Marie,Ontario,P6B4J4,705-945-7194,705-945-7173,http://www.adsb.on.ca,www.adsb.on.ca,220,46.53477,-84.3077,0,100,0,0,30,0,,,,,,,,,,,,,N/D,,N/R,,N/R,,25,15,2020-09-04,0,0,0,1,1
B28010,Algoma DSB,Pub Dist Sch Brd (E/F),019186,Anna McCrea Public School,Public,Not applicable,Elementary,English,JK-8,,,250 Mark St,Sault Ste. Marie,Sault Ste Marie,Ontario,P6A3M7,705-945-7106,705-945-7221,http://www.adsb.on.ca/sites/schools/amc/default.aspx,www.adsb.on.ca,195,46.50593,-84.2873,0,100,0,0,10,0,69%,-8.0,66%,8.0,72%,-9.0,80%,0.0,80%,13.0,40%,-13.0,,,,,,,10,60,2020-09-04,1,1,1,1,0
B28010,Algoma DSB,Pub Dist Sch Brd (E/F),067679,Arthur Henderson Public School,Public,Not applicable,Elementary,English,JK-3,,,2 Henderson Lane 2,Bruce Mines,Bruce Mines,Ontario,P0R1C0,705-785-3483,705-785-3220,http://www.adsb.on.ca/sites/schools/art/default.aspx,www.adsb.on.ca,SP,46.301829999999995,-83.7802,SP,SP,SP,SP,SP,SP,N/R,,N/R,,N/R,,N/D,,N/D,,N/D,,,,,,,,SP,SP,2020-09-04,1,1,1,0,0
B28010,Algoma DSB,Pub Dist Sch Brd (E/F),043362,Ben R McMullin Public School,Public,Not applicable,Elementary,English,JK-8,,,24 Paradise Ave,Sault Ste. Marie,Sault Ste Marie,Ontario,P6B5K2,705-945-7108,705-945-7205,http://www.adsb.on.ca/sites/schools/brm/default.aspx,www.adsb.on.ca,165,46.52455,-84.29799999999999,10,100,10,10,20,0,47%,3.0,41%,3.0,29%,-15.0,45%,-29.0,55%,-10.0,23%,1.0,,,,,,,30,30,2020-09-04,1,1,1,1,0
B28010,Algoma DSB,Pub Dist Sch Brd (E/F),054542,Blind River Public School,Public,Not applicable,Elementary,English,JK-8,,,19 Hanes Ave,Blind River,Blind River,Ontario,P0R1B0,705-356-7752,705-356-0271,http://www.adsb.on.ca/sites/schools/bli/default.aspx,www.adsb.on.ca,150,46.184540000000005,-82.9576,0,100,5,0,20,0,43%,-7.0,36%,0.0,21%,-29.0,58%,6.0,58%,-7.0,25%,-5.0,,,,,,,20,20,2020-09-04,1,1,1,1,0
B28010,Algoma DSB,Pub Dist Sch Brd (E/F),490822,Boreal French Immersion Public School,Public,Not applicable,Elementary,English,JK-8,,,232 Northern Ave,Sault Ste. Marie,Sault Ste Marie,Ontario,P6B4H6,705-945-7149,705-945-7349,http://rosedale.adsb.on.ca/,www.adsb.on.ca,455,46.52447,-84.3107,0,100,0,5,10,0,N/D,,N/D,,40%,,88%,10.0,85%,12.0,73%,28.0,,,,,,,20,35,2020-09-04,1,1,1,1,0
B28010,Algoma DSB,Pub Dist Sch Brd (E/F),137967,Central Algoma Intermediate School,Public,Not applicable,Elementary,English,7-8,,,32 Kensington Road,Huron Shores,Desbarats,Ontario,P0R1E0,705-782-6263,705-782-4288,http://www.adsb.on.ca/sites/schools/cis/default.aspx,www.adsb.on.ca,180,46.340070000000004,-83.9369,0,100,0,0,35,0,,,,,,,,,,,,,,,,,,,20,30,2020-09-04,0,0,0,1,0
B28010,Algoma DSB,Pub Dist Sch Brd (E/F),285552,Central Algoma Public School,Public,Not applicable,Elementary,English,JK-6,,220,5 Margaret St,Johnson,Desbarats,Ontario,P0R1E0,705-782-6233,705-782-0260,http://www.adsb.on.ca/content/schools/school_details.asp?SchoolID=40,www.adsb.on.ca,120,46.34875,-83.9253,0,100,0,0,25,0,83%,16.0,58%,-9.0,50%,-17.0,73%,3.0,77%,20.0,73%,23.0,,,,,,,30,30,2020-09-04,1,1,1,0,0
B28010,Algoma DSB,Pub Dist Sch Brd (E/F),891347,Central Algoma Secondary School,Public,Not applicable,Secondary,English,9-12,,,32 Kensington Rd,Johnson,Desbarats,Ontario,P0R1E0,705-782-6263,705-782-4288,http://www.adsb.on.ca/sites/schools/cas/default.aspx,www.adsb.on.ca,330,46.33811,-83.9355,0,100,0,0,30,0,,,,,,,,,,,,,69%,-20.0,35%,-10.0,71%,5.0,20,20,2020-09-04,0,0,0,1,1
B28010,Algoma DSB,Pub Dist Sch Brd (E/F),093548,Central Avenue Public School,Public,Not applicable,Elementary,English,JK-8,,,81 Central Ave,Elliot Lake,Elliot Lake,Ontario,P5A2G4,705-848-3951,705-848-4805,http://www.adsb.on.ca/sites/schools/cen/default.aspx,www.adsb.on.ca,275,46.3904,-82.6588,0,100,0,0,20,0,19%,-13.0,22%,-13.0,19%,-13.0,46%,9.0,41%,-3.0,7%,-8.0,,,,,,,30,20,2020-09-04,1,1,1,1,0
B28010,Algoma DSB,Pub Dist Sch Brd (E/F),900869,Chapleau High School,Public,Not applicable,Secondary,English,9-12,,,20 Teak St,Chapleau,Chapleau,Ontario,P0M1K0,705-864-1452,705-864-2367,http://www.adsb.on.ca/sites/schools/css/default.aspx,www.adsb.on.ca,55,47.842729999999996,-83.4083,0,100,0,0,40,0,,,,,,,,,,,,,N/R,,N/R,,53%,-7.0,0,10,2020-09-04,0,0,0,1,1
B28010,Algoma DSB,Pub Dist Sch Brd (E/F),101214,Chapleau Public School,Public,Not applicable,Elementary,English,JK-8,,Box 700,24 Pine St,Chapleau,Chapleau,Ontario,P0M1K0,705-864-1170,705-864-1606,http://www.adsb.on.ca/content/schools/school_details.asp?SchoolID=24,www.adsb.on.ca,105,47.84496,-83.4033,0,100,0,5,10,0,20%,-57.0,N/R,,N/R,,50%,7.0,58%,22.0,0%,-14.0,,,,,,,15,10,2020-09-04,1,1,1,1,0
B28010,Algoma DSB,Pub Dist Sch Brd (E/F),161276,East View Public School,Public,Not applicable,Elementary,English,JK-8,,,75 Arizona Ave,Sault Ste. Marie,Sault Ste Marie,Ontario,P6A4L9,705-945-7115,705-945-7400,http://www.adsb.on.ca/sites/schools/evs/default.aspx,www.adsb.on.ca,295,46.51668,-84.28,0,100,0,0,10,0,50%,-9.0,25%,-21.0,32%,-19.0,66%,8.0,74%,16.0,20%,-7.0,,,,,,,15,25,2020-09-04,1,1,1,1,0
B28010,Algoma DSB,Pub Dist Sch Brd (E/F),165042,Echo Bay Central Public School,Public,Not applicable,Elementary,English,JK-6,,,290 Church St,Macdonald Meredith et al,Echo Bay,Ontario,P0S1C0,705-248-2271,705-248-2045,http://www.adsb.on.ca/sites/schools/ech/default.aspx,www.adsb.on.ca,210,46.48567,-84.0637,0,100,0,0,10,0,88%,5.0,81%,7.0,75%,5.0,89%,25.0,95%,31.0,68%,25.0,,,,,,,15,20,2020-09-04,1,1,1,0,0
B28010,Algoma DSB,Pub Dist Sch Brd (E/F),908010,Elliot Lake Secondary School,Public,Not applicable,Secondary,English,9-12,,,303 Mississauga Ave,Elliot Lake,Elliot Lake,Ontario,P5A1E8,705-848-7162,705-848-0103,http://www.adsb.on.ca/sites/schools/els/default.aspx,www.adsb.on.ca,290,46.37627,-82.6611,5,100,0,0,20,0,,,,,,,,,,,,,67%,-13.0,43%,14.0,61%,-14.0,20,10,2020-09-04,0,0,0,1,1
B28010,Algoma DSB,Pub Dist Sch Brd (E/F),186783,Esten Park Public School,Public,Not applicable,Elementary,English,JK-8,,,115 Hergott Ave,Elliot Lake,Elliot Lake,Ontario,P5A3B4,705-848-2601,705-848-9406,http://www.adsb.on.ca/sites/schools/est/default.aspx,www.adsb.on.ca,140,46.37191,-82.6198,0,95,0,0,5,0,46%,,62%,,31%,,77%,-13.0,85%,10.0,8%,-22.0,,,,,,,30,30,2020-09-04,1,1,1,1,0
B28010,Algoma DSB,Pub Dist Sch Brd (E/F),202614,Francis H Clergue Public School,Public,Not applicable,Elementary,English,JK-8,,,80 Weldon Ave,Sault Ste. Marie,Sault Ste Marie,Ontario,P6B3C6,705-945-7136,705-945-7144,http://www.adsb.on.ca/sites/schools/fhc/default.aspx,www.adsb.on.ca,525,46.51862,-84.3096,1,100,0,0,8,1,N/D,,N/D,,77%,18.0,92%,,88%,,61%,,,,,,,,17,42,2020-09-04,1,1,1,1,0
B28010,Algoma DSB,Pub Dist Sch Brd (E/F),227331,Grand View Public School,Public,Not applicable,Elementary,English,JK-8,,,161 Denwood Dr,Sault Ste. Marie,Sault Ste Marie,Ontario,P6A5R4,705-945-7148,705-945-7403,http://www.adsb.on.ca/sites/schools/gvs/default.aspx,www.adsb.on.ca,290,46.50955,-84.2659,0,100,0,0,10,0,83%,2.0,75%,-11.0,67%,-14.0,78%,-2.0,67%,0.0,56%,9.0,,,,,,,10,50,2020-09-04,1,1,1,1,0
B28010,Algoma DSB,Pub Dist Sch Brd (E/F),230561,Greenwood Public School,Public,Not applicable,Elementary,English,JK-8,,,8 Fourth Line W,Sault Ste. Marie,Sault Ste Marie,Ontario,P6A5K8,705-945-7118,705-945-7402,http://www.adsb.on.ca/sites/schools/gps/default.aspx,www.adsb.on.ca,235,46.56732,-84.3528,0,100,0,0,20,0,73%,23.0,62%,-19.0,54%,23.0,78%,13.0,84%,19.0,47%,9.0,,,,,,,15,30,2020-09-04,1,1,1,1,0
B28010,Algoma DSB,Pub Dist Sch Brd (E/F),237191,H M Robbins Public School,Public,Not applicable,Elementary,English,JK-8,,,83 East Balfour St,Sault Ste. Marie,Sault Ste Marie,Ontario,P6C1X4,705-945-7119,705-945-7399,http://www.adsb.on.ca/sites/schools/hmr/default.aspx,www.adsb.on.ca,255,46.5328,-84.3895,0,100,0,0,20,0,58%,0.0,46%,-17.0,50%,13.0,68%,-11.0,56%,6.0,24%,-14.0,,,,,,,30,25,2020-09-04,1,1,1,1,0
B28010,Algoma DSB,Pub Dist Sch Brd (E/F),917370,Hornepayne High School,Public,Not applicable,Secondary,English,9-12,,,162 Fourth Avenue,Hornepayne,Hornepayne,Ontario,P0M1Z0,807-868-2475,807-868-2126,http://www.adsb.on.ca/sites/schools/hhs/default.aspx,www.adsb.on.ca,SP,49.21525,-84.7789,SP,SP,SP,SP,SP,SP,,,,,,,,,,,,,N/R,,N/R,,80%,22.0,SP,SP,2020-09-04,0,0,0,1,1
B28010,Algoma DSB,Pub Dist Sch Brd (E/F),264750,Hornepayne Public School,Public,Not applicable,Elementary,English,JK-8,,,162 Fourth Ave,Hornepayne,Hornepayne,Ontario,P0M1Z0,807-868-2503,807-868-2126,http://www.adsb.on.ca/sites/schools/hor/default.aspx,www.adsb.on.ca,SP,49.2167,-84.78,SP,SP,SP,SP,SP,SP,N/R,,N/R,,N/R,,N/R,,N/R,,N/R,,,,,,,,SP,SP,2020-09-04,1,1,1,1,0
B28010,Algoma DSB,Pub Dist Sch Brd (E/F),278270,Isabel Fletcher Public School,Public,Not applicable,Elementary,English,JK-6,,,599 Third Line,Sault Ste. Marie,Sault Ste Marie,Ontario,P6A6K4,705-945-7120,705-945-7204,http://www.adsb.on.ca/sites/schools/isf/default.aspx,www.adsb.on.ca,175,46.551140000000004,-84.3789,0,100,0,0,15,0,57%,28.0,43%,11.0,50%,40.0,62%,-16.0,57%,-4.0,24%,-4.0,,,,,,,25,25,2020-09-04,1,1,1,0,0
B28010,Algoma DSB,Pub Dist Sch Brd (E/F),302350,Kiwedin Public School,Public,Not applicable,Elementary,English,JK-6,,,735 North St,Sault Ste. Marie,Sault Ste Marie,Ontario,P6B2C4,705-945-7124,705-945-7208,http://www.adsb.on.ca/sites/schools/kps/default.aspx,www.adsb.on.ca,170,46.54201,-84.3351,0,100,0,5,15,0,50%,14.0,20%,-7.0,20%,-7.0,68%,-25.0,47%,-33.0,63%,36.0,,,,,,,25,15,2020-09-04,1,1,1,0,0
B28010,Algoma DSB,Pub Dist Sch Brd (E/F),920533,Korah Collegiate and Vocational School,Public,Not applicable,Secondary,English,9-12,,,636 Goulais Ave,Sault Ste. Marie,Sault Ste Marie,Ontario,P6C5A7,705-945-7180,705-945-0750,http://www.adsb.on.ca/sites/schools/kor/default.aspx,www.adsb.on.ca,815,46.54269,-84.3816,2,100,0,1,20,1,,,,,,,,,,,,,85%,2.0,47%,-16.0,68%,-6.0,13,30,2020-09-04,0,0,0,1,1
B28010,Algoma DSB,Pub Dist Sch Brd (E/F),018309,Korah Intermediate School,Public,Not applicable,Elementary,English,7-8,,,636 Goulais Ave,Sault Ste. Marie,Sault Ste Marie,Ontario,P6C5A7,705-945-7180,705-945-0750,http://www.adsb.on.ca/sites/schools/kis/default.aspx,www.adsb.on.ca,135,46.54247,-84.3821,5,100,0,5,20,0,,,,,,,,,,,,,,,,,,,15,30,2020-09-04,0,0,0,1,0
B28010,Algoma DSB,Pub Dist Sch Brd (E/F),926086,Michipicoten High School,Public,Not applicable,Secondary,English,9-12,,,86 Magpie Rd,Michipicoten,Wawa,Ontario,P0S1K0,705-856-4464,705-856-1948,http://www.adsb.on.ca/sites/schools/mic/default.aspx,www.adsb.on.ca,105,47.99317,-84.7758,5,100,5,0,35,0,,,,,,,,,,,,,29%,-65.0,50%,,57%,1.0,10,30,2020-09-04,0,0,0,1,1
B28010,Algoma DSB,Pub Dist Sch Brd (E/F),368490,Missarenda Consolidated Public School,Public,Not applicable,Elementary,English,JK-8,,,1 First Street,Chapleau,Missanabie,Ontario,P0M2H0,705-234-2820,705-234-2567,http://www.adsb.on.ca/sites/schools/msc/default.aspx,www.adsb.on.ca,SP,48.31111,-84.0802,SP,SP,SP,SP,SP,SP,,,,,,,,,,,,,,,,,,,SP,SP,2020-09-04,1,1,1,1,0
B28010,Algoma DSB,Pub Dist Sch Brd (E/F),948426,Missarenda Secondary School,Public,Not applicable,Secondary,English,9-12,,,1 First Street,Chapleau,Missanabie,Ontario,P0M2H0,705-234-2820,,http://www.adsb.on.ca/sites/schools/msc/default.aspx,www.adsb.on.ca,,48.31165,-84.08200000000001,,,,,,,,,,,,,,,,,,,,,,,,,,,2020-09-04,0,0,0,1,1
B28010,Algoma DSB,Pub Dist Sch Brd (E/F),195200,Mountain View Public School,Public,Not applicable,Elementary,English,JK-8,,,Mahler Rd 1,Sault Ste. Marie,Goulais River,Ontario,P0S1E0,705-649-2130,705-649-0786,http://www.adsb.on.ca/sites/schools/mvs/default.aspx,www.adsb.on.ca,185,46.77124,-84.3616,0,100,0,0,10,0,42%,-8.0,33%,14.0,42%,11.0,78%,18.0,67%,39.0,56%,36.0,,,,,,,15,20,2020-09-04,1,1,1,1,0
B28010,Algoma DSB,Pub Dist Sch Brd (E/F),891150,North Shore Adolescent Education School,Public,Not applicable,Secondary,English,9-12,,,303 Mississauga Ave,Elliot Lake,Elliot Lake,Ontario,P5A1E8,705-848-1088,705-848-5634,,www.adsb.on.ca,SP,46.379870000000004,-82.6565,SP,SP,SP,SP,SP,SP,,,,,,,,,,,,,,,,,N/D,,SP,SP,2020-09-04,0,0,0,1,1
B28010,Algoma DSB,Pub Dist Sch Brd (E/F),410870,Northern Heights Public School,Public,Not applicable,Elementary,English,JK-8,,,210 Grand Blvd,Sault Ste. Marie,Sault Ste Marie,Ontario,P6B4S8,705-945-7128,705-945-7319,http://www.adsb.on.ca/sites/schools/nhs/default.aspx,www.adsb.on.ca,225,46.53072,-84.329,0,100,0,0,20,0,62%,3.0,19%,-40.0,33%,-43.0,50%,2.0,46%,17.0,7%,-12.0,,,,,,,40,20,2020-09-04,1,1,1,1,0
B28010,Algoma DSB,Pub Dist Sch Brd (E/F),434922,Parkland Public School,Public,Not applicable,Elementary,English,JK-8,,,54 Amber St,Sault Ste. Marie,Sault Ste Marie,Ontario,P6A5G1,705-945-7129,705-945-7131,http://www.adsb.on.ca/sites/schools/pps/default.aspx,www.adsb.on.ca,165,46.514559999999996,-84.2582,5,100,10,10,20,0,36%,-33.0,18%,-44.0,36%,-26.0,33%,-32.0,33%,-27.0,4%,-16.0,,,,,,,20,35,2020-09-04,1,1,1,1,0
B28010,Algoma DSB,Pub Dist Sch Brd (E/F),442054,Pinewood Public School,Public,Not applicable,Elementary,English,JK-8,,,3924 Queen St E,Sault Ste. Marie,Sault Ste Marie,Ontario,P6A5K9,705-945-7133,705-945-7225,http://www.adsb.on.ca/sites/schools/pin/default.aspx,www.adsb.on.ca,225,46.52417,-84.2477,0,100,0,0,10,0,44%,-17.0,56%,-14.0,44%,-4.0,71%,12.0,71%,16.0,38%,20.0,,,,,,,20,45,2020-09-04,1,1,1,1,0
B28010,Algoma DSB,Pub Dist Sch Brd (E/F),462616,Queen Elizabeth Public School,Public,Not applicable,Elementary,English,JK-8,,,139 Elizabeth St,Sault Ste. Marie,Sault Ste Marie,Ontario,P6A3Z5,705-945-7132,705-945-7288,http://www.adsb.on.ca/sites/schools/qes/default.aspx,www.adsb.on.ca,280,46.50658,-84.3041,0,100,5,0,20,0,64%,-5.0,44%,-40.0,52%,-17.0,69%,-3.0,69%,-3.0,42%,6.0,,,,,,,20,30,2020-09-04,1,1,1,1,0
B28010,Algoma DSB,Pub Dist Sch Brd (E/F),468339,R M Moore Public School,Public,Not applicable,Elementary,English,JK-8,,,1272 Base Line,Sault Ste. Marie,Sault Ste Marie,Ontario,P6A6K4,705-945-7135,705-945-7401,http://www.adsb.on.ca/sites/schools/rmm/default.aspx,www.adsb.on.ca,255,46.521770000000004,-84.4441,0,100,0,0,10,0,61%,-10.0,72%,10.0,61%,-10.0,78%,6.0,72%,0.0,33%,-34.0,,,,,,,10,50,2020-09-04,1,1,1,1,0
B28010,Algoma DSB,Pub Dist Sch Brd (E/F),485497,River View Public School,Public,Not applicable,Elementary,English,JK-8,,,51 Wireless Ave,Sault Ste. Marie,Sault Ste Marie,Ontario,P6B1L4,705-945-7134,705-945-7339,http://www.adsb.on.ca/sites/schools/rvs/default.aspx,www.adsb.on.ca,185,46.517509999999994,-84.29899999999999,5,100,5,5,20,0,60%,4.0,67%,-5.0,60%,-7.0,62%,-6.0,62%,-6.0,31%,-8.0,,,,,,,25,40,2020-09-04,1,1,1,1,0
B28010,Algoma DSB,Pub Dist Sch Brd (E/F),677523,Rockhaven School forExceptional Children Public School,Public,Not applicable,Elementary,English,JK-8,,,1459 Riverview Rd,Elliot Lake,Serpent River,Ontario,P0P1V0,705-844-2168,705-844-2396,http://www.adsb.on.ca/sites/schools/roc/default.aspx,www.adsb.on.ca,SP,46.20975,-82.5408,SP,SP,SP,SP,SP,SP,N/R,,N/R,,N/R,,N/D,,N/D,,N/D,,,,,,,,SP,SP,2020-09-04,1,1,1,1,0
B28010,Algoma DSB,Pub Dist Sch Brd (E/F),515396,Sir James Dunn Public School,Public,Not applicable,Elementary,English,JK-8,,,36 McKinley Ave,Michipicoten,Wawa,Ontario,P0S1K0,705-856-2517,705-856-2974,http://www.adsb.on.ca/sites/schools/sje/default.aspx,www.adsb.on.ca,105,47.99693,-84.7728,0,100,0,0,20,0,N/R,,N/R,,N/R,,67%,20.0,50%,-13.0,8%,-34.0,,,,,,,15,30,2020-09-04,1,1,1,1,0
B28010,Algoma DSB,Pub Dist Sch Brd (E/F),530603,St Joseph Island Central Public School,Public,Not applicable,Elementary,English,JK-6,,,1326 Richards St,St. Joseph,Richards Landing,Ontario,P0R1J0,705-246-2618,705-246-0511,http://www.adsb.on.ca/sites/schools/sjo/default.aspx,www.adsb.on.ca,100,46.28922,-84.0347,0,100,0,0,20,0,N/R,,N/R,,N/R,,100%,25.0,100%,25.0,80%,30.0,,,,,,,10,50,2020-09-04,1,1,1,0,0
B28010,Algoma DSB,Pub Dist Sch Brd (E/F),958050,Superior Heights Collegiate and Vocational School,Public,Not applicable,Secondary,English,9-12,,,750 north street,Sault Ste. Marie,Sault Ste. Marie,Ontario,P6B2C5,,,http://www.adsb.on.ca/sites/schools/shs/default.aspx,www.adsb.on.ca,770,46.50845,-84.2882,2,99,1,1,19,0,,,,,,,,,,,,,80%,4.0,33%,7.0,72%,4.0,15,30,2020-09-04,0,0,0,1,1
B28010,Algoma DSB,Pub Dist Sch Brd (E/F),672610,Superior Heights Community Education,Public,Not applicable,Elementary,English,7-8,,,750 North Avenue,Sault Ste. Marie,Sault Ste Marie,Ontario,P6B2C5,705-945-7142,705-945-7390,http://www.adsb.on.ca/sites/schools/shc/default.aspx,www.adsb.on.ca,SP,46.53951,-84.3349,SP,SP,SP,SP,SP,SP,,,,,,,,,,,,,,,,,,,SP,SP,2020-09-04,0,0,0,1,0
B28010,Algoma DSB,Pub Dist Sch Brd (E/F),106913,Superior Heights Intermediate School,Public,Not applicable,Elementary,English,7-8,,,750 North Street,Sault Ste. Marie,Sault Ste. Marie,Ontario,P6B2C5,705-945-7499,705-945-7497,http://www.adsb.on.ca/sites/schools/sis/default.aspx,www.adsb.on.ca,90,46.53951,-84.3349,10,100,0,10,30,0,,,,,,,,,,,,,,,,,,,20,20,2020-09-04,0,0,0,1,0
B28010,Algoma DSB,Pub Dist Sch Brd (E/F),548413,Tarentorus Public School,Public,Not applicable,Elementary,English,JK-8,,,96 Northwood St,Sault Ste. Marie,Sault Ste Marie,Ontario,P6B4M4,705-945-7138,705-945-7414,http://www.adsb.on.ca/sites/schools/tps/default.aspx,www.adsb.on.ca,285,46.54554,-84.3085,0,100,0,0,10,0,93%,-3.0,75%,-25.0,61%,-20.0,96%,18.0,96%,13.0,75%,14.0,,,,,,,10,45,2020-09-04,1,1,1,1,0
B28010,Algoma DSB,Pub Dist Sch Brd (E/F),551660,Thessalon Public School,Public,Not applicable,Elementary,English,JK-6,,,90 Stanley St,Thessalon,Thessalon,Ontario,P0R1L0,705-842-2410,705-842-0129,http://www.adsb.on.ca/sites/schools/the/default.aspx,www.adsb.on.ca,165,46.2604,-83.559,0,100,0,0,20,0,35%,6.0,20%,6.0,30%,5.0,87%,23.0,73%,15.0,53%,11.0,,,,,,,10,25,2020-09-04,1,1,1,0,0
B28010,Algoma DSB,Pub Dist Sch Brd (E/F),895270,W C Eaket Secondary School,Public,Not applicable,Secondary,English,9-12,,,147 Woodward Ave,Blind River,Blind River,Ontario,P0R1B0,705-356-2221,705-356-2596,http://www.adsb.on.ca/sites/schools/wce/default.aspx,www.adsb.on.ca,140,46.18877,-82.9467,0,100,0,0,45,0,,,,,,,,,,,,,69%,-10.0,28%,-19.0,57%,-5.0,20,10,2020-09-04,0,0,0,1,1
B28010,Algoma DSB,Pub Dist Sch Brd (E/F),953148,White Pines Collegiate and Vocational School,Public,Not applicable,Secondary,English,9-12,,,1007 Trunk Rd,Sault Ste. Marie,Sault Ste Marie,Ontario,P6A5K9,705-945-7181,705-945-0726,http://www.adsb.on.ca/sites/schools/wps/default.aspx,www.adsb.on.ca,475,46.52684,-84.256,0,100,0,5,35,0,,,,,,,,,,,,,75%,0.0,14%,-28.0,58%,6.0,20,20,2020-09-04,0,0,0,1,1
B28010,Algoma DSB,Pub Dist Sch Brd (E/F),144872,White Pines Intermediate School,Public,Not applicable,Elementary,English,7-8,,,1007 Trunk Road,Sault Ste. Marie,SAULT STE. MARIE,Ontario,P6A5K9,705-945-7181,,http://www.adsb.on.ca/sites/schools/wpi/default.aspx,www.adsb.on.ca,70,46.52799,-84.2599,0,100,0,0,30,0,,,,,,,,,,,,,,,,,,,30,30,2020-09-04,0,0,0,1,0
B67202,Algonquin and Lakeshore CDSB,Cath Dist Sch Brd (E/F),765031,Archbishop O'Sullivan Catholic School,Catholic,Not applicable,Elementary,English,JK-8,,,974 Pembridge Cres,Kingston,Kingston,Ontario,K7P1A3,613-389-1891,613-389-8409,https://www.alcdsb.on.ca/school/abos/Pages/default.aspx,www.alcdsb.on.ca,240,44.2496,-76.5849,0,100,0,0,20,0,82%,-9.0,79%,-21.0,68%,-3.0,68%,-10.0,77%,-11.0,27%,-20.0,,,,,,,15,40,2020-09-04,1,1,1,1,0
B67202,Algonquin and Lakeshore CDSB,Cath Dist Sch Brd (E/F),827681,Cathedrale Catholic School,Catholic,Not applicable,Elementary,English,JK-8,,,301 Johnson St,Kingston,Kingston,Ontario,K7L1Y5,613-546-7555,613-546-0760,https://www.alcdsb.on.ca/school/ecth/Pages/default.aspx,www.alcdsb.on.ca,390,44.23167,-76.491,10,100,5,5,10,0,82%,-13.0,77%,-5.0,69%,-7.0,90%,-2.0,94%,2.0,61%,-8.0,,,,,,,20,40,2020-09-04,1,1,1,1,0
B67202,Algonquin and Lakeshore CDSB,Cath Dist Sch Brd (E/F),708011,Georges Vanier Catholic School,Catholic,Not applicable,Elementary,English,JK-8,,,100 Tracey St E,Belleville,Belleville,Ontario,K8P2R8,613-962-7541,613-391-0169,https://www.alcdsb.on.ca/school/gvan/Pages/default.aspx,www.alcdsb.on.ca,330,44.18404,-77.4013,5,100,0,0,20,0,64%,-2.0,64%,-2.0,36%,-17.0,71%,-7.0,69%,-18.0,40%,-8.0,,,,,,,25,30,2020-09-04,1,1,1,1,0
B67202,Algonquin and Lakeshore CDSB,Cath Dist Sch Brd (E/F),715298,Holy Cross Catholic Secondary School,Catholic,Not applicable,Secondary,English,9-12,,,1085 Woodbine Rd,Kingston,Kingston,Ontario,K7P2V9,613-384-1919,613-384-8665,https://www.alcdsb.on.ca/school/hcss/Pages/default.aspx,www.alcdsb.on.ca,1070,44.258990000000004,-76.5987,6,100,1,2,27,0,,,,,,,,,,,,,78%,-1.0,49%,9.0,77%,-4.0,8,40,2020-09-04,0,0,0,1,1
B67202,Algonquin and Lakeshore CDSB,Cath Dist Sch Brd (E/F),717703,Holy Name Catholic School,Catholic,Not applicable,Elementary,English,JK-8,,,370 Kingston Mills Road,Kingston,Kingston,Ontario,K7L5H6,613-542-8611,613-549-6979,https://www.alcdsb.on.ca/school/name/Pages/default.aspx,www.alcdsb.on.ca,130,44.30068,-76.4242,0,100,0,5,15,0,69%,-31.0,100%,10.0,69%,-21.0,100%,15.0,100%,15.0,73%,19.0,,,,,,,10,30,2020-09-04,1,1,1,1,0
B67202,Algonquin and Lakeshore CDSB,Cath Dist Sch Brd (E/F),865257,Holy Name of Mary Catholic School,Catholic,Not applicable,Elementary,English,JK-8,,,7314 Old Highway 2 RR1,Tyendinaga,Marysville,Ontario,K0K2N0,613-396-2741,613-396-6554,https://www.alcdsb.on.ca/school/namm/Pages/default.aspx,www.alcdsb.on.ca,110,44.22671,-77.1368,0,100,0,0,20,0,50%,,33%,,42%,,85%,,92%,,0%,,,,,,,,10,20,2020-09-04,1,1,1,1,0
B67202,Algonquin and Lakeshore CDSB,Cath Dist Sch Brd (E/F),719919,Holy Rosary Catholic School,Catholic,Not applicable,Elementary,English,JK-8,,,10 Prince of Wales Dr,Belleville,Belleville,Ontario,K8P2T4,613-962-2305,613-391-0168,https://www.alcdsb.on.ca/school/rosa/Pages/default.aspx,www.alcdsb.on.ca,215,44.17815,-77.3845,5,100,0,0,20,0,60%,10.0,60%,-7.0,35%,-15.0,56%,-6.0,74%,21.0,22%,-6.0,,,,,,,25,25,2020-09-04,1,1,1,1,0
B67202,Algonquin and Lakeshore CDSB,Cath Dist Sch Brd (E/F),735523,J J O'Neill Catholic School,Catholic,Not applicable,Elementary,English,JK-8,,,240 Marilyn Ave,Greater Napanee,Napanee,Ontario,K7R2L4,613-354-9500,613-345-6970,https://www.alcdsb.on.ca/school/jjon/Pages/default.aspx,www.alcdsb.on.ca,275,44.247009999999996,-76.9636,0,95,0,0,15,0,56%,10.0,59%,-8.0,41%,-9.0,70%,-7.0,67%,-13.0,36%,3.0,,,,,,,15,30,2020-09-04,1,1,1,1,0
B67202,Algonquin and Lakeshore CDSB,Cath Dist Sch Brd (E/F),724068,John XXIII Catholic School,Catholic,Not applicable,Elementary,English,JK-8,,,736 High Gate Park Dr,Kingston,Kingston,Ontario,K7M5Z9,613-389-4388,613-389-9995,https://www.alcdsb.on.ca/school/john/Pages/default.aspx,www.alcdsb.on.ca,245,44.24649,-76.6039,5,100,5,0,15,0,81%,-3.0,86%,2.0,76%,-13.0,75%,-25.0,81%,-15.0,38%,-34.0,,,,,,,5,40,2020-09-04,1,1,1,1,0
B67202,Algonquin and Lakeshore CDSB,Cath Dist Sch Brd (E/F),728420,Loyola Community Learning Centre,Catholic,Adult,Secondary,English,9-12,,,1440 Princess Street,Kingston,Kingston,Ontario,K7M3E5,613-544-3361,613-547-0999,https://www.learningatloyola.ca/campus/kingston/,www.alcdsb.on.ca,270,44.2508,-76.5329,10,100,5,0,5,0,,,,,,,,,,,,,,,,,,,30,20,2020-09-04,0,0,0,1,1
B67202,Algonquin and Lakeshore CDSB,Cath Dist Sch Brd (E/F),773875,Mother Teresa Catholic School,Catholic,Not applicable,Elementary,English,JK-8,,,1044 Lancaster Dr,Kingston,Kingston,Ontario,K7P2L6,613-384-8644,613-384-0183,https://www.alcdsb.on.ca/school/trsa/Pages/default.aspx,www.alcdsb.on.ca,395,44.25586,-76.5982,5,100,5,0,15,0,79%,-8.0,74%,-19.0,54%,-13.0,91%,-6.0,93%,-4.0,70%,19.0,,,,,,,10,60,2020-09-04,1,1,1,1,0
B67202,Algonquin and Lakeshore CDSB,Cath Dist Sch Brd (E/F),835099,Nicholson Catholic College,Catholic,Not applicable,Secondary,English,9-12,,,301 Church St,Belleville,Belleville,Ontario,K8N3C7,613-967-0404,613-967-1963,https://www.alcdsb.on.ca/school/nicc/Pages/default.aspx,www.alcdsb.on.ca,430,44.16855,-77.3825,5,100,0,0,20,0,,,,,,,,,,,,,76%,4.0,42%,4.0,86%,-5.0,20,30,2020-09-04,0,0,0,1,1
B67202,Algonquin and Lakeshore CDSB,Cath Dist Sch Brd (E/F),742279,Our Lady of Fatima Catholic School,Catholic,Not applicable,Elementary,English,JK-8,,,300 Sidney St,Belleville,Belleville,Ontario,K8P3Z3,613-962-2162,613-962-5935,https://www.alcdsb.on.ca/school/ofat/Pages/default.aspx,www.alcdsb.on.ca,170,44.16552,-77.4014,0,100,0,0,20,0,42%,-31.0,25%,-48.0,33%,-8.0,58%,-18.0,68%,-22.0,32%,-11.0,,,,,,,25,25,2020-09-04,1,1,1,1,0
B67202,Algonquin and Lakeshore CDSB,Cath Dist Sch Brd (E/F),746568,Our Lady of Lourdes Catholic School,Catholic,Not applicable,Elementary,English,JK-8,,,20 Cranbrook St,Kingston,Kingston,Ontario,K7M4M9,613-389-2800,613-389-9551,https://www.alcdsb.on.ca/school/lady/Pages/default.aspx,www.alcdsb.on.ca,265,44.22013,-76.5708,0,100,0,0,20,0,88%,-2.0,91%,1.0,85%,2.0,86%,7.0,86%,7.0,43%,0.0,,,,,,,10,50,2020-09-04,1,1,1,1,0
B67202,Algonquin and Lakeshore CDSB,Cath Dist Sch Brd (E/F),746690,Our Lady of Mercy Catholic School,Catholic,Not applicable,Elementary,English,JK-8,,,192 Bridge St W,Bancroft,Bancroft,Ontario,K0L1C0,613-332-3300,613-332-0523,https://www.alcdsb.on.ca/school/omer/Pages/default.aspx,www.alcdsb.on.ca,180,45.05601,-77.8624,0,100,0,0,15,0,71%,,76%,,47%,,91%,12.0,95%,9.0,32%,-18.0,,,,,,,30,15,2020-09-04,1,1,1,1,0
B67202,Algonquin and Lakeshore CDSB,Cath Dist Sch Brd (E/F),706264,Our Lady of Mount Carmel Catholic School,Catholic,Not applicable,Elementary,English,JK-8,,,97 Park Cres,Loyalist,Amherstview,Ontario,K7N1L7,613-389-1122,613-389-9684,https://www.alcdsb.on.ca/school/olmc/Pages/default.aspx,www.alcdsb.on.ca,495,44.2236,-76.6407,0,100,0,5,10,0,70%,4.0,58%,-17.0,58%,-19.0,76%,5.0,83%,9.0,12%,-11.0,,,,,,,10,35,2020-09-04,1,1,1,1,0
B67202,Algonquin and Lakeshore CDSB,Cath Dist Sch Brd (E/F),752932,Regiopolis/Notre-Dame Catholic High School,Catholic,Not applicable,Secondary,English,9-12,,,130 Russell St,Kingston,Kingston,Ontario,K7K2E9,613-545-1902,613-548-4024,www.alcdsb.on.ca/school/regi,www.alcdsb.on.ca,1010,44.24334,-76.4939,9,97,3,3,29,0,,,,,,,,,,,,,94%,7.0,67%,7.0,87%,-1.0,14,34,2020-09-04,0,0,0,1,1
B67202,Algonquin and Lakeshore CDSB,Cath Dist Sch Brd (E/F),756830,Sacred Heart Catholic School,Catholic,Not applicable,Elementary,English,JK-8,,,50 Bursthall St,Marmora and Lake,Marmora,Ontario,K0K2M0,613-472-2625,613-472-0540,https://www.alcdsb.on.ca/school/shrm/Pages/default.aspx,www.alcdsb.on.ca,140,44.48104,-77.6787,5,100,0,0,15,0,80%,3.0,100%,23.0,50%,-12.0,69%,7.0,81%,19.0,19%,7.0,,,,,,,30,10,2020-09-04,1,1,1,1,0
B67202,Algonquin and Lakeshore CDSB,Cath Dist Sch Brd (E/F),764370,Sacred Heart Catholic School,Catholic,Not applicable,Elementary,English,JK-8,,,31 Thomas Bata Blvd,Quinte West,Batawa,Ontario,K0K1E0,613-398-6393,613-398-0589,https://www.alcdsb.on.ca/school/shrb/Pages/default.aspx,www.alcdsb.on.ca,140,44.17001,-77.5964,0,100,0,0,10,0,81%,6.0,62%,-21.0,50%,17.0,N/R,,N/R,,N/R,,,,,,,,10,20,2020-09-04,1,1,1,1,0
B67202,Algonquin and Lakeshore CDSB,Cath Dist Sch Brd (E/F),868370,Sacred Heart Catholic School,Catholic,Not applicable,Elementary,English,JK-8,,,57 Hwy 95,Frontenac Islands,Wolfe Island,Ontario,K0H2Y0,613-385-2348,613-385-1415,https://www.alcdsb.on.ca/school/shrt/Pages/default.aspx,www.alcdsb.on.ca,55,44.19003,-76.442,0,100,0,0,20,0,N/R,,N/R,,N/R,,N/R,,N/R,,N/R,,,,,,,,10,20,2020-09-04,1,1,1,1,0
B67202,Algonquin and Lakeshore CDSB,Cath Dist Sch Brd (E/F),781142,St Carthagh Catholic School,Catholic,Not applicable,Elementary,English,JK-8,,,114 Hungerford Rd,Tweed,Tweed,Ontario,K0K3J0,613-478-2601,613-478-6127,https://www.alcdsb.on.ca/school/cart/Pages/default.aspx,www.alcdsb.on.ca,150,44.47874,-77.317,0,100,0,0,15,0,N/R,,N/R,,N/R,,69%,,69%,,6%,,,,,,,,25,15,2020-09-04,1,1,1,1,0
B67202,Algonquin and Lakeshore CDSB,Cath Dist Sch Brd (E/F),756642,St Francis of Assisi Catholic School,Catholic,Not applicable,Elementary,English,JK-8,,,114 Wiley Street,Kingston,Kingston,Ontario,K7K5B5,613-546-5981,613-546-0463,https://www.alcdsb.on.ca/school/stfa/Pages/default.aspx,www.alcdsb.on.ca,275,44.26086,-76.4907,0,100,5,0,30,0,41%,,26%,,15%,,60%,,70%,,10%,,,,,,,,45,15,2020-09-04,1,1,1,1,0
B67202,Algonquin and Lakeshore CDSB,Cath Dist Sch Brd (E/F),796220,St Gregory Catholic School,Catholic,Not applicable,Elementary,English,JK-8,,,7 Owen St,Prince Edward County,Picton,Ontario,K0K2T0,613-476-2461,613-476-8937,https://www.alcdsb.on.ca/school/greg/Pages/default.aspx,www.alcdsb.on.ca,255,44.008790000000005,-77.1326,0,100,0,0,15,0,92%,44.0,85%,11.0,51%,-1.0,65%,-27.0,62%,-38.0,8%,-64.0,,,,,,,20,30,2020-09-04,1,1,1,1,0
B67202,Algonquin and Lakeshore CDSB,Cath Dist Sch Brd (E/F),799556,St James Major,Catholic,Not applicable,Elementary,English,JK-8,,,14608 Hwy. #38,Essex,Sharbot Lake,Ontario,K0H2P0,613-279-3300,613-279-1120,https://www.alcdsb.on.ca/school/jams/Pages/default.aspx,www.alcdsb.on.ca,SP,44.77277,-76.6883,SP,SP,SP,SP,SP,SP,N/R,,N/R,,N/R,,N/R,,N/R,,N/R,,,,,,,,SP,SP,2020-09-04,1,1,1,1,0
B67202,Algonquin and Lakeshore CDSB,Cath Dist Sch Brd (E/F),815330,St Joseph Catholic School,Catholic,Not applicable,Elementary,English,JK-8,,,405 Bridge St E,Belleville,Belleville,Ontario,K8N1P7,613-962-3653,613-391-0170,https://www.alcdsb.on.ca/school/jose/Pages/default.aspx,www.alcdsb.on.ca,365,44.16896,-77.3584,5,100,0,0,15,0,89%,21.0,85%,26.0,62%,9.0,97%,4.0,91%,1.0,69%,2.0,,,,,,,20,30,2020-09-04,1,1,1,1,0
B67202,Algonquin and Lakeshore CDSB,Cath Dist Sch Brd (E/F),695602,St Joseph School,Catholic,Not applicable,Elementary,English,JK-5,,,671 Brock St,Kingston,Kingston,Ontario,K7L1V7,613-542-4352,,https://www.alcdsb.on.ca/school/sjsm/Pages/default.aspx,www.alcdsb.on.ca,,44.233090000000004,-76.50631,,,,,,,,,,,,,,,,,,,,,,,,,,,2020-09-04,1,1,1,0,0
B67202,Algonquin and Lakeshore CDSB,Cath Dist Sch Brd (E/F),830984,St Marguerite Bourgeoys Catholic School,Catholic,Not applicable,Elementary,English,JK-8,,,355 Waterloo Ave,Kingston,Kingston,Ontario,K7M8P5,613-549-4499,613-549-9903,https://www.alcdsb.on.ca/school/marg/Pages/default.aspx,www.alcdsb.on.ca,445,44.25374,-76.5534,0,95,0,0,20,0,69%,-12.0,63%,-18.0,43%,-21.0,82%,-7.0,89%,11.0,42%,-7.0,,,,,,,10,45,2020-09-04,1,1,1,1,0
B67202,Algonquin and Lakeshore CDSB,Cath Dist Sch Brd (E/F),823570,St Martha Catholic School,Catholic,Not applicable,Elementary,English,JK-8,,,455 St Martha St,Kingston,Kingston,Ontario,K7K7C2,613-544-4050,613-544-5341,https://www.alcdsb.on.ca/school/mart/Pages/default.aspx,www.alcdsb.on.ca,350,44.26573,-76.4467,0,100,0,5,20,0,77%,1.0,67%,-4.0,64%,25.0,89%,8.0,87%,6.0,51%,-4.0,,,,,,,0,60,2020-09-04,1,1,1,1,0
B67202,Algonquin and Lakeshore CDSB,Cath Dist Sch Brd (E/F),824330,St Martin of Tours Catholic School,Catholic,Not applicable,Elementary,English,JK-8,,,62 Post Street,Timmins,Whitney,Ontario,K0J2M0,613-637-2720,613-637-2873,https://www.alcdsb.on.ca/school/marn/Pages/default.aspx,www.alcdsb.on.ca,SP,45.49137,-78.2361,SP,SP,SP,SP,SP,SP,N/R,,N/R,,N/R,,N/R,,N/R,,N/R,,,,,,,,SP,SP,2020-09-04,1,1,1,1,0
B67202,Algonquin and Lakeshore CDSB,Cath Dist Sch Brd (E/F),831840,St Mary Catholic School,Catholic,Not applicable,Elementary,English,JK-6,,,85 Campbell St,Quinte West,Trenton,Ontario,K8V3A2,613-392-3538,613-392-2368,https://www.alcdsb.on.ca/school/stmt/Pages/default.aspx,www.alcdsb.on.ca,410,44.10885,-77.5662,0,100,0,0,15,0,55%,-20.0,50%,-12.0,34%,-15.0,76%,-8.0,86%,-2.0,22%,-4.0,,,,,,,20,20,2020-09-04,1,1,1,0,0
B67202,Algonquin and Lakeshore CDSB,Cath Dist Sch Brd (E/F),865125,St Mary Catholic School,Catholic,Not applicable,Elementary,English,JK-8,,,1285 Read Rd RR 1,Tyendinaga,Shannonville,Ontario,K0K3A0,613-396-5430,613-396-6555,https://www.alcdsb.on.ca/school/stms/Pages/default.aspx,www.alcdsb.on.ca,105,44.3069,-77.2217,0,100,0,0,15,0,N/R,,N/R,,N/R,,N/R,,N/R,,N/R,,,,,,,,15,20,2020-09-04,1,1,1,1,0
B67202,Algonquin and Lakeshore CDSB,Cath Dist Sch Brd (E/F),834688,St Michael Catholic School,Catholic,Not applicable,Elementary,English,JK-8,,,273 Church St,Belleville,Belleville,Ontario,K8N3C7,613-968-5765,613-391-0171,https://www.alcdsb.on.ca/school/mich/Pages/default.aspx,www.alcdsb.on.ca,620,44.16771,-77.3821,4,100,2,2,14,0,59%,-2.0,38%,-18.0,38%,-1.0,72%,-5.0,67%,0.0,28%,5.0,,,,,,,25,24,2020-09-04,1,1,1,1,0
B67202,Algonquin and Lakeshore CDSB,Cath Dist Sch Brd (E/F),764248,St Patrick Catholic School,Catholic,Not applicable,Elementary,English,JK-8,,,6041 HW Y 41,Stone Mills,Erinsville,Ontario,K0K2A0,613-379-2991,613-379-5627,https://www.alcdsb.on.ca/school/stpe/Pages/default.aspx,www.alcdsb.on.ca,SP,44.48645,-77.0527,SP,SP,SP,SP,SP,SP,N/R,,N/R,,N/R,,N/R,,N/R,,N/R,,,,,,,,SP,SP,2020-09-04,1,1,1,1,0
B67202,Algonquin and Lakeshore CDSB,Cath Dist Sch Brd (E/F),841773,St Patrick Catholic School,Catholic,Not applicable,Elementary,English,JK-8,,,3889 Wilton Rd,South Frontenac,Harrowsmith,Ontario,K0H1V0,613-372-2251,613-372-2726,https://www.alcdsb.on.ca/school/stph/Pages/default.aspx,www.alcdsb.on.ca,240,44.39978,-76.67,0,100,5,0,10,0,88%,-12.0,96%,-1.0,84%,-6.0,81%,9.0,90%,18.0,32%,-12.0,,,,,,,10,35,2020-09-04,1,1,1,1,0
B67202,Algonquin and Lakeshore CDSB,Cath Dist Sch Brd (E/F),706744,St Paul Catholic Elementary School,Catholic,Not applicable,Elementary,English,7-8,,,15 Tripp Blvd,Quinte West,Trenton,Ontario,K8V6M2,613-394-4843,613-394-2684,www.alcdsb.on.ca/school/pass,www.alcdsb.on.ca,175,44.0943,-77.5974,5,95,0,0,30,0,,,,,,,,,,,,,,,,,,,15,20,2020-09-04,0,0,0,1,0
B67202,Algonquin and Lakeshore CDSB,Cath Dist Sch Brd (E/F),842761,St Paul Catholic School,Catholic,Not applicable,Elementary,English,JK-8,,,266 McMahon Ave,Kingston,Kingston,Ontario,K7M3H2,613-542-6101,613-542-3784,https://www.alcdsb.on.ca/school/paul/Pages/default.aspx,www.alcdsb.on.ca,140,44.249629999999996,-76.5241,5,100,0,0,20,0,46%,-40.0,62%,-38.0,38%,-48.0,89%,3.0,100%,7.0,33%,-31.0,,,,,,,20,40,2020-09-04,1,1,1,1,0
B67202,Algonquin and Lakeshore CDSB,Cath Dist Sch Brd (E/F),841358,St Paul Catholic Secondary School,Catholic,Not applicable,Secondary,English,9-12,,,15 Tripp Blvd,Quinte West,Trenton,Ontario,K8V6M2,613-394-4843,613-394-2684,www.alcdsb.on.ca/school/pass,www.alcdsb.on.ca,310,44.09403,-77.5981,0,100,0,0,30,0,,,,,,,,,,,,,84%,-4.0,42%,-12.0,83%,4.0,10,20,2020-09-04,0,0,0,1,1
B67202,Algonquin and Lakeshore CDSB,Cath Dist Sch Brd (E/F),845493,St Peter Catholic School,Catholic,Not applicable,Elementary,English,JK-8,,,15A Tripp Blvd,Quinte West,Trenton,Ontario,K8V6M2,613-392-6577,613-392-3191,https://www.alcdsb.on.ca/school/pett/Pages/default.aspx,www.alcdsb.on.ca,305,44.09989,-77.579,0,100,0,0,15,0,66%,5.0,68%,-7.0,56%,7.0,58%,-27.0,65%,-15.0,33%,-22.0,,,,,,,15,25,2020-09-04,1,1,1,1,0
B67202,Algonquin and Lakeshore CDSB,Cath Dist Sch Brd (E/F),851752,St Theresa Catholic Secondary School,Catholic,Not applicable,Secondary,English,9-12,,,135 Adam St,Belleville,Belleville,Ontario,K8N5S1,613-968-6993,613-968-9470,www.alcdsb.on.ca/school/thss,www.alcdsb.on.ca,705,44.19052,-77.3819,2,100,1,1,24,0,,,,,,,,,,,,,65%,-13.0,10%,-23.0,65%,-11.0,12,21,2020-09-04,0,0,0,1,1
B67202,Algonquin and Lakeshore CDSB,Cath Dist Sch Brd (E/F),856150,St Thomas More Catholic School,Catholic,Not applicable,Elementary,English,JK-8,,,234 Norman Rogers Dr,Kingston,Kingston,Ontario,K7M2R4,613-542-1575,613-544-3970,https://www.alcdsb.on.ca/school/sttm/Pages/default.aspx,www.alcdsb.on.ca,250,44.23513,-76.524,10,100,5,10,20,0,57%,-22.0,68%,-11.0,36%,-38.0,88%,-8.0,88%,-8.0,50%,-25.0,,,,,,,25,40,2020-09-04,1,1,1,1,0
B66010,Avon Maitland DSB,Pub Dist Sch Brd (E/F),019313,Anne Hathaway Public School,Public,Not applicable,Elementary,English,JK-6,,,77 Bruce St,Stratford,Stratford,Ontario,N5A4A2,519-271-8576,519-271-8516,http://www.avonmaitlandschools.ca/annehathaway/,http://blog.amdsb.ca,395,43.3579,-80.972,5,100,0,0,10,0,57%,-15.0,55%,-19.0,53%,-8.0,69%,-17.0,64%,-11.0,40%,-19.0,,,,,,,25,20,2020-09-04,1,1,1,0,0
B66010,Avon Maitland DSB,Pub Dist Sch Brd (E/F),893048,Avon Maitland District E-learning Centre,Public,Not applicable,Secondary,English,9-12,,,165 Princess St E,Central Huron,Clinton,Ontario,N0M1L0,519-482-5428,519-482-8795,http://amdec.ca/,http://blog.amdsb.ca,305,43.6186,-81.5326,10,100,0,0,0,0,,,,,,,,,,,,,,,,,,,15,40,2020-09-04,0,0,0,1,1
B66010,Avon Maitland DSB,Pub Dist Sch Brd (E/F),028673,Avon Public School,Public,Not applicable,Elementary,English,JK-6,,,31 Huntingdon Ave,Stratford,Stratford,Ontario,N5A6N7,519-271-2905,519-271-0406,http://www.avonmaitlandschools.ca/avon/,http://blog.amdsb.ca,375,43.37444,-80.9979,0,100,0,5,5,0,75%,-7.0,69%,-7.0,46%,-20.0,82%,0.0,75%,0.0,55%,-16.0,,,,,,,10,50,2020-09-04,1,1,1,0,0
B66010,Avon Maitland DSB,Pub Dist Sch Brd (E/F),039306,Bedford Public School,Public,Not applicable,Elementary,English,JK-6,,,59 Bedford Dr,Stratford,Stratford,Ontario,N5A5J7,519-273-1190,519-273-7001,http://www.avonmaitlandschools.ca/bedford/,http://blog.amdsb.ca,465,43.3824,-80.9722,0,100,5,5,10,0,69%,-12.0,60%,-8.0,63%,16.0,88%,5.0,79%,-6.0,46%,-3.0,,,,,,,10,55,2020-09-04,1,1,1,0,0
B66010,Avon Maitland DSB,Pub Dist Sch Brd (E/F),272319,Bluewater Coast Elementary Public School,Public,Not applicable,Elementary,English,JK-6,,,85 York Street,Bluewater,Hensall,Ontario,N0M1X0,519-262-2833,519-262-2323,http://www.avonmaitlandschools.ca/bluewatercoast/,http://blog.amdsb.ca,135,43.431459999999994,-81.5015,0,100,0,0,10,0,82%,7.0,73%,-12.0,73%,3.0,95%,14.0,90%,4.0,52%,0.0,,,,,,,5,15,2020-09-04,1,1,1,0,0
B66010,Avon Maitland DSB,Pub Dist Sch Brd (E/F),066699,Brookside Public School,Public,Not applicable,Elementary,English,JK-8,,,36937 Belgrave Road RR 7,Ashfield-Colborne-Wawanosh,Lucknow,Ontario,N0G2H0,519-529-7900,519-529-3142,http://www.avonmaitlandschools.ca/brookside/,http://blog.amdsb.ca,210,43.89914,-81.5709,0,100,0,0,10,0,71%,21.0,71%,7.0,57%,21.0,68%,-6.0,74%,13.0,32%,6.0,,,,,,,20,25,2020-09-04,1,1,1,1,0
B66010,Avon Maitland DSB,Pub Dist Sch Brd (E/F),899569,Central Huron Secondary School,Public,Not applicable,Secondary,English,9-12,,,165 Princess St E,Central Huron,Clinton,Ontario,N0M1L0,519-482-3471,519-482-9718,http://conrkuip.typepad.com/chss_chronicle/,http://blog.amdsb.ca,430,43.61681,-81.5337,0,100,0,0,20,0,,,,,,,,,,,,,81%,8.0,56%,21.0,56%,-18.0,10,20,2020-09-04,0,0,0,1,1
B66010,Avon Maitland DSB,Pub Dist Sch Brd (E/F),093718,Central Perth Elementary School,Public,Not applicable,Elementary,English,JK-8,,,4663 Road 135 RR 1,Perth East,Sebringville,Ontario,N0K1X0,519-393-5300,519-393-5540,http://www.avonmaitlandschools.ca/centralperth/,http://blog.amdsb.ca,215,43.46305,-81.0266,5,100,0,0,10,0,76%,20.0,65%,9.0,35%,-13.0,80%,0.0,83%,23.0,30%,18.0,,,,,,,10,30,2020-09-04,1,1,1,1,0
B66010,Avon Maitland DSB,Pub Dist Sch Brd (E/F),112917,Clinton Public School,Public,Not applicable,Elementary,English,JK-8,,,27 Percival St,Central Huron,Clinton,Ontario,N0M1L0,519-482-9424,519-482-9775,http://www.avonmaitlandschools.ca/clinton/,http://blog.amdsb.ca,300,43.61488,-81.532,0,100,0,0,20,5,75%,16.0,68%,21.0,57%,7.0,87%,11.0,87%,22.0,47%,-10.0,,,,,,,15,25,2020-09-04,1,1,1,1,0
B66010,Avon Maitland DSB,Pub Dist Sch Brd (E/F),145912,Downie Central Public School,Public,Not applicable,Elementary,English,JK-8,,,4384 Line 20 RR 2,Perth South,St Pauls,Ontario,N0K1V0,519-393-6196,519-393-8168,http://www.avonmaitlandschools.ca/downie/,http://blog.amdsb.ca,210,43.32748,-81.0775,0,100,0,0,15,0,90%,9.0,90%,6.0,71%,6.0,80%,-1.0,80%,-4.0,60%,-1.0,,,,,,,10,30,2020-09-04,1,1,1,1,0
B66010,Avon Maitland DSB,Pub Dist Sch Brd (E/F),175170,Elma Township Public School,Public,Not applicable,Elementary,English,JK-8,,,5972 Line 72 RR 2,North Perth,Atwood,Ontario,N0G1B0,519-356-2241,519-356-2242,http://www.avonmaitlandschools.ca/elma/,http://blog.amdsb.ca,335,43.656290000000006,-81.0259,0,95,0,0,5,0,85%,31.0,78%,21.0,67%,10.0,67%,-19.0,67%,12.0,31%,-10.0,,,,,,,10,10,2020-09-04,1,1,1,1,0
B66010,Avon Maitland DSB,Pub Dist Sch Brd (E/F),190527,Exeter Elementary School,Public,Not applicable,Elementary,English,JK-6,,,93 Victoria St E,South Huron,Exeter,Ontario,N0M1S1,519-235-2630,519-235-3700,http://www.avonmaitlandschools.ca/exeter/,http://blog.amdsb.ca,340,43.351240000000004,-81.4776,0,100,5,0,10,0,64%,-15.0,77%,-2.0,67%,-9.0,72%,-1.0,81%,10.0,43%,7.0,,,,,,,15,20,2020-09-04,1,1,1,0,0
B66010,Avon Maitland DSB,Pub Dist Sch Brd (E/F),953776,F E Madill Secondary School,Public,Not applicable,Secondary,English,9-12,,,231 Madill Dr,North Huron,Wingham,Ontario,N0G2W0,519-357-1800,519-357-4137,http://femadill.com/,http://blog.amdsb.ca,605,43.88247,-81.3064,3,100,0,0,26,1,,,,,,,,,,,,,69%,10.0,61%,13.0,75%,8.0,16,11,2020-09-04,0,0,0,1,1
B66010,Avon Maitland DSB,Pub Dist Sch Brd (E/F),181908,F. E. Madill Elementary,Public,Not applicable,Elementary,English,7-8,,,231 Madill Drive,North Huron,Wingham,Ontario,N0G2W0,519-357-1800,519-357-4137,http://femadill.com/,http://blog.amdsb.ca,175,43.8824,-81.3064,0,100,0,0,20,0,,,,,,,,,,,,,,,,,,,15,25,2020-09-04,0,0,0,1,0
B66010,Avon Maitland DSB,Pub Dist Sch Brd (E/F),450242,GDCI - Elementary,Public,Not applicable,Elementary,English,7-8,,,260 South St,Goderich,Goderich,Ontario,N7A3M5,519-524-7353,519-524-1710,http://gdcivikings.ca/,http://blog.amdsb.ca,145,43.73417,-81.7112,0,100,5,5,30,15,,,,,,,,,,,,,,,,,,,15,30,2020-09-04,0,0,0,1,0
B66010,Avon Maitland DSB,Pub Dist Sch Brd (E/F),913600,Goderich District Collegiate Institute,Public,Not applicable,Secondary,English,9-12,,,260 South St,Goderich,Goderich,Ontario,N7A3M5,519-524-7353,519-524-1710,http://gdcivikings.ca/,http://blog.amdsb.ca,400,43.734120000000004,-81.7112,10,100,0,5,25,5,,,,,,,,,,,,,75%,8.0,67%,41.0,81%,4.0,10,15,2020-09-04,0,0,0,1,1
B66010,Avon Maitland DSB,Pub Dist Sch Brd (E/F),478133,Goderich Public School,Public,Not applicable,Elementary,English,JK-6,,,125 Blake St W,Goderich,Goderich,Ontario,N7A1Z1,519-524-8972,519-524-4345,http://www.avonmaitlandschools.ca/goderich/,http://blog.amdsb.ca,530,43.73468,-81.7164,2,100,3,3,9,2,78%,2.0,69%,-12.0,61%,-15.0,91%,-1.0,88%,1.0,70%,25.0,,,,,,,16,29,2020-09-04,1,1,1,0,0
B66010,Avon Maitland DSB,Pub Dist Sch Brd (E/F),242527,Hamlet Public School,Public,Not applicable,Elementary,English,JK-6,,,315 West Gore St,Stratford,Stratford,Ontario,N5A7N4,519-271-2826,519-273-2577,http://www.avonmaitlandschools.ca/hamlet/,http://blog.amdsb.ca,190,43.3645,-80.9909,0,100,0,5,10,0,88%,27.0,88%,23.0,79%,22.0,79%,-4.0,76%,18.0,52%,2.0,,,,,,,15,35,2020-09-04,1,1,1,0,0
B66010,Avon Maitland DSB,Pub Dist Sch Brd (E/F),268003,Howick Central Public School,Public,Not applicable,Elementary,English,JK-8,,,45010 Harriston Road RR 1,Howick,Gorrie,Ontario,N0G1X0,519-335-3566,519-335-6567,http://www.avonmaitlandschools.ca/howick/,http://blog.amdsb.ca,340,43.883720000000004,-81.054,0,100,0,0,10,0,72%,-6.0,60%,-25.0,56%,-14.0,72%,2.0,69%,-6.0,28%,-7.0,,,,,,,20,10,2020-09-04,1,1,1,1,0
B66010,Avon Maitland DSB,Pub Dist Sch Brd (E/F),268640,Hullett Central Public School,Public,Not applicable,Elementary,English,JK-8,,,269 King St,Central Huron,Londesborough,Ontario,N0M2H0,519-523-4201,519-523-9282,http://www.avonmaitlandschools.ca/hullett/,http://blog.amdsb.ca,260,43.697590000000005,-81.4775,0,100,0,0,10,0,77%,12.0,85%,-5.0,85%,4.0,83%,3.0,75%,5.0,38%,25.0,,,,,,,20,20,2020-09-04,1,1,1,1,0
B66010,Avon Maitland DSB,Pub Dist Sch Brd (E/F),273694,Huron Centennial Public School,Public,Not applicable,Elementary,English,JK-8,,,39978 Centennial Rd RR 1,Bluewater,Brucefield,Ontario,N0M1J0,519-233-3330,519-233-3401,http://www.avonmaitlandschools.ca/huroncentennial/,http://blog.amdsb.ca,345,43.507220000000004,-81.5155,0,100,0,0,5,0,77%,37.0,46%,-18.0,49%,-3.0,87%,12.0,89%,7.0,60%,31.0,,,,,,,15,30,2020-09-04,1,1,1,1,0
B66010,Avon Maitland DSB,Pub Dist Sch Brd (E/F),923095,Listowel District Secondary School,Public,Not applicable,Secondary,English,9-12,,,155 Maitland Ave S,North Perth,Listowel,Ontario,N4W2M4,519-291-1880,519-291-5590,http://www.ldsslistowel.ca/,http://blog.amdsb.ca,945,43.727509999999995,-80.9467,15,99,1,0,20,2,,,,,,,,,,,,,88%,0.0,52%,-11.0,77%,3.0,8,10,2020-09-04,0,0,0,1,1
B66010,Avon Maitland DSB,Pub Dist Sch Brd (E/F),163619,Listowel Eastdale Public School,Public,Not applicable,Elementary,English,JK-6,,,365 Nichol Ave S,North Perth,Listowel,Ontario,N4W2M3,519-291-2930,519-291-1982,http://www.avonmaitlandschools.ca/listoweleastdale/,http://blog.amdsb.ca,300,43.72679,-80.9496,5,100,5,0,5,5,77%,10.0,74%,18.0,64%,3.0,91%,-9.0,88%,0.0,75%,-10.0,,,,,,,10,30,2020-09-04,1,1,1,0,0
B66010,Avon Maitland DSB,Pub Dist Sch Brd (E/F),285535,Little Falls Public School,Public,Not applicable,Elementary,English,JK-6,,,25 Lindsay Atkinson Drive,St. Marys,St Marys,Ontario,N4X1B6,519-284-3615,519-284-2193,http://www.avonmaitlandschools.ca/littlefalls/,http://blog.amdsb.ca,465,43.25111,-81.1319,5,100,0,0,5,0,84%,-2.0,73%,-9.0,73%,-4.0,84%,2.0,81%,3.0,44%,-15.0,,,,,,,10,30,2020-09-04,1,1,1,0,0
B66010,Avon Maitland DSB,Pub Dist Sch Brd (E/F),517103,Maitland River Elementary Public School,Public,Not applicable,Elementary,English,JK-6,,,250 John St E,North Huron,Wingham,Ontario,N0G2W0,519-357-3551,519-357-2174,http://www.avonmaitlandschools.ca/maitlandriver/,http://blog.amdsb.ca,455,43.88225,-81.3033,0,100,0,5,10,0,78%,16.0,66%,19.0,49%,7.0,81%,5.0,70%,7.0,40%,9.0,,,,,,,20,25,2020-09-04,1,1,1,0,0
B66010,Avon Maitland DSB,Pub Dist Sch Brd (E/F),366021,Milverton Public School,Public,Not applicable,Elementary,English,JK-8,,,68 Mill St E,Perth East,Milverton,Ontario,N0K1M0,519-595-8859,519-595-2392,http://www.avonmaitlandschools.ca/milverton/,http://blog.amdsb.ca,285,43.56293,-80.915,5,100,0,0,10,5,77%,1.0,77%,-17.0,61%,-13.0,70%,-3.0,90%,21.0,60%,2.0,,,,,,,20,10,2020-09-04,1,1,1,1,0
B66010,Avon Maitland DSB,Pub Dist Sch Brd (E/F),135064,Mitchell District Elementary Public School,Public,Not applicable,Elementary,English,7-8,,,95 Francis Street 5,West Perth,Mitchell,Ontario,N0K1N0,519-348-8495,519-348-4224,http://mitchelldhs.com/,http://blog.amdsb.ca,150,43.47518,-81.1895,5,100,5,5,10,0,,,,,,,,,,,,,,,,,,,10,30,2020-09-04,0,0,0,1,0
B66010,Avon Maitland DSB,Pub Dist Sch Brd (E/F),927120,Mitchell District High School,Public,Not applicable,Secondary,English,9-12,,,95 Frances St RR 5,West Perth,Mitchell,Ontario,N0K1N0,519-348-8495,519-348-4224,http://mitchelldhs.com/,http://blog.amdsb.ca,325,43.47518,-81.1895,5,100,0,0,10,5,,,,,,,,,,,,,97%,9.0,70%,44.0,94%,9.0,10,20,2020-09-04,0,0,0,1,1
B66010,Avon Maitland DSB,Pub Dist Sch Brd (E/F),372781,Mornington Central Public School,Public,Not applicable,Elementary,English,JK-8,,,7241 Road 131 RR 1,Perth East,Newton,Ontario,N0K1R0,519-595-8995,519-595-8992,http://www.avonmaitlandschools.ca/mornington/,http://blog.amdsb.ca,165,43.61469,-80.8846,80,100,5,10,10,0,36%,31.0,36%,25.0,20%,15.0,52%,12.0,57%,7.0,33%,8.0,,,,,,,30,10,2020-09-04,1,1,1,1,0
B66010,Avon Maitland DSB,Pub Dist Sch Brd (E/F),406040,North Easthope Public School,Public,Not applicable,Elementary,English,JK-8,,,4672 Road 108 RR 1,Perth East,Stratford,Ontario,N5A6S2,519-625-8398,519-625-8890,http://www.avonmaitlandschools.ca/northeasthope/,http://blog.amdsb.ca,165,43.42512,-80.86399999999999,5,100,0,0,10,0,67%,-16.0,67%,-27.0,92%,14.0,88%,-6.0,88%,21.0,53%,-3.0,,,,,,,10,30,2020-09-04,1,1,1,1,0
B66010,Avon Maitland DSB,Pub Dist Sch Brd (E/F),459441,North Perth Westfield Elementary School,Public,Not applicable,Elementary,English,JK-8,,,955 Binning Street,North Perth,Listowel,Ontario,N4W0G3,519-291-6147,519-291-4667,http://www.avonmaitlandschools.ca/westfield/,http://blog.amdsb.ca,615,43.74007,-80.9644,4,100,2,2,10,2,67%,-11.0,71%,-9.0,40%,-29.0,76%,-6.0,76%,-2.0,46%,-9.0,,,,,,,11,20,2020-09-04,1,1,1,1,0
B66010,Avon Maitland DSB,Pub Dist Sch Brd (E/F),578519,North Woods Elementary School,Public,Not applicable,Elementary,English,JK-6,,,84925 Ethel Line,Huron East,Ethel,Ontario,N0G1T0,519-887-6601,519-887-9843,http://www.avonmaitlandschools.ca/northwoods/,http://blog.amdsb.ca,155,43.71417,-81.145,10,100,5,5,10,0,78%,3.0,72%,5.0,56%,-2.0,88%,-5.0,75%,-18.0,56%,9.0,,,,,,,15,30,2020-09-04,1,1,1,0,0
B66010,Avon Maitland DSB,Pub Dist Sch Brd (E/F),490040,Romeo Public School,Public,Not applicable,Elementary,English,JK-6,,,49 Rebecca St,Stratford,Stratford,Ontario,N5A3P2,519-271-4487,519-271-2036,http://www.avonmaitlandschools.ca/romeo/,http://blog.amdsb.ca,135,43.36905,-80.9779,0,100,0,5,15,0,N/R,,N/R,,N/R,,94%,25.0,83%,6.0,33%,2.0,,,,,,,20,30,2020-09-04,1,1,1,0,0
B66010,Avon Maitland DSB,Pub Dist Sch Brd (E/F),504475,Seaforth Public School,Public,Not applicable,Elementary,English,JK-8,,,58 Chalk North St N,Huron East,Seaforth,Ontario,N0K1W0,519-527-0790,519-527-2123,http://www.avonmaitlandschools.ca/seaforth/,http://blog.amdsb.ca,300,43.554809999999996,-81.3889,5,100,0,0,10,0,68%,16.0,75%,20.0,50%,2.0,83%,1.0,86%,4.0,49%,-1.0,,,,,,,15,40,2020-09-04,1,1,1,1,0
B66010,Avon Maitland DSB,Pub Dist Sch Brd (E/F),507725,Shakespeare Public School,Public,Not applicable,Elementary,English,JK-6,,,35 Mowat St,Stratford,Stratford,Ontario,N5A2B8,519-271-3727,519-271-1284,http://www.avonmaitlandschools.ca/shakespeare/,http://blog.amdsb.ca,175,43.36207,-80.9829,5,100,0,0,15,0,76%,13.0,62%,-12.0,52%,-4.0,67%,4.0,67%,9.0,20%,-6.0,,,,,,,15,20,2020-09-04,1,1,1,0,0
B66010,Avon Maitland DSB,Pub Dist Sch Brd (E/F),943118,South Huron District High School,Public,Not applicable,Secondary,English,9-12,,,92 Gidley St E,South Huron,Exeter,Ontario,N0M1S6,519-235-0880,519-235-3461,http://www.shdhs.ca/,http://blog.amdsb.ca,430,43.349509999999995,-81.4774,5,100,0,0,30,0,,,,,,,,,,,,,86%,1.0,59%,5.0,64%,-21.0,10,10,2020-09-04,0,0,0,1,1
B66010,Avon Maitland DSB,Pub Dist Sch Brd (E/F),469900,South Huron Elementary Public School,Public,Not applicable,Elementary,English,7-8,,,92 Gidley Street East,South Huron,Exeter,Ontario,N0M1S6,519-235-0880,519-235-3461,http://www.shdhs.ca/,http://blog.amdsb.ca,175,43.34944,-81.4776,5,100,5,0,20,0,,,,,,,,,,,,,,,,,,,20,15,2020-09-04,0,0,0,1,0
B66010,Avon Maitland DSB,Pub Dist Sch Brd (E/F),523267,South Perth Centennial Public School,Public,Not applicable,Elementary,English,JK-8,,,1866 Road 163 RR 1,Perth South,St Marys,Ontario,N4X1C4,519-229-8920,519-229-8231,http://www.avonmaitlandschools.ca/southperth/,http://blog.amdsb.ca,155,43.26794,-81.193,0,100,0,0,10,5,82%,1.0,100%,33.0,64%,2.0,94%,21.0,100%,13.0,69%,2.0,,,,,,,10,35,2020-09-04,1,1,1,1,0
B66010,Avon Maitland DSB,Pub Dist Sch Brd (E/F),528650,Sprucedale Public School,Public,Not applicable,Elementary,English,JK-8,,,2215 Fraser St,Perth East,Shakespeare,Ontario,N0B2P0,519-625-8722,519-625-8886,http://www.avonmaitlandschools.ca/sprucedale/,http://blog.amdsb.ca,190,43.36809,-80.8394,5,100,0,0,10,0,67%,7.0,50%,-15.0,54%,-6.0,75%,-5.0,62%,-18.0,50%,40.0,,,,,,,5,20,2020-09-04,1,1,1,1,0
B66010,Avon Maitland DSB,Pub Dist Sch Brd (E/F),944807,St Marys D.C. & V. I. High School,Public,Not applicable,Secondary,English,9-12,,,338 Elizabeth St,St. Marys,St Marys,Ontario,N4X1B6,519-284-1731,519-284-4042,http://www.stmarysdcvi.ca/,http://blog.amdsb.ca,455,43.257,-81.1339,5,100,0,0,20,5,,,,,,,,,,,,,95%,16.0,70%,20.0,72%,1.0,5,30,2020-09-04,0,0,0,1,1
B66010,Avon Maitland DSB,Pub Dist Sch Brd (E/F),100438,St Marys D.C. & V.I. - Elementary Elementary Public School,Public,Not applicable,Elementary,English,7-8,,,338 Elizabeth Street,St. Marys,St. Marys,Ontario,N4X1B6,519-284-1731,519-284-4042,http://www.stmarysdcvi.ca/,http://blog.amdsb.ca,135,43.25705,-81.1339,0,100,0,0,15,5,,,,,,,,,,,,,,,,,,,10,30,2020-09-04,0,0,0,1,0
B66010,Avon Maitland DSB,Pub Dist Sch Brd (E/F),535508,Stephen Central Public School,Public,Not applicable,Elementary,English,JK-6,,,70042 Goshen Line RR 3,South Huron,Dashwood,Ontario,N0M1N0,519-234-6302,519-234-6840,http://www.avonmaitlandschools.ca/stephen/,http://blog.amdsb.ca,180,43.29587,-81.5989,0,100,0,0,20,0,88%,17.0,94%,2.0,75%,0.0,83%,15.0,89%,9.0,50%,10.0,,,,,,,30,20,2020-09-04,1,1,1,0,0
B66010,Avon Maitland DSB,Pub Dist Sch Brd (E/F),531073,Stratford Central Public School,Public,Not applicable,Elementary,English,7-8,,,60 St. Andrew St,Stratford,Stratford,Ontario,N5A1A3,519-271-4500,519-273-7118,http://scss.amdsb.ca/,http://blog.amdsb.ca,290,43.37092,-80.9865,0,100,5,5,10,10,,,,,,,,,,,,,,,,,,,20,40,2020-09-04,0,0,0,1,0
B66010,Avon Maitland DSB,Pub Dist Sch Brd (E/F),945587,Stratford Central Secondary School,Public,Not applicable,Secondary,English,9-12,,,60 St Andrew St,Stratford,Stratford,Ontario,N5A1A3,519-271-4500,519-273-7118,http://scss.amdsb.ca/,http://blog.amdsb.ca,805,43.37092,-80.9865,9,99,3,3,15,9,,,,,,,,,,,,,96%,2.0,57%,-3.0,81%,-8.0,8,29,2020-09-04,0,0,0,1,1
B66010,Avon Maitland DSB,Pub Dist Sch Brd (E/F),893395,Stratford District Secondary School,Public,Not applicable,Secondary,English,9-12,,,428 Forman Ave,Stratford,Stratford,Ontario,N5A6R7,519-271-9740,,,http://blog.amdsb.ca,,43.38533828,-80.99350078,,,,,,,,,,,,,,,,,,,,,,,,,,,2020-09-04,0,0,0,1,1
B66010,Avon Maitland DSB,Pub Dist Sch Brd (E/F),097284,Stratford Intermediate School,Public,Not applicable,Elementary,English,7-8,,,60 St Andrew,Stratford,Stratford,Ontario,N5A1A3,519-271-4500,,,http://blog.amdsb.ca,,43.37109829999999,-80.98829761,,,,,,,,,,,,,,,,,,,,,,,,,,,2020-09-04,0,0,0,1,0
B66010,Avon Maitland DSB,Pub Dist Sch Brd (E/F),531090,Stratford Northwestern Public School,Public,Not applicable,Elementary,English,7-8,,,428 Forman Ave,Stratford,Stratford,Ontario,N5A6R7,519-271-9740,519-271-7834,http://stratfordnorthwestern.ca/,http://blog.amdsb.ca,170,43.38432,-80.9931,5,100,0,0,30,5,,,,,,,,,,,,,,,,,,,15,35,2020-09-04,0,0,0,1,0
B66010,Avon Maitland DSB,Pub Dist Sch Brd (E/F),945714,Stratford Northwestern Secondary School,Public,Not applicable,Secondary,English,9-12,,,428 Forman Ave,Stratford,Stratford,Ontario,N5A6R7,519-271-9740,519-271-7834,http://stratfordnorthwestern.ca/,http://blog.amdsb.ca,815,43.38432,-80.9931,7,100,1,2,24,2,,,,,,,,,,,,,93%,3.0,55%,-7.0,74%,8.0,8,23,2020-09-04,0,0,0,1,1
B66010,Avon Maitland DSB,Pub Dist Sch Brd (E/F),566667,Upper Thames Elementary School,Public,Not applicable,Elementary,English,JK-8,,,165 Frances Street RR 5,West Perth,Mitchell,Ontario,N0K1N0,519-348-8472,519-348-4752,http://www.avonmaitlandschools.ca/upperthames/,http://blog.amdsb.ca,575,43.4736,-81.1857,3,100,2,3,6,0,73%,-7.0,76%,3.0,55%,-8.0,86%,4.0,77%,9.0,62%,7.0,,,,,,,10,29,2020-09-04,1,1,1,1,0
B80012,Bloorview SA,Provincial/Hospital,417556,Bloorview School Authority,Hospital,Not applicable,Elementary,English,JK-8,,,150 Kilgour Rd,Toronto,Toronto,Ontario,M4G1R8,416-424-3831,416-425-2981,http://www.bloorviewschool.ca,www.bloorviewschool.ca,65,43.71881,-79.3725,10,100,0,0,0,0,,,,,,,,,,,,,,,,,,,0,0,2020-09-04,1,1,1,1,0
B66001,Bluewater DSB,Pub Dist Sch Brd (E/F),010472,Alexandra Community School,Public,Not applicable,Elementary,English,JK-8,,,1556 8th Ave E,Owen Sound,Owen Sound,Ontario,N4K3B6,519-376-6306,519-370-2901,http://www.alx.bwdsb.on.ca,www.bwdsb.on.ca,225,44.57298,-80.9294,0,100,0,5,10,0,47%,5.0,73%,19.0,53%,30.0,65%,1.0,59%,-5.0,18%,-5.0,,,,,,,30,25,2020-09-04,1,1,1,1,0
B66001,Bluewater DSB,Pub Dist Sch Brd (E/F),011606,Amabel-Sauble Community School,Public,Not applicable,Elementary,English,JK-8,,,555 Sauble Falls Parkway RR 1,The South Bruce Peninsula,Sauble Beach,Ontario,N0H2G0,519-422-3805,519-370-2902,http://www.sau.bwdsb.on.ca,www.bwdsb.on.ca,155,44.650459999999995,-81.2568,0,100,0,0,10,0,87%,40.0,80%,21.0,67%,32.0,94%,16.0,88%,10.0,56%,39.0,,,,,,,15,25,2020-09-04,1,1,1,1,0
B66001,Bluewater DSB,Pub Dist Sch Brd (E/F),022322,Arran Tara Elementary School,Public,Not applicable,Elementary,English,JK-8,,,106 Brook St W,Arran-Elderslie,Tara,Ontario,N0H2N0,519-934-2560,519-370-2903,http://www.tar.bwdsb.on.ca,www.bwdsb.on.ca,375,44.48145,-81.1525,5,100,0,0,15,0,77%,-14.0,72%,-16.0,77%,-2.0,89%,5.0,93%,4.0,39%,-24.0,,,,,,,15,25,2020-09-04,1,1,1,1,0
B66001,Bluewater DSB,Pub Dist Sch Brd (E/F),552585,Beaver Valley Community School,Public,Not applicable,Elementary,English,JK-8,,,189 Bruce St. S.,The Blue Mountains,Thornbury,Ontario,N0H2P0,519-599-5991,519-370-2905,http://www.bvc.bwdsb.on.ca,www.bwdsb.on.ca,505,44.55342,-80.4621,1,100,1,1,12,1,82%,-5.0,77%,-5.0,77%,5.0,94%,-1.0,89%,5.0,72%,17.0,,,,,,,17,56,2020-09-04,1,1,1,1,0
B66001,Bluewater DSB,Pub Dist Sch Brd (E/F),340804,Beavercrest Community School,Public,Not applicable,Elementary,English,JK-8,,Box 469,101 Main St E,Grey Highlands,Markdale,Ontario,N0C1H0,519-986-2990,519-370-2906,http://www.bcc.bwdsb.on.ca,www.bwdsb.on.ca,210,44.32033,-80.6452,10,100,0,0,10,0,80%,11.0,72%,3.0,64%,2.0,79%,14.0,86%,1.0,79%,59.0,,,,,,,10,30,2020-09-04,1,1,1,1,0
B66001,Bluewater DSB,Pub Dist Sch Brd (E/F),067709,Bruce Peninsula District School,Public,Not applicable,Elementary,English,JK-8,,,5 Moore St,Northern Bruce Peninsula,Lion s Head,Ontario,N0H1W0,519-793-3211,519-370-2908,http://www.bpds.bwdsb.on.ca/,www.bwdsb.on.ca,205,44.984790000000004,-81.2519,0,100,0,0,10,0,76%,7.0,67%,-21.0,52%,-17.0,83%,-10.0,71%,8.0,46%,27.0,,,,,,,20,25,2020-09-04,1,1,1,1,0
B66001,Bluewater DSB,Pub Dist Sch Brd (E/F),896969,Bruce Peninsula District School,Public,Not applicable,Secondary,English,9-12,,,5 Moore St,Northern Bruce Peninsula,Lion s Head,Ontario,N0H1W0,519-793-3211,519-370-2908,http://www.bpds.bwdsb.on.ca/,www.bwdsb.on.ca,65,44.98478,-81.2519,0,100,0,0,30,10,,,,,,,,,,,,,100%,20.0,N/R,,46%,-21.0,10,20,2020-09-04,0,0,0,1,1
B66001,Bluewater DSB,Pub Dist Sch Brd (E/F),169200,Chesley District Community School,Public,Not applicable,Elementary,English,JK-8,,,231 4th Ave SE,Arran-Elderslie,Chesley,Ontario,N0G1L0,519-363-2344,519-370-2914,http://www.cdc.bwdsb.on.ca/,www.bwdsb.on.ca,335,44.30696,-81.0976,0,100,0,0,20,0,63%,3.0,57%,-17.0,43%,-9.0,53%,-9.0,47%,3.0,25%,-9.0,,,,,,,25,20,2020-09-04,1,1,1,1,0
B66001,Bluewater DSB,Pub Dist Sch Brd (E/F),135143,Dawnview Public School,Public,Not applicable,Elementary,English,JK-6,,,149 12th Ave,Hanover,Hanover,Ontario,N4N2S8,519-364-1891,519-370-2915,http://www.dnv.bwdsb.on.ca,www.bwdsb.on.ca,230,44.14548,-81.0209,5,100,0,0,0,0,72%,16.0,44%,-4.0,36%,-5.0,92%,23.0,92%,17.0,50%,19.0,,,,,,,15,25,2020-09-04,1,1,1,0,0
B66001,Bluewater DSB,Pub Dist Sch Brd (E/F),458554,Dundalk & Proton Community School,Public,Not applicable,Elementary,English,JK-2,,Box 160,251 Young St,Southgate,Dundalk,Ontario,N0C1B0,519-923-2622,519-370-2942,http://www.pro.bwdsb.on.ca/,www.bwdsb.on.ca,230,44.16499,-80.3897,25,100,0,0,0,0,,,,,,,,,,,,,,,,,,,25,15,2020-09-04,1,1,1,0,0
B66001,Bluewater DSB,Pub Dist Sch Brd (E/F),331307,East Ridge Community School,Public,Not applicable,Elementary,English,JK-8,,,1550 8th Street,Owen Sound,Owen Sound,Ontario,N4K0A2,,,http://www.erc.bwdsb.on.ca/,www.bwdsb.on.ca,825,44.56713,-80.9161,3,100,3,2,13,1,63%,,60%,,41%,,68%,,61%,,25%,,,,,,,,18,35,2020-09-04,1,1,1,1,0
B66001,Bluewater DSB,Pub Dist Sch Brd (E/F),167649,Egremont Community School,Public,Not applicable,Elementary,English,JK-8,,,392141 Grey Road 109 RR 2,Southgate,Holstein,Ontario,N0G2A0,519-334-3640,519-370-2918,http://www.egr.bwdsb.on.ca,www.bwdsb.on.ca,200,44.06142,-80.7596,0,100,0,0,10,0,73%,5.0,86%,18.0,59%,14.0,69%,-23.0,85%,8.0,38%,-8.0,,,,,,,20,15,2020-09-04,1,1,1,1,0
B66001,Bluewater DSB,Pub Dist Sch Brd (E/F),293776,Elgin Market Public School,Public,Not applicable,Elementary,English,JK-8,,,305 Queen St,Kincardine,Kincardine,Ontario,N2Z2R6,519-396-8115,519-370-2919,http://www.emp.bwdsb.on.ca,www.bwdsb.on.ca,265,44.164840000000005,-81.6435,0,100,0,0,15,0,59%,-3.0,45%,-20.0,38%,-16.0,81%,-4.0,81%,-11.0,33%,-21.0,,,,,,,10,40,2020-09-04,1,1,1,1,0
B66001,Bluewater DSB,Pub Dist Sch Brd (E/F),524239,G C Huston Public School,Public,Not applicable,Elementary,English,JK-8,,Box 970,61 Victoria St,Saugeen Shores,Southampton,Ontario,N0H2L0,519-797-3241,519-370-2968,http://www.hus.bwdsb.on.ca,www.bwdsb.on.ca,325,44.49686,-81.3679,0,100,0,0,10,0,66%,2.0,66%,4.0,47%,6.0,67%,2.0,67%,2.0,29%,16.0,,,,,,,10,25,2020-09-04,1,1,1,1,0
B66001,Bluewater DSB,Pub Dist Sch Brd (E/F),180789,Georgian Bay Community School,Public,Not applicable,Elementary,English,4-8,,,125 Eliza st,Meaford,Meaford,Ontario,N4L1A4,519-538-1680,,http://www.gbss.bwdsb.on.ca/,www.bwdsb.on.ca,305,44.60205,-80.5845,0,100,0,0,20,0,N/D,,N/D,,N/D,,69%,1.0,69%,11.0,25%,0.0,,,,,,,20,30,2020-09-04,0,0,1,1,0
B66001,Bluewater DSB,Pub Dist Sch Brd (E/F),925438,Georgian Bay Community School Secondary School,Public,Not applicable,Secondary,English,9-12,,,125 Eliza St,Meaford,Meaford,Ontario,N4L1A4,519-538-1680,519-370-2920,http://www.gbss.bwdsb.on.ca,www.bwdsb.on.ca,335,44.60148,-80.5845,5,100,0,0,30,5,,,,,,,,,,,,,62%,-18.0,29%,-38.0,80%,-7.0,15,35,2020-09-04,0,0,0,1,1
B66001,Bluewater DSB,Pub Dist Sch Brd (E/F),914444,Grey Highlands Secondary School,Public,Not applicable,Secondary,English,9-12,,,100 Toronto Rd. S.,Grey Highlands,Flesherton,Ontario,N0C1E0,519-924-2721,519-370-2921,http://www.ghss.bwdsb.on.ca,www.bwdsb.on.ca,625,44.25865,-80.5452,3,99,1,1,28,0,,,,,,,,,,,,,72%,16.0,32%,-6.0,67%,-11.0,12,18,2020-09-04,0,0,0,1,1
B66001,Bluewater DSB,Pub Dist Sch Brd (E/F),281131,Hanover Heights Community School,Public,Not applicable,Elementary,English,JK-6,,,524 13th St,Hanover,Hanover,Ontario,N4N1Y4,519-364-2910,519-370-2922,http://www.han.bwdsb.on.ca,www.bwdsb.on.ca,360,44.156259999999996,-81.0223,0,100,0,0,20,0,77%,23.0,67%,21.0,63%,6.0,58%,6.0,58%,7.0,25%,-6.0,,,,,,,15,15,2020-09-04,1,1,1,0,0
B66001,Bluewater DSB,Pub Dist Sch Brd (E/F),253316,Hepworth Central Public School,Public,Not applicable,Elementary,English,JK-8,,Box 100,402 Bruce Street,The South Bruce Peninsula,Hepworth,Ontario,N0H1P0,519-935-2061,519-370-2923,http://www.hep.bwdsb.on.ca,www.bwdsb.on.ca,335,44.63228,-81.1363,0,100,0,0,10,0,81%,40.0,64%,30.0,56%,1.0,90%,1.0,86%,23.0,41%,-15.0,,,,,,,20,20,2020-09-04,1,1,1,1,0
B66001,Bluewater DSB,Pub Dist Sch Brd (E/F),152820,Highpoint Community Elementary School,Public,Not applicable,Elementary,English,1-8,,Box 310,351 Main St W,Southgate,Dundalk,Ontario,N0C1B0,519-923-2336,519-370-2926,http://www.hpe.bwdsb.on.ca,www.bwdsb.on.ca,310,44.16386,-80.3986,20,100,0,0,15,0,65%,,63%,,60%,,69%,4.0,76%,11.0,45%,-7.0,,,,,,,25,10,2020-09-04,0,0,1,1,0
B66001,Bluewater DSB,Pub Dist Sch Brd (E/F),257168,Hillcrest Central School,Public,Not applicable,Elementary,English,JK-8,,,31 Hillcrest St,South Bruce,Teeswater,Ontario,N0G2S0,519-392-6811,519-370-2928,http://www.tee.bwdsb.on.ca,www.bwdsb.on.ca,110,43.99987,-81.2903,0,100,0,0,15,0,N/R,,N/R,,N/R,,N/R,,N/R,,N/R,,,,,,,,20,25,2020-09-04,1,1,1,1,0
B66001,Bluewater DSB,Pub Dist Sch Brd (E/F),257869,Hillcrest Elementary School,Public,Not applicable,Elementary,English,JK-8,,,501 8th St W,Owen Sound,Owen Sound,Ontario,N4K3M8,519-376-1771,519-370-2927,http://www.hil.bwdsb.on.ca,www.bwdsb.on.ca,605,44.562509999999996,-80.9505,4,100,2,2,24,2,57%,-12.0,65%,-12.0,52%,-20.0,65%,26.0,72%,40.0,33%,20.0,,,,,,,22,32,2020-09-04,1,1,1,1,0
B66001,Bluewater DSB,Pub Dist Sch Brd (E/F),262935,Holland-Chatsworth Central School,Public,Not applicable,Elementary,English,JK-8,,,777346 Hwy #10 3,Chatsworth,Holland Centre,Ontario,N0H1R0,519-794-2729,519-370-2929,http://www.hol.bwdsb.on.ca,www.bwdsb.on.ca,280,44.41398,-80.8287,0,100,0,0,5,0,46%,-37.0,31%,-30.0,31%,-47.0,85%,16.0,70%,4.0,45%,1.0,,,,,,,20,30,2020-09-04,1,1,1,1,0
B66001,Bluewater DSB,Pub Dist Sch Brd (E/F),273775,Huron Heights Public School,Public,Not applicable,Elementary,English,1-8,,,785 Russell St,Kincardine,Kincardine,Ontario,N2Z1S7,519-396-7035,519-370-2931,http://www.hhe.bwdsb.on.ca,www.bwdsb.on.ca,325,44.16912,-81.6201,5,100,0,0,20,0,N/D,,N/D,,N/D,,82%,1.0,80%,-1.0,43%,4.0,,,,,,,15,40,2020-09-04,0,0,1,1,0
B66001,Bluewater DSB,Pub Dist Sch Brd (E/F),007681,John Diefenbaker Senior School,Public,Not applicable,Elementary,English,7-8,,,181 7th Street,Hanover,Hanover,Ontario,N4N1G7,,,,www.bwdsb.on.ca,145,44.14844,-81.0317,0,100,0,0,30,0,,,,,,,,,,,,,,,,,,,20,20,2020-09-04,0,0,0,1,0
B66001,Bluewater DSB,Pub Dist Sch Brd (E/F),915556,John Diefenbaker Senior School,Public,Not applicable,Secondary,English,9-12,,,181 7th St,Hanover,Hanover,Ontario,N4N1G7,519-364-3770,519-370-2932,http://www.jdss.bwdsb.on.ca,www.bwdsb.on.ca,590,44.14781,-81.0309,2,100,0,0,35,1,,,,,,,,,,,,,82%,-5.0,51%,3.0,74%,-8.0,12,21,2020-09-04,0,0,0,1,1
B66001,Bluewater DSB,Pub Dist Sch Brd (E/F),291030,Keppel-Sarawak Elementary School,Public,Not applicable,Elementary,English,JK-6,,,937 24th St W,Owen Sound,Owen Sound,Ontario,N4K5N4,519-376-1789,519-370-2933,http://www.kep.bwdsb.on.ca,www.bwdsb.on.ca,330,44.58898,-80.9544,0,100,0,0,5,5,68%,-2.0,66%,3.0,58%,-15.0,79%,-3.0,81%,7.0,36%,-8.0,,,,,,,15,30,2020-09-04,1,1,1,0,0
B66001,Bluewater DSB,Pub Dist Sch Brd (E/F),919454,Kincardine District Secondary School,Public,Not applicable,Secondary,English,9-12,,,885 River Lane,Kincardine,Kincardine,Ontario,N2Z2B9,519-396-9151,519-370-2934,http://www.kdss.bwdsb.on.ca,www.bwdsb.on.ca,500,44.17732,-81.6278,5,100,2,1,28,0,,,,,,,,,,,,,66%,-7.0,32%,11.0,70%,-2.0,8,31,2020-09-04,0,0,0,1,1
B66001,Bluewater DSB,Pub Dist Sch Brd (E/F),151668,Kincardine District Senior School,Public,Not applicable,Elementary,English,7-8,,,855 River Lane,Kincardine,Kincardine,Ontario,N2Z2B9,519-396-9151,519-370-2934,http://www.kdss.bwdsb.on.ca/,www.bwdsb.on.ca,,44.17695,-81.6282,,,,,,,,,,,,,,,,,,,,,,,,,,,2020-09-04,0,0,0,1,0
B66001,Bluewater DSB,Pub Dist Sch Brd (E/F),293750,Kincardine Township-Tiverton Public School,Public,Not applicable,Elementary,English,JK-3,,,1805 Hwy 21 2,Kincardine,Kincardine,Ontario,N2Z2X4,519-396-3371,519-370-2936,http://www.kin.bwdsb.on.ca,www.bwdsb.on.ca,370,44.18603,-81.6068,5,100,0,0,10,0,75%,12.0,66%,3.0,51%,-6.0,N/D,,N/D,,N/D,,,,,,,,10,40,2020-09-04,1,1,1,0,0
B66001,Bluewater DSB,Pub Dist Sch Brd (E/F),323900,Lucknow Central Public School,Public,Not applicable,Elementary,English,JK-8,,Box 208,463 Bob St,Huron-Kinloss,Lucknow,Ontario,N0G2H0,519-528-3022,519-370-2938,http://www.luc.bwdsb.on.ca,www.bwdsb.on.ca,140,43.95731,-81.5092,0,100,0,0,15,0,50%,,25%,,56%,,56%,-36.0,50%,-27.0,44%,6.0,,,,,,,40,20,2020-09-04,1,1,1,1,0
B66001,Bluewater DSB,Pub Dist Sch Brd (E/F),198978,Macphail Memorial Elementary School,Public,Not applicable,Elementary,English,JK-8,,Box 160,49 Campbell St,Grey Highlands,Flesherton,Ontario,N0C1E0,519-924-2752,519-370-2940,http://www.mac.bwdsb.on.ca,www.bwdsb.on.ca,535,44.2585,-80.5487,10,100,0,1,10,0,61%,-3.0,39%,-12.0,23%,-15.0,75%,-5.0,66%,5.0,43%,-2.0,,,,,,,18,23,2020-09-04,1,1,1,1,0
B66001,Bluewater DSB,Pub Dist Sch Brd (E/F),364290,Mildmay-Carrick Central School,Public,Not applicable,Elementary,English,JK-8,,,1023 Hwy 9,South Bruce,Mildmay,Ontario,N0G2J0,519-367-5548,519-370-2967,http://www.mld.bwdsb.on.ca,www.bwdsb.on.ca,165,44.0374,-81.1117,0,100,0,0,10,0,69%,-13.0,69%,4.0,62%,3.0,75%,,81%,,19%,,,,,,,,20,25,2020-09-04,1,1,1,1,0
B66001,Bluewater DSB,Pub Dist Sch Brd (E/F),401129,Normanby Community School,Public,Not applicable,Elementary,English,JK-8,,,574 Louisa Street,West Grey,Ayton,Ontario,N0G1C0,519-665-7783,519-370-2945,http://www.nor.bwdsb.on.ca,www.bwdsb.on.ca,190,44.05811,-80.9276,0,100,0,0,15,0,84%,-16.0,53%,-47.0,42%,-35.0,72%,-20.0,67%,-18.0,22%,-9.0,,,,,,,15,20,2020-09-04,1,1,1,1,0
B66001,Bluewater DSB,Pub Dist Sch Brd (E/F),403741,Northport Elementary School,Public,Not applicable,Elementary,English,JK-8,,,1000 Waterloo St,Saugeen Shores,Port Elgin,Ontario,N0H2C2,519-832-9077,519-370-2946,http://www.nop.bwdsb.on.ca,www.bwdsb.on.ca,460,44.44679,-81.3837,10,100,0,0,5,0,82%,7.0,67%,-12.0,69%,-13.0,63%,-26.0,59%,-25.0,30%,-35.0,,,,,,,10,30,2020-09-04,1,1,1,1,0
B66001,Bluewater DSB,Pub Dist Sch Brd (E/F),093939,Osprey Central School,Public,Not applicable,Elementary,English,JK-8,Unit #2,Box 60,408053 Grey Road 4 #1,Grey Highlands,Maxwell,Ontario,N0C1J0,519-922-2341,519-370-2949,http://www.osp.bwdsb.on.ca,www.bwdsb.on.ca,380,44.31534,-80.37,45,100,0,0,10,0,59%,12.0,41%,-24.0,35%,-18.0,53%,-23.0,58%,-25.0,31%,-10.0,,,,,,,25,20,2020-09-04,1,1,1,1,0
B66001,Bluewater DSB,Pub Dist Sch Brd (E/F),951692,Owen Sound District Secondary School Secondary School,Public,Not applicable,Secondary,English,9-12,,,750 9th St W,Owen Sound,Owen Sound,Ontario,N4K3P6,519-376-6050,519-370-2939,http://www.osdss.bwdsb.on.ca,www.bwdsb.on.ca,1205,44.565129999999996,-80.9575,3,100,1,1,33,1,,,,,,,,,,,,,87%,-7.0,62%,8.0,91%,17.0,15,25,2020-09-04,0,0,0,1,1
B66001,Bluewater DSB,Pub Dist Sch Brd (E/F),431028,Paisley Central School,Public,Not applicable,Elementary,English,JK-8,,Box 280,182 Arnaud St,Arran-Elderslie,Paisley,Ontario,N0G2N0,519-353-5691,519-370-2950,http://www.pai.bwdsb.on.ca,www.bwdsb.on.ca,135,44.29813,-81.2736,0,100,0,0,10,0,N/R,,N/R,,N/R,,80%,-8.0,67%,-4.0,20%,2.0,,,,,,,30,15,2020-09-04,1,1,1,1,0
B66001,Bluewater DSB,Pub Dist Sch Brd (E/F),605743,Peninsula Shores District School,Public,Not applicable,Elementary,English,JK-8,,,115 George St,The South Bruce Peninsula,Wiarton,Ontario,N0H2T0,519-534-2205,519-370-2952,http://www.psd.bwdsb.on.ca,www.bwdsb.on.ca,330,44.74086,-81.1507,0,100,0,0,20,0,59%,-15.0,43%,-25.0,22%,-36.0,62%,-13.0,75%,-3.0,6%,-19.0,,,,,,,20,25,2020-09-04,1,1,1,1,0
B66001,Bluewater DSB,Pub Dist Sch Brd (E/F),953253,Peninsula Shores District School,Public,Not applicable,Secondary,English,9-12,,Box 580,115 George St,The South Bruce Peninsula,Wiarton,Ontario,N0H2T0,519-534-2205,519-370-2952,http://www.psd.bwdsb.on.ca,www.bwdsb.on.ca,175,44.74067,-81.1492,5,100,0,0,30,0,,,,,,,,,,,,,100%,0.0,39%,-4.0,81%,12.0,15,10,2020-09-04,0,0,0,1,1
B66001,Bluewater DSB,Pub Dist Sch Brd (E/F),450910,Port Elgin-Saugeen Central School,Public,Not applicable,Elementary,English,JK-8,,,504 Catherine St,Saugeen Shores,Port Elgin,Ontario,N0H2C1,519-832-2038,519-370-2951,http://www.pte.bwdsb.on.ca,www.bwdsb.on.ca,710,44.43482,-81.3942,7,100,2,1,12,0,78%,6.0,70%,2.0,46%,-3.0,76%,-10.0,78%,0.0,35%,-10.0,,,,,,,15,32,2020-09-04,1,1,1,1,0
B66001,Bluewater DSB,Pub Dist Sch Brd (E/F),484970,Ripley-Huron Community - Junior Campus School,Public,Not applicable,Elementary,English,JK-8,,Box 40,2 Queen Street 4,Arran-Elderslie,Ripley,Ontario,N0G2R0,519-395-2651,519-395-2655,http://www.rip.bwdsb.on.ca,www.bwdsb.on.ca,280,44.073159999999994,-81.5823,0,100,0,0,10,0,74%,-12.0,81%,-5.0,52%,-19.0,82%,2.0,91%,6.0,42%,2.0,,,,,,,10,40,2020-09-04,1,1,1,1,0
B66001,Bluewater DSB,Pub Dist Sch Brd (E/F),940127,Saugeen District Secondary School,Public,Not applicable,Secondary,English,9-12,,,780 Gustavus St,Saugeen Shores,Port Elgin,Ontario,N0H2C4,519-832-2091,519-370-2954,http://www.sdss.bwdsb.on.ca,www.bwdsb.on.ca,610,44.4329,-81.3834,10,99,2,1,28,1,,,,,,,,,,,,,94%,9.0,51%,-32.0,91%,4.0,12,33,2020-09-04,0,0,0,1,1
B66001,Bluewater DSB,Pub Dist Sch Brd (E/F),290604,Saugeen District Senior School,Public,Not applicable,Elementary,English,7-8,,,780 Gustavus Street,Saugeen Shores,Port Elgin,Ontario,N0H2C4,,,http://www.sdss.bwdsb.on.ca,www.bwdsb.on.ca,,44.43179,-81.3847,,,,,,,,,,,,,,,,,,,,,,,,,,,2020-09-04,0,0,0,1,0
B66001,Bluewater DSB,Pub Dist Sch Brd (E/F),155683,Spruce Ridge Community School,Public,Not applicable,Elementary,English,JK-8,,Box 679,239 Kincardine Street,West Grey,Durham,Ontario,N0G1R0,519-369-2217,519-370-2955,http://www.spr.bwdsb.on.ca,www.bwdsb.on.ca,390,44.174440000000004,-80.8128,0,100,0,0,20,0,79%,15.0,63%,1.0,65%,7.0,70%,-6.0,70%,3.0,32%,15.0,,,,,,,15,20,2020-09-04,1,1,1,1,0
B66001,Bluewater DSB,Pub Dist Sch Brd (E/F),529826,St Edmunds Public School,Public,Not applicable,Elementary,English,JK-3,,Box 118,21 Centennial Drive,Northern Bruce Peninsula,Tobermory,Ontario,N0H2R0,519-596-2390,519-370-2956,http://www.sed.bwdsb.on.ca/,www.bwdsb.on.ca,SP,45.22907,-81.6623,SP,SP,SP,SP,SP,SP,N/R,,N/R,,N/R,,N/D,,N/D,,N/D,,,,,,,,SP,SP,2020-09-04,1,1,1,0,0
B66001,Bluewater DSB,Pub Dist Sch Brd (E/F),531146,St Vincent-Euphrasia Elementary School,Public,Not applicable,Elementary,English,JK-3,,,555 St Vincent St,Meaford,Meaford,Ontario,N4L1C6,519-538-1950,519-370-2957,http://www.sve.bwdsb.on.ca,www.bwdsb.on.ca,360,44.59473,-80.5828,0,100,0,0,10,0,63%,-4.0,66%,7.0,50%,-9.0,N/D,,N/D,,N/D,,,,,,,,20,25,2020-09-04,1,1,1,0,0
B66001,Bluewater DSB,Pub Dist Sch Brd (E/F),540200,Sullivan Community School,Public,Not applicable,Elementary,English,JK-8,,,136285 Grey Rd 40 3,Chatsworth,Chatsworth,Ontario,N0H1G0,519-794-2785,519-370-2963,http://www.sul.bwdsb.on.ca,www.bwdsb.on.ca,155,44.40274,-80.9897,0,100,0,0,10,0,53%,-15.0,33%,-20.0,40%,-7.0,69%,-10.0,62%,-17.0,44%,1.0,,,,,,,30,15,2020-09-04,1,1,1,1,0
B66001,Bluewater DSB,Pub Dist Sch Brd (E/F),569565,Walkerton District Community School,Public,Not applicable,Elementary,English,JK-8,,,1320 Yonge St. S,Brockton,Walkerton,Ontario,N0G2V0,519-881-1780,,http://www.wdcs.bwdsb.on.ca/,www.bwdsb.on.ca,400,44.117259999999995,-81.1476,0,100,0,0,20,0,83%,23.0,97%,46.0,77%,14.0,49%,-18.0,49%,-11.0,16%,-8.0,,,,,,,20,25,2020-09-04,1,1,1,1,0
B66001,Bluewater DSB,Pub Dist Sch Brd (E/F),950262,Walkerton District Community School,Public,Not applicable,Secondary,English,9-12,,Box 1510,1320 Yonge St South,Brockton,Walkerton,Ontario,N0G2V0,519-881-1780,519-370-2965,http://www.wdss.bwdsb.on.ca,www.bwdsb.on.ca,420,44.11732,-81.1477,0,100,0,0,40,0,,,,,,,,,,,,,80%,20.0,39%,9.0,70%,-10.0,10,25,2020-09-04,0,0,0,1,1
B67164,Brant Haldimand Norfolk CDSB,Cath Dist Sch Brd (E/F),688088,Assumption College School High School,Catholic,Not applicable,Secondary,English,9-12,,,257 Shellard Lane,Brantford,Brantford,Ontario,N3T0M7,519-751-2030,519-751-0125,http://www.assumptionlions.com/,www.bhncdsb.ca,1545,43.12153,-80.2974,1,100,1,1,20,2,,,,,,,,,,,,,85%,0.0,60%,12.0,79%,0.0,12,26,2020-09-04,0,0,0,1,1
B67164,Brant Haldimand Norfolk CDSB,Cath Dist Sch Brd (E/F),690015,Blessed Sacrament School,Catholic,Not applicable,Elementary,English,JK-8,,,185 King St W,Brant County,Burford,Ontario,N0E1A0,519-449-2984,,http://www.blessedsacramentburford.ca/,www.bhncdsb.ca,210,43.100809999999996,-80.443,5,100,0,5,10,0,63%,-11.0,42%,-19.0,26%,-17.0,81%,-9.0,75%,10.0,38%,3.0,,,,,,,10,35,2020-09-04,1,1,1,1,0
B67164,Brant Haldimand Norfolk CDSB,Cath Dist Sch Brd (E/F),696900,Christ the King School,Catholic,Not applicable,Elementary,English,JK-8,,,165 Dufferin Ave,Brantford,Brantford,Ontario,N3T4R4,519-759-4211,,http://www.christthekingbrantford.ca/,www.bhncdsb.ca,175,43.14795,-80.2832,0,100,0,5,20,0,70%,-10.0,83%,13.0,61%,31.0,93%,33.0,87%,-3.0,53%,13.0,,,,,,,25,20,2020-09-04,1,1,1,1,0
B67164,Brant Haldimand Norfolk CDSB,Cath Dist Sch Brd (E/F),714453,Holy Cross School,Catholic,Not applicable,Elementary,English,JK-8,,,358 Marlborough St,Brantford,Brantford,Ontario,N3S4V1,519-756-5032,,http://www.holycrossbrantford.ca/,www.bhncdsb.ca,220,43.14676,-80.2419,0,100,5,0,20,0,46%,-12.0,50%,0.0,29%,-6.0,78%,13.0,91%,26.0,26%,-3.0,,,,,,,30,10,2020-09-04,1,1,1,1,0
B67164,Brant Haldimand Norfolk CDSB,Cath Dist Sch Brd (E/F),716960,Holy Family School,Catholic,Not applicable,Elementary,English,JK-8,,,20 Sunset Dr,Brant County,Paris,Ontario,N3L3W4,519-442-5333,,http://www.holyfamilyparis.ca/,www.bhncdsb.ca,140,43.206590000000006,-80.3899,0,100,0,0,10,0,79%,-21.0,86%,-14.0,57%,-25.0,72%,-14.0,72%,-7.0,33%,-17.0,,,,,,,5,30,2020-09-04,1,1,1,1,0
B67164,Brant Haldimand Norfolk CDSB,Cath Dist Sch Brd (E/F),720232,Holy Trinity Catholic High School,Catholic,Not applicable,Secondary,English,9-12,,,128 Evergreen Hill Rd,Norfolk County,Simcoe,Ontario,N3Y4N5,519-429-3600,519-429-3603,http://www.trinitycatholic.ca/,www.bhncdsb.ca,995,42.82441,-80.3115,3,99,4,3,15,2,,,,,,,,,,,,,85%,-1.0,59%,9.0,83%,-5.0,11,20,2020-09-04,0,0,0,1,1
B67164,Brant Haldimand Norfolk CDSB,Cath Dist Sch Brd (E/F),750259,Jean Vanier Catholic Elementary School,Catholic,Not applicable,Elementary,English,JK-8,,,120 NINTH AVE,Brantford,BRANTFORD,Ontario,N3S1E7,519-753-5283,,http://www.jeanvanierbrantford.ca/,www.bhncdsb.ca,355,43.1212,-80.2496,0,100,0,0,10,5,89%,18.0,65%,0.0,65%,30.0,88%,18.0,92%,40.0,64%,42.0,,,,,,,30,15,2020-09-04,1,1,1,1,0
B67164,Brant Haldimand Norfolk CDSB,Cath Dist Sch Brd (E/F),736481,Notre Dame Catholic Catholic Elementary School,Catholic,Not applicable,Elementary,English,JK-8,,,35 Braemar Ave,Haldimand County,Caledonia,Ontario,N3W2M5,905-765-0649,,http://www.notredamecaledonia.ca/,www.bhncdsb.ca,280,43.061809999999994,-79.9638,5,95,0,0,10,0,93%,16.0,76%,-10.0,79%,15.0,93%,-1.0,96%,13.0,81%,18.0,,,,,,,5,30,2020-09-04,1,1,1,1,0
B67164,Brant Haldimand Norfolk CDSB,Cath Dist Sch Brd (E/F),739200,Notre Dame School,Catholic,Not applicable,Elementary,English,JK-8,,,238 Brantwood Park Rd,Brantford,Brantford,Ontario,N3P1N9,519-756-2288,,http://www.notredamebrantford.ca/,www.bhncdsb.ca,310,43.181540000000005,-80.236,0,100,0,5,15,0,81%,-2.0,73%,-7.0,54%,-19.0,67%,23.0,67%,29.0,21%,-4.0,,,,,,,15,25,2020-09-04,1,1,1,1,0
B67164,Brant Haldimand Norfolk CDSB,Cath Dist Sch Brd (E/F),743968,Our Lady of Fatima School,Catholic,Not applicable,Elementary,English,JK-8,,,120 Talbot Rd,Norfolk County,Courtland,Ontario,N0J1E0,519-688-0049,,http://www.ourladyoffatimacourtland.ca/,www.bhncdsb.ca,95,42.83766,-80.6339,0,100,0,0,10,0,N/R,,N/R,,N/R,,N/R,,N/R,,N/R,,,,,,,,10,20,2020-09-04,1,1,1,1,0
B67164,Brant Haldimand Norfolk CDSB,Cath Dist Sch Brd (E/F),749125,Our Lady of Providence Catholic Elementary School,Catholic,Not applicable,Elementary,English,JK-8,,,55 Kent Rd,Brantford,Brantford,Ontario,N3R7X8,519-758-5056,,http://www.olop.ca/,www.bhncdsb.ca,325,43.17546,-80.2852,0,100,0,0,5,5,90%,4.0,90%,-2.0,70%,5.0,89%,9.0,92%,8.0,64%,16.0,,,,,,,10,45,2020-09-04,1,1,1,1,0
B67164,Brant Haldimand Norfolk CDSB,Cath Dist Sch Brd (E/F),753084,Resurrection School,Catholic,Not applicable,Elementary,English,JK-8,,,17 Ravenwood Rd,Brantford,Brantford,Ontario,N3R6L4,519-752-5900,,http://www.resurrectionbrantford.ca/,www.bhncdsb.ca,130,43.18063,-80.258,5,100,0,0,15,0,85%,,55%,,75%,,85%,2.0,69%,2.0,46%,38.0,,,,,,,15,25,2020-09-04,1,1,1,1,0
B67164,Brant Haldimand Norfolk CDSB,Cath Dist Sch Brd (E/F),762756,Sacred Heart Catholic Elementary School,Catholic,Not applicable,Elementary,English,JK-8,,,180 GRANDVILLE CIR,Brant County,PARIS,Ontario,N3L0A9,519-442-4443,,http://www.sacredheartparis.ca/,www.bhncdsb.ca,310,43.22801,-80.4171,0,100,0,0,10,0,94%,18.0,94%,15.0,82%,23.0,94%,7.0,97%,16.0,40%,-28.0,,,,,,,5,40,2020-09-04,1,1,1,1,0
B67164,Brant Haldimand Norfolk CDSB,Cath Dist Sch Brd (E/F),759309,Sacred Heart School,Catholic,Not applicable,Elementary,English,JK-8,,,26 Albert St,Norfolk County,Langton,Ontario,N0E1G0,519-875-2556,,http://www.sacredheartlangton.ca/,www.bhncdsb.ca,165,42.74055,-80.5818,0,100,0,0,10,0,84%,-11.0,74%,-26.0,68%,-18.0,94%,7.0,89%,2.0,33%,-32.0,,,,,,,15,15,2020-09-04,1,1,1,1,0
B67164,Brant Haldimand Norfolk CDSB,Cath Dist Sch Brd (E/F),751898,St John's College,Catholic,Not applicable,Secondary,English,9-12,,,80 Paris Rd,Brantford,Brantford,Ontario,N3R1H9,519-759-2318,519-751-0526,http://www.sjconline.ca/,www.bhncdsb.ca,1080,43.160379999999996,-80.2885,4,100,1,1,15,2,,,,,,,,,,,,,74%,1.0,48%,-8.0,86%,3.0,12,27,2020-09-04,0,0,0,1,1
B67164,Brant Haldimand Norfolk CDSB,Cath Dist Sch Brd (E/F),704940,St. Basil Catholic Elementary School,Catholic,Not applicable,Elementary,English,JK-8,,,365 Blackburn Drive,Brantford,Brantford,Ontario,N3T0G5,519-752-4111,,http://www.stbasilbrantford.ca/,www.bhncdsb.ca,485,43.11262,-80.2969,5,100,0,0,10,0,80%,16.0,55%,-12.0,67%,16.0,83%,-7.0,85%,-2.0,64%,3.0,,,,,,,10,40,2020-09-04,1,1,1,1,0
B67164,Brant Haldimand Norfolk CDSB,Cath Dist Sch Brd (E/F),779067,St. Bernard of Clairvaux School,Catholic,Not applicable,Elementary,English,JK-8,,,250 Washington St,Norfolk County,Waterford,Ontario,N0E1Y0,519-443-8607,,http://www.stbernardofclairvauxwaterford.ca/,www.bhncdsb.ca,220,42.9263,-80.2931,0,100,0,0,5,0,77%,-10.0,68%,-5.0,59%,-14.0,88%,0.0,82%,0.0,53%,-6.0,,,,,,,10,30,2020-09-04,1,1,1,1,0
B67164,Brant Haldimand Norfolk CDSB,Cath Dist Sch Brd (E/F),782050,St. Cecilia's School,Catholic,Not applicable,Elementary,English,JK-8,,,3 Lynn Park Ave,Norfolk County,Port Dover,Ontario,N0A1N5,519-583-0231,,http://www.stceciliaportdover.ca/,www.bhncdsb.ca,120,42.795840000000005,-80.2219,5,100,5,5,10,5,N/R,,N/R,,N/R,,80%,-7.0,80%,7.0,60%,13.0,,,,,,,10,20,2020-09-04,1,1,1,1,0
B67164,Brant Haldimand Norfolk CDSB,Cath Dist Sch Brd (E/F),789984,St. Frances Cabrini School,Catholic,Not applicable,Elementary,English,JK-8,,,373 Northern Ave,Norfolk County,Delhi,Ontario,N4B2R4,519-582-2470,,http://www.stfrancescabrinidelhi.ca/,www.bhncdsb.ca,300,42.85253,-80.4887,0,95,0,0,10,0,70%,-6.0,88%,20.0,76%,24.0,93%,5.0,93%,17.0,74%,-6.0,,,,,,,15,10,2020-09-04,1,1,1,1,0
B67164,Brant Haldimand Norfolk CDSB,Cath Dist Sch Brd (E/F),793256,St. Gabriel Catholic Catholic Elementary School,Catholic,Not applicable,Elementary,English,JK-8,,,14 Flanders Dr,Brantford,Brantford,Ontario,N3T6M2,519-756-4706,,http://www.stgabrielbrantford.ca/,www.bhncdsb.ca,410,43.124159999999996,-80.2943,0,100,0,0,10,0,93%,5.0,97%,11.0,73%,6.0,84%,2.0,93%,13.0,50%,15.0,,,,,,,5,40,2020-09-04,1,1,1,1,0
B67164,Brant Haldimand Norfolk CDSB,Cath Dist Sch Brd (E/F),810827,St. Joseph's School,Catholic,Not applicable,Elementary,English,JK-8,,,34 Potts Rd,Norfolk County,Simcoe,Ontario,N3Y2S8,519-426-0820,,http://www.stjosephsimcoe.ca/,www.bhncdsb.ca,530,42.83245,-80.2952,4,98,3,3,9,1,90%,10.0,92%,3.0,88%,20.0,96%,11.0,92%,9.0,52%,10.0,,,,,,,19,28,2020-09-04,1,1,1,1,0
B67164,Brant Haldimand Norfolk CDSB,Cath Dist Sch Brd (E/F),818453,St. Leo School,Catholic,Not applicable,Elementary,English,JK-8,,,233 Memorial Dr,Brantford,Brantford,Ontario,N3R5T2,519-759-3314,,http://www.stleobrantford.ca/,www.bhncdsb.ca,325,43.184059999999995,-80.2685,0,100,0,0,10,0,82%,19.0,87%,48.0,61%,22.0,89%,-5.0,89%,0.0,59%,15.0,,,,,,,10,35,2020-09-04,1,1,1,1,0
B67164,Brant Haldimand Norfolk CDSB,Cath Dist Sch Brd (E/F),706139,St. Mary Catholic Learning Centre,Catholic,Adult,Secondary,English,9-12,,,455 Colborne Street,Brantford,Brantford,Ontario,N3S3N8,519-753-0552,519-753-6555,http://www.stmaryclc.ca/,www.bhncdsb.ca,,43.13889,-80.251,,,,,,,,,,,,,,,,,,,,,,,,,,,2020-09-04,0,0,0,1,1
B67164,Brant Haldimand Norfolk CDSB,Cath Dist Sch Brd (E/F),852434,St. Mary Catholic Learning Centre Day,Catholic,Alternative,Secondary,English,9-12,,,455 Colborne Street,Brantford,Brantford,Ontario,N3S3N8,519-753-0552,519-753-6555,http://www.stmaryclc.ca/,www.bhncdsb.ca,,43.13919,-80.2509,,,,,,,,,,,,,,,,,,,,,,,,,,,2020-09-04,0,0,0,1,1
B67164,Brant Haldimand Norfolk CDSB,Cath Dist Sch Brd (E/F),831450,St. Mary's School,Catholic,Not applicable,Elementary,English,JK-8,,,92 Main Street South,Haldimand County,Hagersville,Ontario,N0A1H0,905-768-5151,,http://www.stmaryhagersville.ca/,www.bhncdsb.ca,140,42.9571,-80.0572,0,100,0,0,15,0,87%,20.0,67%,-13.0,40%,-20.0,83%,7.0,50%,-9.0,50%,15.0,,,,,,,15,20,2020-09-04,1,1,1,1,0
B67164,Brant Haldimand Norfolk CDSB,Cath Dist Sch Brd (E/F),834831,St. Michael's C School,Catholic,Not applicable,Elementary,English,JK-8,,,972 St. John's RD,Norfolk County,SIMCOE,Ontario,N3Y4K1,519-426-5462,,http://www.stmichaelwalsh.ca/,www.bhncdsb.ca,105,42.76425,-80.3869,0,100,0,0,15,0,N/R,,N/R,,N/R,,82%,,91%,,45%,,,,,,,,10,20,2020-09-04,1,1,1,1,0
B67164,Brant Haldimand Norfolk CDSB,Cath Dist Sch Brd (E/F),834963,St. Michael's School,Catholic,Not applicable,Elementary,English,JK-8,,,209 Alder Street West,Haldimand County,Dunnville,Ontario,N1A1R3,905-774-6052,,http://www.stmichaeldunnville.ca/,www.bhncdsb.ca,240,42.906290000000006,-79.6201,0,100,0,0,5,0,78%,0.0,89%,6.0,74%,9.0,75%,-7.0,94%,26.0,50%,14.0,,,,,,,20,20,2020-09-04,1,1,1,1,0
B67164,Brant Haldimand Norfolk CDSB,Cath Dist Sch Brd (E/F),840530,St. Patrick School,Catholic,Not applicable,Elementary,English,JK-8,,,320 Fairview Dr,Brantford,Brantford,Ontario,N3R2X6,519-759-0380,,http://www.stpatrickbrantford.ca/,www.bhncdsb.ca,130,43.1699,-80.2592,5,100,0,0,10,0,N/R,,N/R,,N/R,,100%,,100%,,27%,,,,,,,,10,25,2020-09-04,1,1,1,1,0
B67164,Brant Haldimand Norfolk CDSB,Cath Dist Sch Brd (E/F),840556,St. Patrick's School,Catholic,Not applicable,Elementary,English,JK-8,,,81 Orkney St E,Haldimand County,Caledonia,Ontario,N3W1L3,905-765-4626,,http://www.stpatrickcaledonia.ca/,www.bhncdsb.ca,180,43.07555,-79.9473,10,100,0,5,10,5,93%,17.0,93%,22.0,67%,-4.0,100%,7.0,100%,21.0,28%,-36.0,,,,,,,5,35,2020-09-04,1,1,1,1,0
B67164,Brant Haldimand Norfolk CDSB,Cath Dist Sch Brd (E/F),844977,St. Peter School,Catholic,Not applicable,Elementary,English,JK-8,,,175 Glenwood Dr,Brantford,Brantford,Ontario,N3S3H1,519-752-1611,,http://www.stpeterbrantford.ca/,www.bhncdsb.ca,170,43.14332,-80.2197,5,100,5,5,10,5,92%,39.0,77%,24.0,46%,5.0,100%,9.0,96%,5.0,62%,-6.0,,,,,,,20,25,2020-09-04,1,1,1,1,0
B67164,Brant Haldimand Norfolk CDSB,Cath Dist Sch Brd (E/F),846791,St. Pius X Catholic Elementary School,Catholic,Not applicable,Elementary,English,JK-8,,,127 Wood St,Brantford,Brantford,Ontario,N3R2L4,519-753-6422,,http://www.stpiusxbrantford.ca/,www.bhncdsb.ca,305,43.16488,-80.2723,5,100,0,0,15,0,53%,10.0,36%,-25.0,36%,4.0,79%,-11.0,79%,-8.0,45%,0.0,,,,,,,25,25,2020-09-04,1,1,1,1,0
B67164,Brant Haldimand Norfolk CDSB,Cath Dist Sch Brd (E/F),850950,St. Stephen's School,Catholic,Not applicable,Elementary,English,JK-8,,,17 Brant Street West,Haldimand County,Cayuga,Ontario,N0A1E0,905-772-3863,,http://www.ststephencayuga.ca/,www.bhncdsb.ca,125,42.94849,-79.8579,0,100,0,0,10,0,82%,29.0,71%,18.0,82%,29.0,92%,5.0,100%,27.0,75%,28.0,,,,,,,10,15,2020-09-04,1,1,1,1,0
B67164,Brant Haldimand Norfolk CDSB,Cath Dist Sch Brd (E/F),853038,St. Theresa School,Catholic,Not applicable,Elementary,English,JK-8,,,12 Dalewood Ave RR 4,Brantford,Brantford,Ontario,N3T0M5,519-753-8953,,http://www.sttheresabrantford.ca/,www.bhncdsb.ca,170,43.13095,-80.3284,0,100,0,0,10,0,56%,-32.0,52%,-29.0,59%,-16.0,94%,19.0,88%,5.0,44%,2.0,,,,,,,25,20,2020-09-04,1,1,1,1,0
B67008,Bruce-Grey CDSB,Cath Dist Sch Brd (E/F),721255,Ecole Immaculee-Conception Separate School,Catholic,Not applicable,Elementary,English,JK-8,,,201 Concession 12,South Bruce,Formosa,Ontario,N0G1W0,519-367-2900,519-367-5283,http://ics.bgcdsb.org/,www.bgcdsb.org,280,44.06793,-81.2104,0,100,0,0,20,0,81%,-19.0,100%,0.0,58%,-12.0,100%,9.0,100%,4.0,46%,-28.0,,,,,,,20,20,2020-09-04,1,1,1,1,0
B67008,Bruce-Grey CDSB,Cath Dist Sch Brd (E/F),711985,Holy Family Separate School,Catholic,Not applicable,Elementary,English,JK-8,,,334 10th Ave,Hanover,Hanover,Ontario,N4N2N5,519-364-2760,519-364-1685,http://hfs.bgcdsb.org/,www.bgcdsb.org,305,44.14849,-81.0259,0,100,0,0,25,0,77%,8.0,71%,-8.0,45%,0.0,62%,-14.0,62%,-9.0,16%,-28.0,,,,,,,15,15,2020-09-04,1,1,1,1,0
B67008,Bruce-Grey CDSB,Cath Dist Sch Brd (E/F),710296,Mary Immaculate Community School,Catholic,Not applicable,Elementary,English,JK-8,,,6 Ann St,Brockton,Chepstow,Ontario,N0G1K0,519-366-2731,519-366-2421,http://misbgcdsb.sharpschool.com/,www.bgcdsb.org,125,44.15323,-81.2792,0,100,0,0,20,0,100%,,92%,,85%,,76%,-12.0,76%,-12.0,41%,-12.0,,,,,,,10,20,2020-09-04,1,1,1,1,0
B67008,Bruce-Grey CDSB,Cath Dist Sch Brd (E/F),737399,Notre Dame Catholic School,Catholic,Not applicable,Elementary,English,1-8,,,885 25th Street E,Owen Sound,Owen Sound,Ontario,N4K6X6,519-371-0161,519-371-6637,http://ndmbgcdsb.sharpschool.com/,www.bgcdsb.org,565,44.58869,-80.9224,2,100,0,0,28,0,74%,,64%,,37%,,78%,3.0,75%,11.0,41%,-8.0,,,,,,,20,32,2020-09-04,0,0,1,1,0
B67008,Bruce-Grey CDSB,Cath Dist Sch Brd (E/F),759430,Sacred Heart High School,Catholic,Not applicable,Secondary,English,9-12,,,450 Robinson St,Brockton,Walkerton,Ontario,N0G2V0,519-881-1900,519-881-4819,http://shhs.bgcdsb.org/,www.bgcdsb.org,695,44.12717,-81.1436,2,100,1,0,29,0,,,,,,,,,,,,,87%,10.0,29%,-18.0,80%,-3.0,11,24,2020-09-04,0,0,0,1,1
B67008,Bruce-Grey CDSB,Cath Dist Sch Brd (E/F),732133,Sacred Heart School,Catholic,Not applicable,Elementary,English,JK-8,,,18 Peter St,South Bruce,Mildmay,Ontario,N0G2J0,519-367-2685,519-367-2998,http://mshbgcdsb.sharpschool.com/,www.bgcdsb.org,120,44.04037,-81.117,0,100,0,0,30,0,93%,,93%,,86%,,100%,0.0,100%,8.0,100%,54.0,,,,,,,15,30,2020-09-04,1,1,1,1,0
B67008,Bruce-Grey CDSB,Cath Dist Sch Brd (E/F),864218,Sacred Heart Separate School,Catholic,Not applicable,Elementary,English,JK-8,,,18 Gordon St,South Bruce,Teeswater,Ontario,N0G2S0,519-392-6854,519-392-8597,http://tshbgcdsb.sharpschool.com/,www.bgcdsb.org,80,43.995329999999996,-81.2887,0,100,0,0,10,0,N/R,,N/R,,N/R,,90%,28.0,90%,36.0,60%,14.0,,,,,,,20,20,2020-09-04,1,1,1,1,0
B67008,Bruce-Grey CDSB,Cath Dist Sch Brd (E/F),774332,St Anthony's Separate School,Catholic,Not applicable,Elementary,English,JK-8,,,709 Russell St,Kincardine,Kincardine,Ontario,N2Z1R1,519-396-4330,519-396-7932,http://stabgcdsb.sharpschool.com/home/,www.bgcdsb.org,460,44.17023,-81.6228,0,100,0,5,25,0,84%,19.0,73%,-4.0,51%,-12.0,80%,-12.0,73%,-11.0,34%,-28.0,,,,,,,15,40,2020-09-04,1,1,1,1,0
B67008,Bruce-Grey CDSB,Cath Dist Sch Brd (E/F),776602,St Basil's Separate School,Catholic,Not applicable,Elementary,English,JK-2,,,925 9th Ave W,Owen Sound,Owen Sound,Ontario,N4K4N8,519-376-9370,519-376-0097,http://stbbgcdsb.sharpschool.com/,www.bgcdsb.org,405,44.56372,-80.9608,0,100,0,0,5,0,,,,,,,,,,,,,,,,,,,25,25,2020-09-04,1,1,1,0,0
B67008,Bruce-Grey CDSB,Cath Dist Sch Brd (E/F),751464,St Joseph's School,Catholic,Not applicable,Elementary,English,JK-8,,,584 STAFFORD ST,Saugeen Shores,PORT ELGIN,Ontario,N0H2C1,519-389-5495,519-389-3126,http://stjbgcdsb.sharpschool.com/,www.bgcdsb.org,205,44.43693,-81.3926,0,100,0,0,30,0,75%,-1.0,75%,-6.0,38%,-19.0,79%,11.0,79%,6.0,29%,-7.0,,,,,,,15,30,2020-09-04,1,1,1,1,0
B67008,Bruce-Grey CDSB,Cath Dist Sch Brd (E/F),776599,St Mary's High School,Catholic,Not applicable,Secondary,English,9-12,,,555 15th St E,Owen Sound,Owen Sound,Ontario,N4K1X2,519-376-4278,519-376-0793,http://smhs.bgcdsb.org/,www.bgcdsb.org,950,44.573859999999996,-80.9341,2,100,0,0,21,0,,,,,,,,,,,,,77%,-4.0,33%,1.0,63%,-5.0,13,24,2020-09-04,0,0,0,1,1
B67008,Bruce-Grey CDSB,Cath Dist Sch Brd (E/F),705098,St Peter's & St Paul's Separate School,Catholic,Not applicable,Elementary,English,JK-8,,,190 John St W,West Grey,Durham,Ontario,N0G1R0,519-369-2932,519-369-2361,http://stp.bgcdsb.org/,www.bgcdsb.org,135,44.185140000000004,-80.8221,0,100,0,0,25,0,88%,-4.0,50%,-42.0,69%,-8.0,88%,6.0,100%,6.0,44%,-3.0,,,,,,,20,20,2020-09-04,1,1,1,1,0
B67008,Bruce-Grey CDSB,Cath Dist Sch Brd (E/F),732800,St Teresa of Calcutta Catholic School,Catholic,Not applicable,Elementary,English,JK-8,,,81 Cemetery Rd,Brockton,Walkerton,Ontario,N0G2V0,519-881-1852,519-881-2083,http://mtsbgcdsb.sharpschool.com/,www.bgcdsb.org,270,44.115520000000004,-81.1478,5,100,0,0,20,0,54%,-26.0,54%,-31.0,17%,-58.0,84%,-16.0,80%,-12.0,68%,-17.0,,,,,,,15,30,2020-09-04,1,1,1,1,0
B67172,CDSB of Eastern Ontario,Cath Dist Sch Brd (E/F),689610,Bishop Macdonell Separate School,Catholic,Not applicable,Elementary,English,JK-6,,,300 Adolphus St.,Cornwall,Cornwall,Ontario,K6H3S6,613-933-6739,613-933-1310,http://www.bishopmacdonell.cdsbeo.on.ca/,www.cdsbeo.on.ca,305,45.0218,-74.72399999999999,0,100,0,0,35,0,40%,6.0,34%,-35.0,20%,10.0,59%,9.0,41%,-13.0,17%,9.0,,,,,,,45,10,2020-09-04,1,1,1,0,0
B67172,CDSB of Eastern Ontario,Cath Dist Sch Brd (E/F),715131,Holy Cross School,Catholic,Not applicable,Elementary,English,JK-6,,,521 Clothier Street West,North Grenville,Kemptville,Ontario,K0G1J0,613-258-7457,613-258-9867,www.holycross.cdsbeo.on.ca,www.cdsbeo.on.ca,540,45.0125,-75.6543,1,99,0,1,15,0,83%,17.0,83%,8.0,61%,12.0,84%,5.0,92%,16.0,44%,-1.0,,,,,,,9,39,2020-09-04,1,1,1,0,0
B67172,CDSB of Eastern Ontario,Cath Dist Sch Brd (E/F),828203,Holy Name of Mary Separate School,Catholic,Not applicable,Elementary,English,JK-8,,,110 Paterson St,Mississippi Mills,Almonte,Ontario,K0A1A0,613-256-2532,613-256-0899,www.hnom.cdsbeo.on.ca,www.cdsbeo.on.ca,380,45.2309,-76.1834,0,100,0,5,20,0,88%,11.0,88%,1.0,75%,10.0,76%,5.0,82%,11.0,27%,-14.0,,,,,,,10,40,2020-09-04,1,1,1,1,0
B67172,CDSB of Eastern Ontario,Cath Dist Sch Brd (E/F),821553,Holy Trinity Catholic Elementary School,Catholic,Not applicable,Elementary,English,7-8,,,18044 Tyotown Road 1,South Glengarry,Cornwall,Ontario,K6H5R5,613-936-0319,613-936-0663,http://www.holytrinityfalcons.cdsbeo.on.ca/,www.cdsbeo.on.ca,150,45.0446,-74.6705,20,90,0,0,20,0,,,,,,,,,,,,,,,,,,,25,20,2020-09-04,0,0,0,1,0
B67172,CDSB of Eastern Ontario,Cath Dist Sch Brd (E/F),715190,Holy Trinity Catholic Secondary School,Catholic,Not applicable,Secondary,English,9-12,,,18044 Tyotown Rd 1,South Glengarry,Cornwall,Ontario,K6H5R5,613-936-0319,613-936-0663,http://www.holytrinityfalcons.cdsbeo.on.ca/,www.cdsbeo.on.ca,520,45.0476,-74.6726,12,92,1,1,33,0,,,,,,,,,,,,,95%,3.0,52%,6.0,81%,10.0,20,22,2020-09-04,0,0,0,1,1
B67172,CDSB of Eastern Ontario,Cath Dist Sch Brd (E/F),696269,Iona Academy,Catholic,Not applicable,Elementary,English,JK-8,,,20019 Kings Road 2,South Glengarry,Williamstown,Ontario,K0C2J0,613-347-3518,613-347-1510,http://www.ionaacademy.cdsbeo.on.ca,www.cdsbeo.on.ca,170,45.2141,-74.5961,0,95,0,0,20,0,100%,20.0,100%,7.0,80%,7.0,100%,13.0,100%,4.0,86%,34.0,,,,,,,10,30,2020-09-04,1,1,1,1,0
B67172,CDSB of Eastern Ontario,Cath Dist Sch Brd (E/F),691127,J L Jordan Separate School,Catholic,Not applicable,Elementary,English,JK-6,,,294 First Ave,Brockville,Brockville,Ontario,K6V3B7,613-342-7711,613-342-6474,http://www.jljordan.cdsbeo.on.ca/,www.cdsbeo.on.ca,125,44.609390000000005,-75.6797,5,100,5,0,25,0,93%,31.0,93%,12.0,86%,42.0,68%,-12.0,82%,-11.0,45%,-15.0,,,,,,,25,35,2020-09-04,1,1,1,0,0
B67172,CDSB of Eastern Ontario,Cath Dist Sch Brd (E/F),753670,Mother Teresa Catholic School,Catholic,Not applicable,Elementary,English,JK-6,,,1035 Concession Rd,Russell,Russell,Ontario,K4R1G7,613-445-3788,613-445-3789,http://www.mtcsrussell.com,www.cdsbeo.on.ca,425,45.26345,-75.3612,0,95,0,0,20,0,72%,5.0,83%,-2.0,55%,4.0,90%,6.0,95%,5.0,43%,2.0,,,,,,,5,50,2020-09-04,1,1,1,0,0
B67172,CDSB of Eastern Ontario,Cath Dist Sch Brd (E/F),736457,Notre Dame Catholic High School,Catholic,Not applicable,Secondary,English,9-12,,,157 McKenzie St,Carleton Place,Carleton Place,Ontario,K7C4P2,613-253-4700,613-253-5544,http://www.notredame.cdsbeo.on.ca/,www.cdsbeo.on.ca,500,45.14297,-76.1583,5,95,0,0,35,0,,,,,,,,,,,,,80%,3.0,54%,21.0,78%,-6.0,5,35,2020-09-04,0,0,0,1,1
B67172,CDSB of Eastern Ontario,Cath Dist Sch Brd (E/F),697630,Notre Dame Catholic Separate School,Catholic,Not applicable,Elementary,English,7-8,,,157 McKenzie St,Carleton Place,Carleton Place,Ontario,K7C4P2,613-253-4700,613-253-5544,http://www.notredame.cdsbeo.on.ca/,www.cdsbeo.on.ca,165,45.14297,-76.1583,0,100,0,0,35,5,,,,,,,,,,,,,,,,,,,10,40,2020-09-04,0,0,0,1,0
B67172,CDSB of Eastern Ontario,Cath Dist Sch Brd (E/F),741361,Our Lady of Good Counsel Separate School,Catholic,Not applicable,Elementary,English,JK-8,,,52 Dickinson Dr,South Stormont,Ingleside,Ontario,K0C1M0,613-537-2556,613-537-8540,http://www.ourlady.cdsbeo.on.ca/,www.cdsbeo.on.ca,225,45.0034,-74.9915,0,100,0,0,10,0,93%,36.0,67%,-33.0,37%,1.0,95%,-5.0,86%,-7.0,57%,-10.0,,,,,,,10,35,2020-09-04,1,1,1,1,0
B67172,CDSB of Eastern Ontario,Cath Dist Sch Brd (E/F),750646,Pope John Paul II Regional Elementary School,Catholic,Not applicable,Elementary,English,JK-6,,,3818 Legault Rd,Clarence-Rockland,Hammond,Ontario,K0A2A0,613-487-3075,613-487-3083,http://www.pjpii.ca/,www.cdsbeo.on.ca,190,45.44042,-75.2195,10,95,0,0,20,0,82%,-13.0,75%,-14.0,57%,-6.0,67%,-1.0,62%,-9.0,38%,17.0,,,,,,,10,30,2020-09-04,1,1,1,0,0
B67172,CDSB of Eastern Ontario,Cath Dist Sch Brd (E/F),759040,Sacred Heart School,Catholic,Not applicable,Elementary,English,JK-6,,,1500 Cumberland Street,Cornwall,Cornwall,Ontario,K6J5V9,613-933-3337,613-933-0623,http://www.sacredheart.cdsbeo.on.ca/,www.cdsbeo.on.ca,375,45.035779999999995,-74.7434,5,100,0,5,35,0,66%,-1.0,47%,-26.0,24%,-9.0,60%,-15.0,57%,-14.0,9%,-37.0,,,,,,,35,10,2020-09-04,1,1,1,0,0
B67172,CDSB of Eastern Ontario,Cath Dist Sch Brd (E/F),758787,Sacred Heart of Jesus Separate School,Catholic,Not applicable,Elementary,English,JK-8,,,134 North St,Lanark Highlands,Lanark,Ontario,K0G1K0,613-259-2113,613-259-5343,http://www.cdsbeo.on.ca/?school=sacred-heart-of-jesus-catholic-school,www.cdsbeo.on.ca,80,45.0189,-76.3693,0,100,0,0,30,0,83%,13.0,58%,-12.0,42%,-8.0,N/R,,N/R,,N/R,,,,,,,,20,20,2020-09-04,1,1,1,1,0
B67172,CDSB of Eastern Ontario,Cath Dist Sch Brd (E/F),769312,St Andrew's Separate School,Catholic,Not applicable,Elementary,English,JK-8,,,17283 County Road 18,Cornwall,St. Andrew's West,Ontario,K0C2A0,613-932-6592,613-932-2763,http://www.standrews.cdsbeo.on.ca,www.cdsbeo.on.ca,205,45.0965,-74.8003,5,100,0,0,30,0,87%,11.0,87%,16.0,61%,8.0,87%,23.0,90%,30.0,19%,11.0,,,,,,,10,35,2020-09-04,1,1,1,1,0
B67172,CDSB of Eastern Ontario,Cath Dist Sch Brd (E/F),771651,St Anne's School,Catholic,Not applicable,Elementary,English,JK-6,,,607 Surgenor Ave,Cornwall,Cornwall,Ontario,K6J2H5,613-933-4615,613-933-7982,http://www.stanne.cdsbeo.on.ca,www.cdsbeo.on.ca,260,45.0186,-74.7685,5,100,0,0,15,0,85%,29.0,74%,5.0,49%,11.0,94%,8.0,97%,16.0,61%,23.0,,,,,,,20,25,2020-09-04,1,1,1,0,0
B67172,CDSB of Eastern Ontario,Cath Dist Sch Brd (E/F),788686,St Edward's School,Catholic,Not applicable,Elementary,English,JK-8,,,51 Bedford St,Westport,Westport,Ontario,K0G1X0,613-273-2926,613-273-2636,http://www.stedward.cdsbeo.on.ca/,www.cdsbeo.on.ca,75,44.67964,-76.4024,0,100,0,0,20,0,N/R,,N/R,,N/R,,N/R,,N/R,,N/R,,,,,,,,20,30,2020-09-04,1,1,1,1,0
B67172,CDSB of Eastern Ontario,Cath Dist Sch Brd (E/F),806102,St Finnan's Catholic School,Catholic,Not applicable,Elementary,English,JK-8,,,220 Main St,North Glengarry,Alexandria,Ontario,K0C1A0,613-525-4274,613-525-4276,http://stfinnans.cdsbeo.on.ca,www.cdsbeo.on.ca,125,45.3051,-74.632,5,100,0,5,45,0,65%,15.0,65%,-6.0,35%,-8.0,58%,-23.0,58%,-23.0,0%,-56.0,,,,,,,15,30,2020-09-04,1,1,1,1,0
B67172,CDSB of Eastern Ontario,Cath Dist Sch Brd (E/F),751502,St Francis Xavier Catholic High School,Catholic,Not applicable,Secondary,English,9-12,,,1235 Russell Rd,Clarence-Rockland,Hammond,Ontario,K0A2A0,613-487-2913,613-487-3856,http://www.stfx-hammond.cdsbeo.on.ca,www.cdsbeo.on.ca,270,45.42100000000001,-75.2134,10,90,0,0,35,0,,,,,,,,,,,,,56%,-26.0,41%,-17.0,58%,-33.0,10,25,2020-09-04,0,0,0,1,1
B67172,CDSB of Eastern Ontario,Cath Dist Sch Brd (E/F),792365,St Francis Xavier Elementary School,Catholic,Not applicable,Elementary,English,7-8,,,1235 Russell Rd,Clarence-Rockland,Hammond,Ontario,K0A2A0,613-487-2913,613-487-3856,http://www.stfx-hammond.cdsbeo.on.ca,www.cdsbeo.on.ca,120,45.4211,-75.2136,10,85,5,0,40,0,,,,,,,,,,,,,,,,,,,5,35,2020-09-04,0,0,0,1,0
