,ID,NOM_TOPOGRAPHIE,NO_CIVIQUE,RUE,DESCRIPTION,SUPERFICIE,PERIMETRE,GEOMETRIE,LONGITUDE,LATITUDE
0,102737,Aéroport international Jean-Lesage,,Rue Principale,Aéroport,0,0,POINT (-71.39565085022153 46.78920649481219),46.78920649481219,-71.39565085022153
1,200690,Agrégats Sainte-Foy Inc.,,Avenue de la Montagne Ouest,Carrières  et Sablières,0,0,POINT (-71.45933170855707 46.83540841116258),46.83540841116258,-71.45933170855707
2,102339,Aréna Bardy,2280.0,Avenue Monseigneur-Gosselin,Arénas,0,0,POINT (-71.22300074600778 46.844113207386556),46.844113207386556,-71.22300074600778
3,102303,Aréna de Loretteville,86.0,Boulevard des Étudiants,Arénas,0,0,POINT (-71.36250607953166 46.85656364468809),46.85656364468809,-71.36250607953166
4,102341,Aréna Duberger,3050.0,Boulevard Central,Arénas,0,0,POINT (-71.29349753000575 46.816447407048436),46.816447407048436,-71.29349753000575
5,102343,Aréna Gaétan-Duchesne,2650.0,Avenue D'Alembert,Arénas,0,0,POINT (-71.3249928592834 46.80944194853394),46.80944194853394,-71.3249928592834
6,201653,Aréna Michel-Labadie,3705.0,Avenue Chauveau,Arénas,0,0,POINT (-71.34661228992772 46.83254217406934),46.83254217406934,-71.34661228992772
7,102317,Aréna Patrick-Poulin,220.0,Avenue du Chanoine-Côté,Arénas,0,0,POINT (-71.25551226552928 46.81557545013006),46.81557545013006,-71.25551226552928
8,102335,Aréna Réjean-Lemelin,1300.0,Rue Pompadour,Arénas,0,0,POINT (-71.26643240047149 46.88626449750954),46.88626449750954,-71.26643240047149
9,102327,Aréna 2 Glaces Val-Bélair,1515.0,Rue de l'Innovation,Arénas,0,0,POINT (-71.41794441998093 46.85899132689341),46.85899132689341,-71.41794441998093
10,102337,Arpidrome,750.0,Rue de la Sorbonne,Arénas,0,0,POINT (-71.25704138456352 46.86439225765598),46.86439225765598,-71.25704138456352
11,201259,Atelier Vachon,55.0,Rue Vachon,Pavillons de services,0,0,POINT (-71.15868736716709 46.8867972806146),46.8867972806146,-71.15868736716709
12,201685,Baie de Beauport,1.0,Boulevard Henri-Bourassa,Centres de plein air,0,0,POINT (-71.19875541795886 46.83745810229145),46.83745810229145,-71.19875541795886
13,103101,Base de plein air de Sainte-Foy,3137.0,Rue Laberge,Centres de plein air,0,0,POINT (-71.33448217793068 46.789034055931225),46.789034055931225,-71.33448217793068
14,106095,Base de plein air La Découverte,1560.0,Avenue de la Montagne Ouest,Centres de plein air,0,0,POINT (-71.46036247842954 46.83250608552192),46.83250608552192,-71.46036247842954
15,200916,Bassin de rétention Adrien-Dufresne,,Rue d'Everell,Bassins de rétention,0,0,POINT (-71.21155935957617 46.87122164867768),46.87122164867768,-71.21155935957617
16,202652,Bassin de rétention Adrien-Sanfaçon,,Rue Adrien-Sanfaçon,Bassins de rétention,0,0,POINT (-71.32614273701566 46.870534816902016),46.870534816902016,-71.32614273701566
17,200979,Bassin de rétention Alfred,,Rue Alfred,Bassins de rétention,0,0,POINT (-71.19839647250177 46.91317799181824),46.91317799181824,-71.19839647250177
18,200591,Bassin de rétention Alice-Trépanier,,Rue Alice-Trépanier,Bassins de rétention,0,0,POINT (-71.30962778572854 46.840369268598096),46.840369268598096,-71.30962778572854
19,202807,Bassin de rétention Ambroise,,Rue des Achillées,Bassins de rétention,0,0,POINT (-71.40068474818797 46.83673068763432),46.83673068763432,-71.40068474818797
20,200525,Bassin de rétention Amélia-Fillion,,Rue Amélia-Fillion,Bassins de rétention,0,0,POINT (-71.30535369171393 46.8978069858435),46.8978069858435,-71.30535369171393
21,200445,Bassin de rétention Apollon,,Rue Apollon,Bassins de rétention,0,0,POINT (-71.4026334724377 46.8353761893393),46.8353761893393,-71.4026334724377
22,202649,Bassin de rétention Arthur-Langevin,,Rue Arthur-Langevin,Bassins de rétention,0,0,POINT (-71.24295441533776 46.88417504160282),46.88417504160282,-71.24295441533776
23,202650,Bassin de rétention Astrid,,Rue Astrid,Bassins de rétention,0,0,POINT (-71.24346664684842 46.88317227579195),46.88317227579195,-71.24346664684842
24,202643,Bassin de rétention Beauchesne,,Rue Beauchesne,Bassins de rétention,0,0,POINT (-71.21561668524751 46.896982290898634),46.896982290898634,-71.21561668524751
25,200881,Bassin de rétention Beaurevoir,,Boulevard Robert-Bourassa,Bassins de rétention,0,0,POINT (-71.31639851765223 46.837513794886156),46.837513794886156,-71.31639851765223
26,202737,Bassin de rétention Bernadet,,Rue Frédéric-Légaré,Bassins de rétention,0,0,POINT (-71.37004431731167 46.857046392301875),46.857046392301875,-71.37004431731167
27,203001,Bassin de rétention Bigorre,,Rue de Bigorre,Bassins de rétention,0,0,POINT (-71.31020906991444 46.89781049093098),46.89781049093098,-71.31020906991444
28,202644,Bassin de rétention Blanche-Lamontagne,,Rue Blanche-Lamontagne,Bassins de rétention,0,0,POINT (-71.21744179860838 46.86712172199915),46.86712172199915,-71.21744179860838
29,200901,Bassin de rétention Boyte,121.0,Rue Albert-Ouellet,Bassins de rétention,0,0,POINT (-71.3034837674141 46.89960847291071),46.89960847291071,-71.3034837674141
30,200819,Bassin de rétention Cambert,,Rue Cambert,Bassins de rétention,0,0,POINT (-71.21579066199259 46.904102698442756),46.904102698442756,-71.21579066199259
31,200980,Bassin de rétention Canac-Marquis,,Rue des Passerins,Bassins de rétention,0,0,POINT (-71.1824651231024 46.86844381440098),46.86844381440098,-71.1824651231024
32,200853,Bassin de rétention Cassiopée-1,,Rue de Triton,Bassins de rétention,0,0,POINT (-71.32963971898627 46.88229810071922),46.88229810071922,-71.32963971898627
33,200974,Bassin de rétention Céleste,,Rue Céleste,Bassins de rétention,0,0,POINT (-71.40927470446267 46.840345787810314),46.840345787810314,-71.40927470446267
34,200828,Bassin de rétention Chauveau,,Avenue Chauveau,Bassins de rétention,0,0,POINT (-71.33715527184262 46.838787012095146),46.838787012095146,-71.33715527184262
35,202658,Bassin de rétention Claire-Bonenfant,,Rue Claire-Bonenfant,Bassins de rétention,0,0,POINT (-71.31400886845502 46.8390872427287),46.8390872427287,-71.31400886845502
36,200747,Bassin de rétention Cliche,,Rue Cliche,Bassins de rétention,0,0,POINT (-71.2938613005235 46.90333757530131),46.90333757530131,-71.2938613005235
37,200589,Bassin de rétention Colette-Samson,,Rue Colette-Samson,Bassins de rétention,0,0,POINT (-71.31504528117215 46.843189245859485),46.843189245859485,-71.31504528117215
38,200849,Bassin de rétention Corbier,,Rue Corbier,Bassins de rétention,0,0,POINT (-71.39878648492147 46.84335179542109),46.84335179542109,-71.39878648492147
39,200969,Bassin de rétention Coursol,,Boulevard Robert-Bourassa,Bassins de rétention,0,0,POINT (-71.32104362751502 46.840527232936026),46.840527232936026,-71.32104362751502
40,200831,Bassin de rétention de Barcelone Est,,Rue de la Rive-Boisée Nord,Bassins de rétention,0,0,POINT (-71.32751153755986 46.837597614742464),46.837597614742464,-71.32751153755986
41,200829,Bassin de rétention de Barcelone Ouest,,Rue de Barcelone,Bassins de rétention,0,0,POINT (-71.32947159774886 46.83670249260075),46.83670249260075,-71.32947159774886
42,200827,Bassin de rétention de Broqueville,,Rue De Broqueville,Bassins de rétention,0,0,POINT (-71.2153535847353 46.88528193597825),46.88528193597825,-71.2153535847353
43,200891,Bassin de rétention de Budapest,,Avenue du Patrimoine-Mondial,Bassins de rétention,0,0,POINT (-71.34276068269641 46.84787067026748),46.84787067026748,-71.34276068269641
44,200854,Bassin de rétention de Cassiopée-2,,Rue de Triton,Bassins de rétention,0,0,POINT (-71.32893118965055 46.882652139809),46.882652139809,-71.32893118965055
45,200449,Bassin de rétention de Champigny Est,,Rue de Champigny Est,Bassins de rétention,0,0,POINT (-71.36640418874852 46.784127566205264),46.784127566205264,-71.36640418874852
46,200961,Bassin de rétention de Chavannes,,Rue de Chavannes,Bassins de rétention,0,0,POINT (-71.32015555835508 46.92838867639836),46.92838867639836,-71.32015555835508
47,200971,Bassin de rétention de Chevreuse,,Boulevard Robert-Bourassa,Bassins de rétention,0,0,POINT (-71.33333199563833 46.84626579852532),46.84626579852532,-71.33333199563833
48,200892,Bassin de rétention de Compostelle,,Avenue du Patrimoine-Mondial,Bassins de rétention,0,0,POINT (-71.34058968144268 46.848309550173326),46.848309550173326,-71.34058968144268
49,200959,Bassin de rétention de Gaudarville,,Avenue de Gaudarville,Bassins de rétention,0,0,POINT (-71.35109993708244 46.78221514424351),46.78221514424351,-71.35109993708244
50,202663,Bassin de rétention de Genève,,Rue de Genève,Bassins de rétention,0,0,POINT (-71.32054209206306 46.9167158616297),46.9167158616297,-71.32054209206306
51,200369,Bassin de rétention de la Belle-Arrivée,,Rue de la Boudinière,Bassins de rétention,0,0,POINT (-71.3208987018223 46.83583348701107),46.83583348701107,-71.3208987018223
52,202664,Bassin de rétention de la Belle-Dame,,Rue Gaudias-Villeneuve,Bassins de rétention,0,0,POINT (-71.35185192841804 46.90606394667068),46.90606394667068,-71.35185192841804
53,203006,Bassin de rétention de la Chaudière,,Avenue Blaise-Pascal,Bassins de rétention,0,0,POINT (-71.352914201206 46.775447788970304),46.775447788970304,-71.352914201206
54,200830,Bassin de rétention de la Comtoise,,Rue de la Comtoise,Bassins de rétention,0,0,POINT (-71.31784554566246 46.839919982277586),46.839919982277586,-71.31784554566246
55,200888,Bassin de rétention de la Gerboise,,Rue de la Gerboise,Bassins de rétention,0,0,POINT (-71.28688653462476 46.846358637416046),46.846358637416046,-71.28688653462476
56,203007,Bassin de rétention de la Griotte,,Rue de la Gandolière,Bassins de rétention,0,0,POINT (-71.29054135377437 46.84521921581271),46.84521921581271,-71.29054135377437
57,200889,Bassin de rétention de la Havane,,Rue de La Havane,Bassins de rétention,0,0,POINT (-71.3319244519176 46.841056684055026),46.841056684055026,-71.3319244519176
58,202671,Bassin de rétention de la Java,,Rue de la Java,Bassins de rétention,0,0,POINT (-71.39652138415077 46.8569373723239),46.8569373723239,-71.39652138415077
59,200513,Bassin de rétention de la Parmentière,,Rue de la Parmentière,Bassins de rétention,0,0,POINT (-71.2116753507615 46.876730658699735),46.876730658699735,-71.2116753507615
60,200781,Bassin de rétention de la Pinède,,Rue de la Pinède,Bassins de rétention,0,0,POINT (-71.27294576284982 46.88363949882269),46.88363949882269,-71.27294576284982
61,200860,Bassin de rétention de la Rive-Boisée-Nord-1,,Rue de la Rive-Boisée Nord,Bassins de rétention,0,0,POINT (-71.3159496757075 46.832861025118866),46.832861025118866,-71.3159496757075
62,200861,Bassin de rétention de la Rive-Boisée-Nord-2,,Rue de la Rive-Boisée Nord,Bassins de rétention,0,0,POINT (-71.31463747560673 46.83443516701983),46.83443516701983,-71.31463747560673
63,200893,Bassin de rétention de la Sultane NORD,,Boulevard Robert-Bourassa,Bassins de rétention,0,0,POINT (-71.33911637544546 46.852201210818514),46.852201210818514,-71.33911637544546
64,202811,Bassin de rétention de la Sultane SUD,,Boulevard Robert-Bourassa,Bassins de rétention,0,0,POINT (-71.33839817813781 46.85155739983229),46.85155739983229,-71.33839817813781
65,203002,Bassin de rétention de la Varappe,,Rue de la Varappe,Bassins de rétention,0,0,POINT (-71.31107651625511 46.89781224696665),46.89781224696665,-71.31107651625511
66,200951,Bassin de rétention de l'Acropole,,Rue de Vénus,Bassins de rétention,0,0,POINT (-71.33293765706881 46.87750625272758),46.87750625272758,-71.33293765706881
67,200817,Bassin de rétention de l'Alaska,,Rue de l'Alaska,Bassins de rétention,0,0,POINT (-71.20826841748944 46.90508885172161),46.90508885172161,-71.20826841748944
68,202648,Bassin de rétention de l'Alliance,,Rue de l'Alliance,Bassins de rétention,0,0,POINT (-71.34962456139151 46.87752575244236),46.87752575244236,-71.34962456139151
69,200453,Bassin de rétention de l'Alouette,,Rue de l'Alouette,Bassins de rétention,0,0,POINT (-71.40748002449031 46.836119940110166),46.836119940110166,-71.40748002449031
70,202666,Bassin de rétention de l'Amiral,,Rue des Calèches,Bassins de rétention,0,0,POINT (-71.40168890210518 46.84127585561941),46.84127585561941,-71.40168890210518
71,203051,Bassin de rétention de l'Apogée,7190.0,Rue de l'Apogée,Bassins de rétention,0,0,POINT (-71.32385558823432 46.88207476677835),46.88207476677835,-71.32385558823432
72,202647,Bassin de rétention de l'Aquarelle,,Rue Alfred-Cloutier,Bassins de rétention,0,0,POINT (-71.33988389230083 46.871819852931985),46.871819852931985,-71.33988389230083
73,200444,Bassin de rétention de l'Éclair,,Rue de l'Éclair,Bassins de rétention,0,0,POINT (-71.41867106808841 46.85167677773681),46.85167677773681,-71.41867106808841
74,200428,Bassin de rétention de l'Élégance,,Rue de l'Élégance,Bassins de rétention,0,0,POINT (-71.37307849523879 46.8956092933662),46.8956092933662,-71.37307849523879
75,200897,Bassin de rétention de l'Élysée,,Rue de l'Élysée,Bassins de rétention,0,0,POINT (-71.42667113777105 46.848067969991554),46.848067969991554,-71.42667113777105
76,200839,Bassin de rétention de l'Épilobe,,Rue de la Corolle,Bassins de rétention,0,0,POINT (-71.38502057598814 46.8868042045542),46.8868042045542,-71.38502057598814
77,200896,Bassin de rétention de l'Équinoxe,,Rue de l'Équinoxe,Bassins de rétention,0,0,POINT (-71.42863575865974 46.852175742961265),46.852175742961265,-71.42863575865974
78,200834,Bassin de rétention de l'Escarpement Est,,Boulevard Robert-Bourassa,Bassins de rétention,0,0,POINT (-71.3066792970118 46.8344128265531),46.8344128265531,-71.3066792970118
79,200833,Bassin de rétention de l'Escarpement Ouest,,Boulevard Robert-Bourassa,Bassins de rétention,0,0,POINT (-71.30809526770524 46.8337242693298),46.8337242693298,-71.30809526770524
80,200895,Bassin de rétention de l'Etna,,Rue de l'Etna,Bassins de rétention,0,0,POINT (-71.42786927883868 46.84948152973189),46.84948152973189,-71.42786927883868
81,200903,Bassin de rétention de l'Étrave,,Rue de l'Étrave,Bassins de rétention,0,0,POINT (-71.42172545655414 46.849998525764796),46.849998525764796,-71.42172545655414
82,200965,Bassin de rétention de l'Iliade,,Avenue des Affaires,Bassins de rétention,0,0,POINT (-71.41305669767753 46.861931432529325),46.861931432529325,-71.41305669767753
83,202673,Bassin de rétention de l'Interlude,,Rue de l'Interlude,Bassins de rétention,0,0,POINT (-71.40653471772681 46.859983457042745),46.859983457042745,-71.40653471772681
84,202672,Bassin de rétention de l'Interlude,,Rue de l'Interlude,Bassins de rétention,0,0,POINT (-71.40598620641114 46.85981628658232),46.85981628658232,-71.40598620641114
85,200928,Bassin de rétention de l'Opale,,Rue de l'Opale,Bassins de rétention,0,0,POINT (-71.26227164638915 46.88161831101871),46.88161831101871,-71.26227164638915
86,200935,Bassin de rétention de l'Orignal,,Avenue de l'Orignal,Bassins de rétention,0,0,POINT (-71.29655549279921 46.8815872872794),46.8815872872794,-71.29655549279921
87,202818,Bassin de rétention de Montolieu,,Rue de Montolieu,Bassins de rétention,0,0,POINT (-71.44707492548514 46.873352116734054),46.873352116734054,-71.44707492548514
88,203152,Bassin de rétention de Mouzène,,Avenue Joseph-Giffard,Bassins de rétention,0,0,POINT (-71.2127650761058 46.87469548515886),46.87469548515886,-71.2127650761058
89,202819,Bassin de rétention de Porto Nord,,Avenue de Porto,Bassins de rétention,0,0,POINT (-71.33224536332409 46.8428636780894),46.8428636780894,-71.33224536332409
90,200885,Bassin de rétention de Porto SUD,,Avenue de Porto,Bassins de rétention,0,0,POINT (-71.33161920573798 46.84222432848303),46.84222432848303,-71.33161920573798
91,200886,Bassin de rétention de Tolède,,Rue de Tolède,Bassins de rétention,0,0,POINT (-71.33777848365749 46.84430110616684),46.84430110616684,-71.33777848365749
92,200859,Bassin de rétention de Venise,,Rue de Venise,Bassins de rétention,0,0,POINT (-71.33940363288266 46.84353974784651),46.84353974784651,-71.33940363288266
93,200953,Bassin de rétention de Vénus,,Rue de Vénus,Bassins de rétention,0,0,POINT (-71.32291437390941 46.87914870092731),46.87914870092731,-71.32291437390941
94,200851,Bassin de rétention de Vérone,,Rue de Vérone,Bassins de rétention,0,0,POINT (-71.33810234521209 46.84919869853782),46.84919869853782,-71.33810234521209
95,200446,Bassin de rétention d'Érié,,Rue d'Érié,Bassins de rétention,0,0,POINT (-71.43187739109723 46.8616590850452),46.8616590850452,-71.43187739109723
96,202668,Bassin de rétention des Abatis,,Rue des Abatis,Bassins de rétention,0,0,POINT (-71.39807920975159 46.838448943267416),46.838448943267416,-71.39807920975159
97,200913,Bassin de rétention des Aboiteaux,,Rue des Récoltes,Bassins de rétention,0,0,POINT (-71.21284928817742 46.881434720835735),46.881434720835735,-71.21284928817742
98,200695,Bassin de rétention des Affaires,,Avenue des Affaires,Bassins de rétention,0,0,POINT (-71.40884963011712 46.85850869513651),46.85850869513651,-71.40884963011712
99,200970,Bassin de rétention des Affaires Sud,,Avenue des Affaires,Bassins de rétention,0,0,POINT (-71.4193124232695 46.86489764566803),46.86489764566803,-71.4193124232695
100,200587,Bassin de rétention des Autochtones,,Rue des Autochtones,Bassins de rétention,0,0,POINT (-71.29713440758908 46.899799425597266),46.899799425597266,-71.29713440758908
101,202839,Bassin de rétention des Autochtones,,Rue des Autochtones,Bassins de rétention,0,0,POINT (-71.29658008264799 46.89979100539581),46.89979100539581,-71.29658008264799
102,200947,Bassin de rétention des Basses-Terres,,Rue Bouvier,Bassins de rétention,0,0,POINT (-71.28397054964054 46.82956184875065),46.82956184875065,-71.28397054964054
103,200946,Bassin de rétention des Basses-Terres 2,,Rue Bouvier,Bassins de rétention,0,0,POINT (-71.28103856017518 46.83074267920071),46.83074267920071,-71.28103856017518
104,202831,Bassin de rétention des Basses-Terres 3,,Rue Bouvier,Bassins de rétention,0,0,POINT (-71.27695302674742 46.83226153426215),46.83226153426215,-71.27695302674742
105,202832,Bassin de rétention des Basses-Terres 4a,,Rue Bouvier,Bassins de rétention,0,0,POINT (-71.27470713517735 46.83332000806538),46.83332000806538,-71.27470713517735
106,202833,Bassin de rétention des Basses-Terres 4b,,Rue Bouvier,Bassins de rétention,0,0,POINT (-71.26772414144101 46.8370312251724),46.8370312251724,-71.26772414144101
107,202734,Bassin de rétention des Bourgs,,Rue de Manselmont,Bassins de rétention,0,0,POINT (-71.21899928336482 46.89614882442236),46.89614882442236,-71.21899928336482
108,202977,Bassin de rétention des Canoés,,Rue des Canoés,Bassins de rétention,0,0,POINT (-71.40557370772477 46.84178987736208),46.84178987736208,-71.40557370772477
109,200442,Bassin de rétention des Charmilles,,Rue des Cithares,Bassins de rétention,0,0,POINT (-71.41486560134827 46.84322770419205),46.84322770419205,-71.41486560134827
110,202822,Bassin de rétention des Commissaires,,Rue de la Belle-Angélique,Bassins de rétention,0,0,POINT (-71.25718374156014 46.8938367494645),46.8938367494645,-71.25718374156014
111,200559,Bassin de rétention des Comptines,,Rue des Comptines,Bassins de rétention,0,0,POINT (-71.42082848126286 46.843686702268904),46.843686702268904,-71.42082848126286
112,200511,Bassin de rétention des Cormiers,,Rue de la Pinède,Bassins de rétention,0,0,POINT (-71.27219500465769 46.88193910079349),46.88193910079349,-71.27219500465769
113,202667,Bassin de rétention des Élans,,Rue des Élans,Bassins de rétention,0,0,POINT (-71.42986913190829 46.844816919231576),46.844816919231576,-71.42986913190829
114,200931,Bassin de rétention des Émeraudes,,Rue des Émeraudes,Bassins de rétention,0,0,POINT (-71.2593745545943 46.88570040251304),46.88570040251304,-71.2593745545943
115,200933,Bassin de rétention des Émeraudes,,Rue des Émeraudes,Bassins de rétention,0,0,POINT (-71.260189107033 46.8860573219475),46.8860573219475,-71.260189107033
116,200858,Bassin de rétention des Framboisiers,,Rue des Framboisiers,Bassins de rétention,0,0,POINT (-71.34459287564448 46.93212729822875),46.93212729822875,-71.34459287564448
117,202959,Bassin de rétention des Gazouillis,,Rue des Moqueurs,Bassins de rétention,0,0,POINT (-71.21096763587184 46.84460455524867),46.84460455524867,-71.21096763587184
118,202835,Bassin de rétention des Grandes-Marées,,Rue des Grandes-Marées,Bassins de rétention,0,0,POINT (-71.35899755596932 46.73930115580299),46.73930115580299,-71.35899755596932
119,200906,Bassin de rétention des Harpes,,Rue des Harpes,Bassins de rétention,0,0,POINT (-71.44977265332636 46.87400779055194),46.87400779055194,-71.44977265332636
120,202808,Bassin de rétention des Hautes-Terres,,Rue des Hautes-Terres,Bassins de rétention,0,0,POINT (-71.21118702411395 46.9557010530214),46.9557010530214,-71.21118702411395
121,202809,Bassin de rétention des Impératrices,,Rue des Impératrices,Bassins de rétention,0,0,POINT (-71.4278228445842 46.86486584875395),46.86486584875395,-71.4278228445842
122,201661,Bassin de rétention des Jésuites,,Avenue des Jésuites,Bassins de rétention,0,0,POINT (-71.249462518225 46.79728121271793),46.79728121271793,-71.249462518225
123,202682,Bassin de rétention des Jouvenceaux,,Rue des Jouvenceaux,Bassins de rétention,0,0,POINT (-71.28809671940397 46.85340891319155),46.85340891319155,-71.28809671940397
124,200967,Bassin de rétention des Lièvres,,Rue des Lièvres,Bassins de rétention,0,0,POINT (-71.28898708600518 46.893267992580824),46.893267992580824,-71.28898708600518
125,202954,Bassin de rétention des Manitobains,,Rue des Manitobains,Bassins de rétention,0,0,POINT (-71.28840216512891 46.89805494404735),46.89805494404735,-71.28840216512891
126,202953,Bassin de rétention des Manitobains,,Rue des Manitobains,Bassins de rétention,0,0,POINT (-71.28808108297203 46.89810025720825),46.89810025720825,-71.28808108297203
127,202781,Bassin de rétention des Mauriciens,,Rue des Manitobains,Bassins de rétention,0,0,POINT (-71.29190158556966 46.90323479180738),46.90323479180738,-71.29190158556966
128,202960,Bassin de rétention des Moqueurs,,Rue des Moqueurs,Bassins de rétention,0,0,POINT (-71.21040185864987 46.84310862102191),46.84310862102191,-71.21040185864987
129,200709,Bassin de rétention des Ombrettes,,Rue des Ombrettes,Bassins de rétention,0,0,POINT (-71.39319806667426 46.8463563499542),46.8463563499542,-71.39319806667426
130,200775,Bassin de rétention des Pigamons,,Rue des Pigamons,Bassins de rétention,0,0,POINT (-71.29106543376753 46.89403213734351),46.89403213734351,-71.29106543376753
131,200842,Bassin de rétention des Pionnières-de-Beauport,,Rue des Pionnières-de-Beauport,Bassins de rétention,0,0,POINT (-71.16558763516817 46.87127184992415),46.87127184992415,-71.16558763516817
132,203003,Bassin de rétention des Pruches,,Boulevard du Loiret,Bassins de rétention,0,0,POINT (-71.26781923211593 46.88362708168291),46.88362708168291,-71.26781923211593
133,200914,Bassin de rétention des Récoltes,,Rue des Récoltes,Bassins de rétention,0,0,POINT (-71.21304260602237 46.88037218772063),46.88037218772063,-71.21304260602237
134,200543,Bassin de rétention des Santolines,,Rue des Santolines,Bassins de rétention,0,0,POINT (-71.295502634725 46.8909048206252),46.8909048206252,-71.295502634725
135,200923,Bassin de rétention des Topazes,,Rue des Topazes,Bassins de rétention,0,0,POINT (-71.25287559004008 46.88303185058972),46.88303185058972,-71.25287559004008
136,200517,Bassin de rétention des Yvelines,615.0,Rue des Yvelines,Bassins de rétention,0,0,POINT (-71.31852630982036 46.90180243515309),46.90180243515309,-71.31852630982036
137,200890,Bassin de rétention d'Oviedo,,Rue de Vérone,Bassins de rétention,0,0,POINT (-71.33565031368406 46.84528536081796),46.84528536081796,-71.33565031368406
138,200912,Bassin de rétention du Balkan,,Rue du Balkan,Bassins de rétention,0,0,POINT (-71.20532049183215 46.90472274775765),46.90472274775765,-71.20532049183215
139,200832,Bassin de rétention du Bastingage,,Rue de la Rive-Boisée Nord,Bassins de rétention,0,0,POINT (-71.3316876091109 46.83573104446694),46.83573104446694,-71.3316876091109
140,200973,Bassin de rétention du Boisé-Royal,,Avenue de l'Amiral,Bassins de rétention,0,0,POINT (-71.41582482078447 46.8405532951954),46.8405532951954,-71.41582482078447
141,203004,Bassin de rétention du Bourg-Royal,,Rue de Dover,Bassins de rétention,0,0,POINT (-71.24618669324653 46.88063479617331),46.88063479617331,-71.24618669324653
142,203151,Bassin de rétention du Brévent,,Rue des Aigremoines,Bassins de rétention,0,0,POINT (-71.20539949134155 46.917156256906985),46.917156256906985,-71.20539949134155
143,200450,Bassin de rétention du Cabestan,,Rue du Cabestan,Bassins de rétention,0,0,POINT (-71.42346342392064 46.84338252154627),46.84338252154627,-71.42346342392064
144,203115,Bassin de rétention du Calcaire-1,,Rue du Calcaire,Bassins de rétention,0,0,POINT (-71.2998383909584 46.8500356752872),46.8500356752872,-71.2998383909584
145,203116,Bassin de rétention du Calcaire-2,,Rue du Calcaire,Bassins de rétention,0,0,POINT (-71.29836895893797 46.8498374208643),46.8498374208643,-71.29836895893797
146,202653,Bassin de rétention du Calumet,,Rue de la Camomille,Bassins de rétention,0,0,POINT (-71.33033335005818 46.84438994990935),46.84438994990935,-71.33033335005818
147,200573,Bassin de rétention du Centenaire,,Avenue du Centenaire,Bassins de rétention,0,0,POINT (-71.25366269632732 46.86323306639169),46.86323306639169,-71.25366269632732
148,203153,Bassin de rétention du Clair-Soleil,,Rue François-Paquet,Bassins de rétention,0,0,POINT (-71.36645724599416 46.90178652285684),46.90178652285684,-71.36645724599416
149,202669,Bassin de rétention du Corail,,Rue de l'Escarpement,Bassins de rétention,0,0,POINT (-71.4003581848298 46.84901923567985),46.84901923567985,-71.4003581848298
150,200934,Bassin de rétention du Daim,,Rue du Daim,Bassins de rétention,0,0,POINT (-71.30151865913051 46.882608345156314),46.882608345156314,-71.30151865913051
151,200899,Bassin de rétention du Domaine-de-la-Pente-Douce,,Rue du Colombage,Bassins de rétention,0,0,POINT (-71.42082749491053 46.840424050342655),46.840424050342655,-71.42082749491053
152,203005,Bassin de rétention du Faubourg-du-Cap,,Boulevard de la Chaudière,Bassins de rétention,0,0,POINT (-71.34743904874502 46.765581869511635),46.765581869511635,-71.34743904874502
153,202665,Bassin de rétention du Gabare,,Rue du Gabare,Bassins de rétention,0,0,POINT (-71.34456148998213 46.88087056324442),46.88087056324442,-71.34456148998213
154,200919,Bassin de rétention du Golf-Beauport,,Rue Marie-Louise-Marmette,Bassins de rétention,0,0,POINT (-71.21082372266538 46.86677561389692),46.86677561389692,-71.21082372266538
155,200917,Bassin de rétention du Harfang,,Rue du Harfang,Bassins de rétention,0,0,POINT (-71.2170134529164 46.873165702871574),46.873165702871574,-71.2170134529164
156,200921,Bassin de rétention du Loiret,,Boulevard du Loiret,Bassins de rétention,0,0,POINT (-71.2606022883925 46.877081472421665),46.877081472421665,-71.2606022883925
157,200937,Bassin de rétention du Marigot,,Rue du Marigot,Bassins de rétention,0,0,POINT (-71.30444087934974 46.881633620816906),46.881633620816906,-71.30444087934974
158,200845,Bassin de rétention du Mélézin,,Rue Blanche-Lamontagne,Bassins de rétention,0,0,POINT (-71.22394539559254 46.876391497683926),46.876391497683926,-71.22394539559254
159,202812,Bassin de rétention du Nordet,,Rue Louis-Cuisinier,Bassins de rétention,0,0,POINT (-71.36420420287799 46.78134452596476),46.78134452596476,-71.36420420287799
160,200561,Bassin de rétention du Panorama,,Rue du Panorama,Bassins de rétention,0,0,POINT (-71.21652798656693 46.90068830622548),46.90068830622548,-71.21652798656693
161,200840,Bassin de rétention du Parc-Technologique,,Boulevard du Parc-Technologique,Bassins de rétention,0,0,POINT (-71.30430896352706 46.79778638601409),46.79778638601409,-71.30430896352706
162,200779,Bassin de rétention du Piémont,,Rue du Piémont,Bassins de rétention,0,0,POINT (-71.35364987323449 46.90379792692783),46.90379792692783,-71.35364987323449
163,200944,Bassin de rétention du Platine,,Rue de l'Argon,Bassins de rétention,0,0,POINT (-71.32033879022384 46.88851754279031),46.88851754279031,-71.32033879022384
164,200945,Bassin de rétention du Platine,,Rue du Platine,Bassins de rétention,0,0,POINT (-71.31881309784877 46.889176577444054),46.889176577444054,-71.31881309784877
165,200925,Bassin de rétention du Prince-Albert,,Rue du Prince-Albert,Bassins de rétention,0,0,POINT (-71.27122808442445 46.888684912192524),46.888684912192524,-71.27122808442445
166,200823,Bassin de rétention du Ruisseau,,Rue du Ruisseau,Bassins de rétention,0,0,POINT (-71.19953410621916 46.887939800931946),46.887939800931946,-71.19953410621916
167,202813,Bassin de rétention du Ruisseau des Friches,,Route Sainte-Geneviève,Bassins de rétention,0,0,POINT (-71.39413185520267 46.82386226242911),46.82386226242911,-71.39413185520267
168,202979,Bassin de rétention du Ruisseau Mont-Châtel,,Rue John-Simons,Bassins de rétention,0,0,POINT (-71.37317480538158 46.82822560216088),46.82822560216088,-71.37317480538158
169,202815,Bassin de rétention du Ruisseau-de-Sainte-Barbe,,Boulevard Couture,Bassins de rétention,0,0,POINT (-71.36412671933469 46.83508488372931),46.83508488372931,-71.36412671933469
170,202646,Bassin de rétention du Semoir,,"Bretelle Aut. 40 Ouest, Québec, Montréal",Bassins de rétention,0,0,POINT (-71.2006664866411 46.87194575006555),46.87194575006555,-71.2006664866411
171,202955,Bassin de rétention du Yukon,,Rue du Yukon,Bassins de rétention,0,0,POINT (-71.20491928743067 46.903860364650015),46.903860364650015,-71.20491928743067
172,200526,Bassin de rétention Dunham,,Rue Dunham,Bassins de rétention,0,0,POINT (-71.3042757354079 46.897170213437136),46.897170213437136,-71.3042757354079
173,200441,Bassin de rétention Emerson,,Boulevard Pie-XI Nord,Bassins de rétention,0,0,POINT (-71.41750721319627 46.85698504514899),46.85698504514899,-71.41750721319627
174,200949,Bassin de rétention Émond,,Rue Émond,Bassins de rétention,0,0,POINT (-71.42647795873107 46.855025865444425),46.855025865444425,-71.42647795873107
175,202816,Bassin de rétention Ernest-Gagnon,,Avenue Ernest-Gagnon,Bassins de rétention,0,0,POINT (-71.2527972846972 46.798435608881015),46.798435608881015,-71.2527972846972
176,200909,Bassin de rétention Frédéric-Légaré,,Rue Frédéric-Légaré,Bassins de rétention,0,0,POINT (-71.36643759002787 46.85684244747978),46.85684244747978,-71.36643759002787
177,200741,Bassin de rétention Gabriel-Lajeunesse,,Rue Gabriel-Lajeunesse,Bassins de rétention,0,0,POINT (-71.224176209302 46.847704812367894),46.847704812367894,-71.224176209302
178,203052,Bassin de rétention Garage municipale Charlesbourg,1615.0,Boulevard Jean-Talon Ouest,Bassins de rétention,0,0,POINT (-71.29096106214377 46.85859382198403),46.85859382198403,-71.29096106214377
179,202713,Bassin de rétention Gastonguay,,Boulevard Gastonguay,Bassins de rétention,0,0,POINT (-71.37164219666305 46.84103742464488),46.84103742464488,-71.37164219666305
180,200922,Bassin de rétention Gattebois,,Rue Gattebois,Bassins de rétention,0,0,POINT (-71.25275739812825 46.88393657587819),46.88393657587819,-71.25275739812825
181,200841,Bassin de rétention Gaudias-Villeneuve,,Rue Gaudias-Villeneuve,Bassins de rétention,0,0,POINT (-71.3478750323805 46.90741424194392),46.90741424194392,-71.3478750323805
182,201617,Bassin de rétention Grimaldi,1240.0,Rue Grimaldi,Bassins de rétention,0,0,POINT (-71.44166406534045 46.86947617862223),46.86947617862223,-71.44166406534045
183,200447,Bassin de rétention Hêtrière,,Rue de l'Hêtrière,Bassins de rétention,0,0,POINT (-71.37167408667916 46.7586538578548),46.7586538578548,-71.37167408667916
184,200955,Bassin de rétention Houde,,Rue Houde,Bassins de rétention,0,0,POINT (-71.26985365644516 46.82574390551069),46.82574390551069,-71.26985365644516
185,200443,Bassin de rétention Jade,,Rue du Jade,Bassins de rétention,0,0,POINT (-71.38689069559035 46.85762570083926),46.85762570083926,-71.38689069559035
186,202579,Bassin de rétention Jean-Gauvin,25.0,Route Jean-Gauvin,Bassins de rétention,0,0,POINT (-71.4333418060252 46.807129676662015),46.807129676662015,-71.4333418060252
187,202859,Bassin de rétention Joseph-E.-Bédard,290.0,Rue Joseph-E.-Bédard,Bassins de rétention,0,0,POINT (-71.34821550973545 46.765128025329695),46.765128025329695,-71.34821550973545
188,200975,Bassin de rétention Joviale,,Rue Joviale,Bassins de rétention,0,0,POINT (-71.40930295055085 46.85639594073268),46.85639594073268,-71.40930295055085
189,200963,Bassin de rétention Labelle,,Boulevard Raymond,Bassins de rétention,0,0,POINT (-71.18268607275067 46.88570572445291),46.88570572445291,-71.18268607275067
190,200857,Bassin de rétention Lafrance,,Rue Lafrance,Bassins de rétention,0,0,POINT (-71.32191594119104 46.90591122327011),46.90591122327011,-71.32191594119104
191,200843,Bassin de rétention Latouche,,Avenue du Sous-Bois,Bassins de rétention,0,0,POINT (-71.16881284599923 46.86828394581131),46.86828394581131,-71.16881284599923
192,201663,Bassin de rétention Lepire,,Rue Lepire,Bassins de rétention,0,0,POINT (-71.38466982640738 46.8909362979272),46.8909362979272,-71.38466982640738
193,202645,Bassin de rétention Lionel-Audet,,Rue Lionel-Audet,Bassins de rétention,0,0,POINT (-71.22145767320407 46.867794733265086),46.867794733265086,-71.22145767320407
194,202670,Bassin de rétention Louise-Carrier,,Rue Louise-Carrier,Bassins de rétention,0,0,POINT (-71.39517348523123 46.85039355738873),46.85039355738873,-71.39517348523123
195,202821,Bassin de rétention Louise-Fiset,,Rue Louise-Fiset,Bassins de rétention,0,0,POINT (-71.35641090285183 46.76931669032383),46.76931669032383,-71.35641090285183
196,200930,Bassin de rétention Lyonnais,,Boulevard Jean-Talon Ouest,Bassins de rétention,0,0,POINT (-71.28029819564422 46.87046491955215),46.87046491955215,-71.28029819564422
197,200535,Bassin de rétention Mélanie,,Rue Mélanie,Bassins de rétention,0,0,POINT (-71.23534341425027 46.87047296209978),46.87047296209978,-71.23534341425027
198,202676,Bassin de rétention Michelet,,Rue Michelet,Bassins de rétention,0,0,POINT (-71.32655395549811 46.80973939847578),46.80973939847578,-71.32655395549811
199,200911,Bassin de rétention Nordique,,Boulevard Raymond,Bassins de rétention,0,0,POINT (-71.1885421416352 46.888508605363654),46.888508605363654,-71.1885421416352
200,200941,Bassin de rétention Ovila-Rhéaume,,Rue Ovila-Rhéaume,Bassins de rétention,0,0,POINT (-71.31033068900886 46.892797166326226),46.892797166326226,-71.31033068900886
201,202661,Bassin de rétention Phydime-Deschênes,,Rue Phydime-Deschênes,Bassins de rétention,0,0,POINT (-71.30740914772713 46.89071310017701),46.89071310017701,-71.30740914772713
202,200448,Bassin de rétention Pie-XI,,Boulevard Pie-XI Sud,Bassins de rétention,0,0,POINT (-71.39465942431235 46.840708871102684),46.840708871102684,-71.39465942431235
203,200939,Bassin de rétention Prénoveau,,Rue Prénoveau,Bassins de rétention,0,0,POINT (-71.30745745056252 46.89289210009717),46.89289210009717,-71.30745745056252
204,200837,Bassin de rétention Provençal,,Rue Provençal,Bassins de rétention,0,0,POINT (-71.199076449039 46.907977819659884),46.907977819659884,-71.199076449039
205,202786,Bassin de rétention Rigel,,Rue de Rigel,Bassins de rétention,0,0,POINT (-71.3216491574774 46.8800341833166),46.8800341833166,-71.3216491574774
206,200720,Bassin de rétention Roland-Bédard A,,Rue Armand-Viau,Bassins de rétention,0,0,POINT (-71.33722363824829 46.81704897904305),46.81704897904305,-71.33722363824829
207,200719,Bassin de rétention Roland-Bédard B,,Rue Armand-Viau,Bassins de rétention,0,0,POINT (-71.33524768052423 46.81575810516883),46.81575810516883,-71.33524768052423
208,200821,Bassin de rétention Sabourin,,Rue Bessette,Bassins de rétention,0,0,POINT (-71.19451844909102 46.89018911512802),46.89018911512802,-71.19451844909102
209,200940,Bassin de rétention Saint-Amour,,Rue Saint-Amour,Bassins de rétention,0,0,POINT (-71.30986738989515 46.893009136418414),46.893009136418414,-71.30986738989515
210,200929,Bassin de rétention Saint-Viateur,,Rue Saint-Viateur,Bassins de rétention,0,0,POINT (-71.24007372383308 46.878367938665534),46.878367938665534,-71.24007372383308
211,203071,Bassin de rétention Saulois,,Rue des Saulois,Bassins de rétention,0,0,POINT (-71.34730711558198 46.82759496930193),46.82759496930193,-71.34730711558198
212,200887,Bassin de rétention Savard,,Rue de la Camomille,Bassins de rétention,0,0,POINT (-71.33473782038084 46.84962493837485),46.84962493837485,-71.33473782038084
213,200855,Bassin de rétention Simone-Routier,,Rue Simone-Routier,Bassins de rétention,0,0,POINT (-71.20534721528284 46.91214128129644),46.91214128129644,-71.20534721528284
214,200927,Bassin de rétention Sully,,Avenue Sully,Bassins de rétention,0,0,POINT (-71.25194707109058 46.87028770617351),46.87028770617351,-71.25194707109058
215,200563,Bassin de rétention Tardif,,Rue Tardif,Bassins de rétention,0,0,POINT (-71.19493355127437 46.908830348801075),46.908830348801075,-71.19493355127437
216,200701,Bassin de rétention Vézina,,Rue de Cassiopée,Bassins de rétention,0,0,POINT (-71.33159516198467 46.88454647445492),46.88454647445492,-71.33159516198467
217,200884,Bassin de rétention Virginia-Woolf,,Rue Virginia-Woolf,Bassins de rétention,0,0,POINT (-71.30835172986663 46.84655432313271),46.84655432313271,-71.30835172986663
218,200943,Bassin de rétention Vulcain,,Rue du Monarque,Bassins de rétention,0,0,POINT (-71.3524985123567 46.90679422708496),46.90679422708496,-71.3524985123567
219,202785,Bassin des Rocailles,,Rue des Rocailles,Bassins de rétention,0,0,POINT (-71.28794792881327 46.831635934766666),46.831635934766666,-71.28794792881327
220,200451,Bassin Réservoir Lenoir,,Rue Lenoir,Bassins de rétention,0,0,POINT (-71.31986941440654 46.78240316119474),46.78240316119474,-71.31986941440654
221,201153,Bâtiment du Parc Saint-Viateur,705.0,Rue Saint-Viateur,Centres de loisirs,0,0,POINT (-71.2415097971561 46.87845241034938),46.87845241034938,-71.2415097971561
222,201613,Bâtiment municipal Amphithéâtre-Auditorium-5e R,325.0,5e Rue,Bâtiments municipaux,0,0,POINT (-71.22643324149405 46.82370175184789),46.82370175184789,-71.22643324149405
223,201631,Bâtiment municipal Centre de service Saint-Jacques,5548.0,Boulevard Saint-Jacques,Bâtiments municipaux,0,0,POINT (-71.31955646468964 46.8241897636816),46.8241897636816,-71.31955646468964
224,102415,Bibliothèque Aliette-Marchand,243.0,Boulevard Pierre-Bertrand,Bibliothèques,0,0,POINT (-71.26362716899405 46.813323470171795),46.813323470171795,-71.26362716899405
225,102367,Bibliothèque Bon-Pasteur,425.0,Rue du Bienheureux-Jean-XXIII,Bibliothèques,0,0,POINT (-71.30885810255758 46.90082465397613),46.90082465397613,-71.30885810255758
226,101576,Bibliothèque Canardière,1601.0,Chemin de la Canardière,Bibliothèques,0,0,POINT (-71.22261964931724 46.83734051564629),46.83734051564629,-71.22261964931724
227,102407,Bibliothèque Champigny,1465.0,Rue Félix-Antoine-Savard,Bibliothèques,0,0,POINT (-71.36912597471868 46.77405733656167),46.77405733656167,-71.36912597471868
228,109091,Bibliothèque Charles-H.-Blais,1445.0,Avenue Maguire,Bibliothèques,0,0,POINT (-71.25057682951675 46.77956804035883),46.77956804035883,-71.25057682951675
229,200236,Bibliothèque Chrystine-Brouillet,264.0,Rue Racine,Bibliothèques,0,0,POINT (-71.35982287045164 46.85278337230247),46.85278337230247,-71.35982287045164
230,102397,Bibliothèque Claire-Martin,755.0,Rue Saint-Jean,Bibliothèques,0,0,POINT (-71.21758897715236 46.81092540157669),46.81092540157669,-71.21758897715236
231,102379,Bibliothèque Collège-des-Jésuites,1120.0,Boulevard René-Lévesque Ouest,Bibliothèques,0,0,POINT (-71.243747183529 46.79506793767212),46.79506793767212,-71.243747183529
232,102417,Bibliothèque de l'Université Laval,,Avenue des Sciences-Humaines,Bibliothèques,0,0,POINT (-71.27384175337762 46.78256105767393),46.78256105767393,-71.27384175337762
233,202791,Bibliothèque de Saint-Sauveur,,Rue Raoul-Jobin,Bibliothèques,0,0,POINT (-71.23774504176677 46.81150541991714),46.81150541991714,-71.23774504176677
234,107609,Bibliothèque du Centre récréatif Saint-Roch,230.0,Rue du Pont,Bibliothèques,0,0,POINT (-71.22358436125636 46.81786266882252),46.81786266882252,-71.22358436125636
235,102359,Bibliothèque du Chemin-Royal,3095.0,Chemin Royal,Bibliothèques,0,0,POINT (-71.21181948085356 46.849799022506915),46.849799022506915,-71.21181948085356
236,102365,Bibliothèque du Jardin,4215.0,Avenue des Sauges,Bibliothèques,0,0,POINT (-71.28358001820231 46.88106380716441),46.88106380716441,-71.28358001820231
237,102357,Bibliothèque Étienne-Parent,3515.0,Rue Clemenceau,Bibliothèques,0,0,POINT (-71.21104148773732 46.865723781457184),46.865723781457184,-71.21104148773732
238,103769,Bibliothèque Félix-Leclerc,1465.0,Rue de l'Innovation,Bibliothèques,0,0,POINT (-71.4192853712058 46.857276641922745),46.857276641922745,-71.4192853712058
239,202453,Bibliothèque Fernand-Dumont,2.0,Rue Monseigneur-Marc-Leclerc,Bibliothèques,0,0,POINT (-71.1557061085986 46.878310627227194),46.878310627227194,-71.1557061085986
240,102353,Bibliothèque Gabrielle-Roy (fermée temp.),350.0,Rue Saint-Joseph Est,Bibliothèques,0,0,POINT (-71.2259743392493 46.81419626937488),46.81419626937488,-71.2259743392493
241,202551,Bibliothèque Jean-Baptiste-Duberger,2475.0,Boulevard Central,Bibliothèques,0,0,POINT (-71.29407800769175 46.810960758777114),46.810960758777114,-71.29407800769175
242,200237,Bibliothèque Le Tournesol,530.0,Rue Delage,Bibliothèques,0,0,POINT (-71.37678957410587 46.90734162242676),46.90734162242676,-71.37678957410587
243,102383,Bibliothèque Lebourgneuf,1650.0,Boulevard La Morille,Bibliothèques,0,0,POINT (-71.30747040070558 46.84224612294434),46.84224612294434,-71.30747040070558
244,102399,Bibliothèque Maison de la Littérature,37.0,Rue Sainte-Angèle,Bibliothèques,0,0,POINT (-71.21099937045544 46.812885558574926),46.812885558574926,-71.21099937045544
245,109989,Bibliothèque Monique-Corriveau,1100.0,Route de l'Église,Bibliothèques,0,0,POINT (-71.29424810439983 46.77011086222117),46.77011086222117,-71.29424810439983
246,101578,Bibliothèque Neufchâtel,4060.0,Rue Blain,Bibliothèques,0,0,POINT (-71.35746972133565 46.835210026031874),46.835210026031874,-71.35746972133565
247,103529,Bibliothèque Paul-Aimé-Paiement,7950.0,1re Avenue,Bibliothèques,0,0,POINT (-71.26883604576459 46.86105497297582),46.86105497297582,-71.26883604576459
248,102361,Bibliothèque Roger-Lemelin,4705.0,Rue de la Promenade-des-Soeurs,Bibliothèques,0,0,POINT (-71.3615514338597 46.746507781749756),46.746507781749756,-71.3615514338597
249,100693,Bibliothèque Romain-Langlois,2035.0,Boulevard Masson,Bibliothèques,0,0,POINT (-71.31821292706748 46.80731117377923),46.80731117377923,-71.31821292706748
250,100914,Bibliothèque Saint-Albert,5.0,Rue des Ormes,Bibliothèques,0,0,POINT (-71.24348208428843 46.83552710640613),46.83552710640613,-71.24348208428843
251,102393,Bibliothèque Saint-André,2155.0,Boulevard Bastien,Bibliothèques,0,0,POINT (-71.33611445544688 46.8580796963928),46.8580796963928,-71.33611445544688
252,102395,Bibliothèque Saint-Charles,400.0,4e Avenue,Bibliothèques,0,0,POINT (-71.22426754769602 46.823734764812365),46.823734764812365,-71.22426754769602
253,106141,Bureau administratif de La Haute-Saint-Charles,305.0,Rue Racine,Bureaux administratifs,0,0,POINT (-71.35980735628823 46.85059479762252),46.85059479762252,-71.35980735628823
254,102791,Bureau administratif de Limoilou,1310.0,1re Avenue,Bureaux administratifs,0,0,POINT (-71.2348745467379 46.82736214684028),46.82736214684028,-71.2348745467379
255,201113,Bureau administratif Éclairage publ.signal. lumineuse,395.0,Rue Desrochers,Bureaux administratifs,0,0,POINT (-71.2702613911105 46.81887345372066),46.81887345372066,-71.2702613911105
256,201251,Bureau administratif Fargy,655.0,Boulevard des Chutes,Pavillons de services,0,0,POINT (-71.18955470211868 46.857043137355745),46.857043137355745,-71.18955470211868
257,201263,Bureau administratif Hugues-Pommier,20.0,Rue Hugues-Pommier,Pavillons de services,0,0,POINT (-71.19369833707967 46.86020704077599),46.86020704077599,-71.19369833707967
258,200497,Bureau administratif Les Rivières,100.0,Rue Chabot,Bureaux administratifs,0,0,POINT (-71.25597769380029 46.81692845076585),46.81692845076585,-71.25597769380029
259,201265,Bureau administratif Sociocommunautaire de Beauport,3095.0,Chemin Royal,Pavillons de services,0,0,POINT (-71.21181948085356 46.849799022506915),46.849799022506915,-71.21181948085356
260,103589,Bureau d'arrondissement de Beauport,10.0,Rue Hugues-Pommier,Bureaux d'arrondissement,0,0,POINT (-71.1932529059288 46.85944573749207),46.85944573749207,-71.1932529059288
261,102777,Bureau d'arrondissement de Charlesbourg,160.0,76e Rue Est,Bureaux d'arrondissement,0,0,POINT (-71.26614491097378 46.85905729561384),46.85905729561384,-71.26614491097378
262,102299,Bureau d'arrondissement de La Cité-Limoilou,399.0,Rue Saint-Joseph Est,Bureaux d'arrondissement,0,0,POINT (-71.22493610368053 46.81391806450286),46.81391806450286,-71.22493610368053
263,104229,Bureau d'arrondissement de La Haute-Saint-Charles,3490.0,Route de l'Aéroport,Bureaux d'arrondissement,0,0,POINT (-71.43523759624881 46.84350676847192),46.84350676847192,-71.43523759624881
264,102775,Bureau d'arrondissement de Sainte-Foy-Sillery-Cap-Rouge,1130.0,Route de l'Église,Bureaux d'arrondissement,0,0,POINT (-71.29295519458738 46.7692471042381),46.7692471042381,-71.29295519458738
265,102771,Bureau d'arrondissement des Rivières,330.0,Rue Chabot,Bureaux d'arrondissement,0,0,POINT (-71.26362716899405 46.813323470171795),46.813323470171795,-71.26362716899405
266,104655,Butte Laurier,,Boulevard Laurier,Écrans,0,0,POINT (-71.26681492325415 46.7778178268264),46.7778178268264,-71.26681492325415
267,201364,C. d'interprét. histo. Ste-Foy,2825.0,Chemin Sainte-Foy,Bâtiments patrimoniaux,0,0,POINT (-71.30354280108781 46.77866027663673),46.77866027663673,-71.30354280108781
268,201703,Carrefour communautaire de Charlesbourg,7260.0,Boulevard Cloutier,Centres communautaires,0,0,POINT (-71.27346289573899 46.85358897393424),46.85358897393424,-71.27346289573899
269,200659,Carrière Union Ltée,,Boulevard Pierre-Bertrand,Carrières  et Sablières,0,0,POINT (-71.30233903830694 46.857671244623994),46.857671244623994,-71.30233903830694
270,200686,Carrières Québec Inc.,,Boulevard Louis-XIV,Carrières  et Sablières,0,0,POINT (-71.2965443017448 46.858535388653),46.858535388653,-71.2965443017448
271,200689,Carrières Québec Inc.,777.0,Avenue Larue,Carrières  et Sablières,0,0,POINT (-71.1769400480028 46.89085084947743),46.89085084947743,-71.1769400480028
272,200687,Carrières Québec Inc.,,Boulevard Jean-Talon Ouest,Carrières  et Sablières,0,0,POINT (-71.30721170240867 46.86862275481668),46.86862275481668,-71.30721170240867
273,109991,Caserne Champigny (#10),1808.0,Avenue Jules-Verne,Casernes de pompiers,0,0,POINT (-71.36100916840597 46.77516219613033),46.77516219613033,-71.36100916840597
274,102809,Caserne de Beauport (#7),255.0,Rue Clemenceau,Casernes de pompiers,0,0,POINT (-71.1826136921268 46.87903048664362),46.87903048664362,-71.1826136921268
275,200359,Caserne de Beauport-Nord (#17),2681.0,Boulevard Louis-XIV,Casernes de pompiers,0,0,POINT (-71.18708085752336 46.8993910728677),46.8993910728677,-71.18708085752336
276,102815,Caserne de Charlesbourg (#8),4252.0,Rue d'Orsainville,Casernes de pompiers,0,0,POINT (-71.28423135484405 46.88097781325864),46.88097781325864,-71.28423135484405
277,102817,Caserne de Sainte-Foy (#9),1130.0,Route de l'Église,Casernes de pompiers,0,0,POINT (-71.29350984395288 46.76939126423867),46.76939126423867,-71.29350984395288
278,102831,Caserne de Sillery (#15),1445.0,Avenue Maguire,Casernes de pompiers,0,0,POINT (-71.25055162070909 46.779568205686104),46.779568205686104,-71.25055162070909
279,102825,Caserne de Val-Bélair (#12),2056.0,Avenue Industrielle,Casernes de pompiers,0,0,POINT (-71.40272983392558 46.859548667167644),46.859548667167644,-71.40272983392558
280,200361,Caserne des Capucins (#2),470.0,Boulevard des Capucins,Casernes de pompiers,0,0,POINT (-71.22060348713944 46.825458944098976),46.825458944098976,-71.22060348713944
281,202991,Caserne des Saulois (#6),8005.0,Rue des Saulois,Casernes de pompiers,0,0,POINT (-71.34916768648282 46.827738392549634),46.827738392549634,-71.34916768648282
282,102805,Caserne Duberger (#5),2327.0,Rue de la Rivière-du-Berger,Casernes de pompiers,0,0,POINT (-71.29444159564689 46.8101509815212),46.8101509815212,-71.29444159564689
283,102801,Caserne Georges-Émile-Tanguay (#3),600.0,Avenue des Oblats,Casernes de pompiers,0,0,POINT (-71.24145290138131 46.80821031974948),46.80821031974948,-71.24145290138131
284,202357,Caserne Lebourgneuf (#13),770.0,Rue des Rocailles,Casernes de pompiers,0,0,POINT (-71.27884209986837 46.83555547848016),46.83555547848016,-71.27884209986837
285,102827,Caserne Saint-Émile (#16),2528.0,Avenue Lapierre,Casernes de pompiers,0,0,POINT (-71.34297653896537 46.88309295949002),46.88309295949002,-71.34297653896537
286,102803,Caserne Sainte-Odile (#4),70.0,Rue des Pins Ouest,Casernes de pompiers,0,0,POINT (-71.24766552431434 46.83657541831983),46.83657541831983,-71.24766552431434
287,102797,Caserne Saint-Jean (#1),140.0,Rue Saint-Jean,Casernes de pompiers,0,0,POINT (-71.22632259432355 46.80785992361162),46.80785992361162,-71.22632259432355
288,107049,CEGEP de Limoilou (campus Charlesbourg),7600.0,3e Avenue Est,Cégeps,0,0,POINT (-71.26027284814079 46.86165036914622),46.86165036914622,-71.26027284814079
289,101897,CEGEP de Limoilou (campus Québec),1300.0,8e Avenue,Cégeps,0,0,POINT (-71.2271901990817 46.83038418430301),46.83038418430301,-71.2271901990817
290,101899,CEGEP de Sainte-Foy,2410.0,Chemin Sainte-Foy,Cégeps,0,0,POINT (-71.28728561967382 46.78643687491965),46.78643687491965,-71.28728561967382
291,101901,CEGEP F-X.-Garneau,1660.0,Boulevard de l'Entente,Cégeps,0,0,POINT (-71.26510875975524 46.79236122865192),46.79236122865192,-71.26510875975524
292,202573,Centre administratif d'ExpoCité,250.0,Boulevard Wilfrid-Hamel,Bureaux administratifs,0,0,POINT (-71.24952783748815 46.82666572690799),46.82666572690799,-71.24952783748815
293,201237,Centre administratif Rainville,583.0,Rue Hugues-Pommier,Bureaux administratifs,0,0,POINT (-71.19339735331334 46.85959698035534),46.85959698035534,-71.19339735331334
294,201365,Centre artistique,930.0,Avenue Roland-Beaudin,Centres culturels,0,0,POINT (-71.30004611339679 46.770938789095055),46.770938789095055,-71.30004611339679
295,201157,Centre communautaire Bon-Pasteur,425.0,Rue du Bienheureux-Jean-XXIII,Centres communautaires,0,0,POINT (-71.30885810257449 46.90082465510054),46.90082465510054,-71.30885810257449
296,201158,Centre communautaire Bourassa,570.0,79e Rue Est,Centres communautaires,0,0,POINT (-71.2571224213877 46.8645232221326),46.8645232221326,-71.2571224213877
297,200433,Centre communautaire Champigny,7519.0,Boulevard Wilfrid-Hamel,Centres communautaires,0,0,POINT (-71.37328602110901 46.77587437365601),46.77587437365601,-71.37328602110901
298,104051,Centre communautaire Charles-Auguste-Savard,2155.0,Boulevard Bastien,Centres communautaires,0,0,POINT (-71.33611445544688 46.8580796963928),46.8580796963928,-71.33611445544688
299,201385,Centre communautaire Claude-Allard,3200.0,Avenue D'Amours,Centres communautaires,0,0,POINT (-71.31962520743195 46.77487168532158),46.77487168532158,-71.31962520743195
300,102795,Centre communautaire de Cap-Rouge,4473.0,Rue Saint-Félix,Centres communautaires,0,0,POINT (-71.35451634954526 46.74099599422021),46.74099599422021,-71.35451634954526
301,203081,Centre communautaire de la Pointe-de-Sainte-Foy,965.0,Rue Valentin,Centres communautaires,0,0,POINT (-71.32342987101876 46.75416471251475),46.75416471251475,-71.32342987101876
302,202471,Centre communautaire de Saint-Sacrement,1360.0,Boulevard de l'Entente,Centres communautaires,0,0,POINT (-71.25695818551742 46.79617529861999),46.79617529861999,-71.25695818551742
303,201234,Centre communautaire des Chutes,4551.0,Boulevard Sainte-Anne,Centres communautaires,0,0,POINT (-71.16117234793333 46.871989205981016),46.871989205981016,-71.16117234793333
304,201190,Centre communautaire du Plateau,8815.0,Avenue Jean-Paquin,Centres communautaires,0,0,POINT (-71.28230191039476 46.86340690403239),46.86340690403239,-71.28230191039476
305,201285,Centre communautaire du Saint-Gérard,3259.0,Route de l'Aéroport,Centres communautaires,0,0,POINT (-71.42981553974077 46.840939679204766),46.840939679204766,-71.42981553974077
306,104053,Centre communautaire Duberger,2341.0,Rue de la Rivière-du-Berger,Centres communautaires,0,0,POINT (-71.2944415935441 46.81015083871768),46.81015083871768,-71.2944415935441
307,103829,Centre communautaire Édifice Victorin-Beaucage,380.0,Rue Beaucage,Centres communautaires,0,0,POINT (-71.26625893621627 46.81392365523799),46.81392365523799,-71.26625893621627
308,100821,Centre communautaire Édouard-Lavergne,380.0,Rue Arago Ouest,Centres communautaires,0,0,POINT (-71.23295896647927 46.80741881214555),46.80741881214555,-71.23295896647927
309,104049,Centre communautaire Elzéar-Turcotte,2455.0,Boulevard Central,Centres communautaires,0,0,POINT (-71.29386764551089 46.810821777292496),46.810821777292496,-71.29386764551089
310,201311,Centre communautaire Ferland,1600.0,8e Avenue,Centres communautaires,0,0,POINT (-71.22869995493008 46.83237546070423),46.83237546070423,-71.22869995493008
311,104057,Centre communautaire Fernand-Dufour,380.0,Rue Chabot,Centres communautaires,0,0,POINT (-71.2647527334221 46.8128465628064),46.8128465628064,-71.2647527334221
312,104075,Centre communautaire J.-B.-Lafrance,4075.0,Rue Maria-Goretti,Centres communautaires,0,0,POINT (-71.31132889104913 46.80222538772464),46.80222538772464,-71.31132889104913
313,201667,Centre communautaire Jean-Guy Drolet,16.0,Rue Royal-Roussillon,Centres communautaires,0,0,POINT (-71.23558633419599 46.82692197984932),46.82692197984932,-71.23558633419599
314,104059,Centre communautaire Lebourgneuf,1650.0,Boulevard La Morille,Centres communautaires,0,0,POINT (-71.30771134341082 46.84244036835736),46.84244036835736,-71.30771134341082
315,104061,Centre communautaire Les Saules,4120.0,Rue De Musset,Centres communautaires,0,0,POINT (-71.32260549086597 46.81051276287215),46.81051276287215,-71.32260549086597
316,201275,Centre communautaire Loretteville,305.0,Rue Racine,Centres communautaires,0,0,POINT (-71.35980735628823 46.85059479762252),46.85059479762252,-71.35980735628823
317,104569,Centre communautaire Lucien-Borne,100.0,Chemin Sainte-Foy,Centres communautaires,0,0,POINT (-71.228659631545 46.80670294713945),46.80670294713945,-71.228659631545
318,201173,Centre communautaire Maison des Jeunes l'Intégrale,17099.0,Boulevard Henri-Bourassa,Centres communautaires,0,0,POINT (-71.29493659092095 46.888638304109996),46.888638304109996,-71.29493659092095
319,201313,Centre communautaire Marchand,2740.0,2e Avenue,Centres communautaires,0,0,POINT (-71.24070961626907 46.83744010607209),46.83744010607209,-71.24070961626907
320,100738,Centre communautaire Mères et Monde,,6e Avenue,Centres communautaires,0,0,POINT (-71.22444827248432 46.826467567342945),46.826467567342945,-71.22444827248432
321,104063,Centre communautaire Michel-Labadie,3705.0,Avenue Chauveau,Centres communautaires,0,0,POINT (-71.34661228992772 46.83254217406934),46.83254217406934,-71.34661228992772
322,202957,Centre communautaire Monseigneur-Marcoux,2025.0,Rue Adjutor-Rivard,Centres communautaires,0,0,POINT (-71.22416451838016 46.843212070407866),46.843212070407866,-71.22416451838016
323,104189,Centre communautaire Noël-Brulart,1229.0,Avenue du Chanoine-Morel,Centres communautaires,0,0,POINT (-71.24967942094355 46.785446501854175),46.785446501854175,-71.24967942094355
324,201279,Centre communautaire Paul-Émile Beaulieu,530.0,Rue Delage,Centres communautaires,0,0,POINT (-71.37678957410587 46.90734162242676),46.90734162242676,-71.37678957410587
325,105369,Centre communautaire Pierre-Garon,748.0,Boulevard Louis-XIV,Centres communautaires,0,0,POINT (-71.27055888630538 46.86029002492106),46.86029002492106,-71.27055888630538
326,201277,Centre communautaire Saint-Émile,2200.0,Rue de la Faune,Centres communautaires,0,0,POINT (-71.33561239107183 46.8730095860742),46.8730095860742,-71.33561239107183
327,201286,Centre communautaire Saint-Michel,1829.0,Boulevard Pie-XI Nord,Centres communautaires,0,0,POINT (-71.4504624598395 46.872596685363376),46.872596685363376,-71.4504624598395
328,202863,Centre communautaire YMCA-Saint-Roch,500.0,Rue du Pont,Centres communautaires,0,0,POINT (-71.2201886383684 46.814115467805),46.814115467805,-71.2201886383684
329,201787,Centre communautaire YWCA,855.0,Avenue Holland,Centres communautaires,0,0,POINT (-71.25133724571515 46.79415483899332),46.79415483899332,-71.25133724571515
330,202459,Centre culturel et communautaire de Charlesbourg,,74e Rue Est,Stationnements,0,0,POINT (-71.26454714065427 46.858719529180554),46.858719529180554,-71.26454714065427
331,201156,Centre culturel et communautaire de Charlesbourg,7575.0,Boulevard Henri-Bourassa,Centres communautaires,0,0,POINT (-71.26521214407464 46.859161290360596),46.859161290360596,-71.26521214407464
332,201283,Centre culturel Georges-Dor,3490.0,Route de l'Aéroport,Centres communautaires,0,0,POINT (-71.43523759624881 46.84350676847192),46.84350676847192,-71.43523759624881
333,103789,Centre d'art La Chapelle,620.0,Avenue Plante,Centres d'art,0,0,POINT (-71.26143818379244 46.824450120742426),46.824450120742426,-71.26143818379244
334,103831,Centre d'art La Maison Mauger,2185.0,Boulevard Bastien,Centres d'art,0,0,POINT (-71.33666862786566 46.858059940542844),46.858059940542844,-71.33666862786566
335,201363,Centre d'art Maison des Jésuites-de-Sillery,2320.0,Chemin du Foulon,Bâtiments patrimoniaux,0,0,POINT (-71.25805871557971 46.76851420120094),46.76851420120094,-71.25805871557971
336,109077,Centre d'art Maison Hamel-Bruneau,,Chemin Saint-Louis,Centres d'art,0,0,POINT (-71.27318246640702 46.767165293855214),46.767165293855214,-71.27318246640702
337,109709,Centre d'art Maison Léon-Provancher,,Rue Provancher,Centres d'art,0,0,POINT (-71.34366322264474 46.7509324491815),46.7509324491815,-71.34366322264474
338,103833,Centre d'art Maison O'Neil,3160.0,Boulevard Wilfrid-Hamel,Centres d'art,0,0,POINT (-71.30727320812716 46.80701813696261),46.80701813696261,-71.30727320812716
339,109315,Centre d'art Maison Routhier,3325.0,Rue Rochambeau,Centres d'art,0,0,POINT (-71.31976462641389 46.76873363897796),46.76873363897796,-71.31976462641389
340,201161,Centre d'art Maison Sanfaçon-Paradis,1439.0,Boulevard Louis-XIV,Centres d'art,0,0,POINT (-71.24793492859419 46.8796744681965),46.8796744681965,-71.24793492859419
341,105371,Centre d'art Moulin des Jésuites,7960.0,Boulevard Henri-Bourassa,Centres d'art,0,0,POINT (-71.26695463912166 46.86256961657315),46.86256961657315,-71.26695463912166
342,107509,Centre d'art Palais Montcalm,,Place D'Youville,Centres d'art,0,0,POINT (-71.21331624376843 46.811973257598375),46.811973257598375,-71.21331624376843
343,104651,Centre d'art Villa Bagatelle,1563.0,Boulevard Laurier,Centres d'art,0,0,POINT (-71.24680338803896 46.78844511280339),46.78844511280339,-71.24680338803896
344,201380,Centre de céramique de Ste-Foy,2130.0,Rue de la Somme,Centres de loisirs,0,0,POINT (-71.26694517686222 46.78713943303239),46.78713943303239,-71.26694517686222
345,200533,Centre de foires,250.0,Boulevard Wilfrid-Hamel,Centre de Foires,0,0,POINT (-71.25081846787366 46.82601686574517),46.82601686574517,-71.25081846787366
346,201990,Centre de glaces Intact Assurance,930.0,Avenue Roland-Beaudin,Stationnements,0,0,POINT (-71.2982712852152 46.77073814518923),46.77073814518923,-71.2982712852152
347,102351,Centre de glaces Intact Assurance,930.0,Avenue Roland-Beaudin,Arénas,0,0,POINT (-71.3000458920631 46.77093876365295),46.77093876365295,-71.3000458920631
348,201745,Centre de glaces Intact Assurance,,Avenue Roland-Beaudin,Stationnements,0,0,POINT (-71.30024889763278 46.77193378968024),46.77193378968024,-71.30024889763278
349,201077,Centre de glisse Myrand,2150.0,Avenue Chapdelaine,Centres de plein air,0,0,POINT (-71.27609919318222 46.79210028470518),46.79210028470518,-71.27609919318222
350,100838,Centre de l'environnement,870.0,Avenue De Salaberry,Centres culturels,0,0,POINT (-71.22730249915489 46.805746084054654),46.805746084054654,-71.22730249915489
351,201231,Centre de loisirs Cambert,280.0,Rue Cambert,Centres de loisirs,0,0,POINT (-71.21442660327929 46.90546448385229),46.90546448385229,-71.21442660327929
352,202472,Centre de loisirs de Saint-Sacrement,,Boulevard de l'Entente,Centres de loisirs,0,0,POINT (-71.25725171291256 46.796065849485004),46.796065849485004,-71.25725171291256
353,201384,Centre de loisirs des Trois-Saisons,1390.0,Rue Buffon,Centres de loisirs,0,0,POINT (-71.38009192866743 46.814634211327075),46.814634211327075,-71.38009192866743
354,201220,Centre de loisirs du Petit-Village,2900.0,Boulevard du Loiret,Centres de loisirs,0,0,POINT (-71.23387277922888 46.85288302489361),46.85288302489361,-71.23387277922888
355,201227,Centre de loisirs Jean-Guyon,153.0,Avenue des Sablonnières,Centres de loisirs,0,0,POINT (-71.19717232351046 46.90626226083555),46.90626226083555,-71.19717232351046
356,201221,Centre de loisirs la Cavée,69.0,Avenue Juchereau,Centres de loisirs,0,0,POINT (-71.19539618968925 46.86038250956848),46.86038250956848,-71.19539618968925
357,201222,Centre de loisirs la Ribambelle,333.0,Rue Perroteau,Centres de loisirs,0,0,POINT (-71.20022241438689 46.88944916675943),46.88944916675943,-71.20022241438689
358,201229,Centre de loisirs la Sablière,156.0,Rue Bertrand,Centres de loisirs,0,0,POINT (-71.18968053624037 46.905281863352684),46.905281863352684,-71.18968053624037
359,201225,Centre de loisirs Monseigneur-de-Laval,2.0,Rue du Fargy,Centres de loisirs,0,0,POINT (-71.18978633266978 46.85838286628027),46.85838286628027,-71.18978633266978
360,201665,Centre de loisirs Montcalm,265.0,Boulevard René-Lévesque Ouest,Centres de loisirs,0,0,POINT (-71.22887303316212 46.802732063198455),46.802732063198455,-71.22887303316212
361,201369,Centre de loisirs Notre-Dame-de-Foy,771.0,Rue Jacques-Berthiaume,Centres de loisirs,0,0,POINT (-71.30483692797507 46.78005802438352),46.78005802438352,-71.30483692797507
362,104469,Centre de loisirs Odilon-Blanchette,49.0,Avenue Ruel,Centres récréatifs,0,0,POINT (-71.15775626587883 46.87694744761562),46.87694744761562,-71.15775626587883
363,201223,Centre de loisirs Pavillon Royal,3365.0,Chemin Royal,Centres de loisirs,0,0,POINT (-71.20824251779841 46.8526295674152),46.8526295674152,-71.20824251779841
364,201065,Centre de loisirs Pie-XII,909.0,Boulevard Pie-XII,Centres de loisirs,0,0,POINT (-71.32130369063961 46.76133831143732),46.76133831143732,-71.32130369063961
365,201382,Centre de loisirs Provancher,4170.0,Rue Michel-Hervé,Pavillons de services,0,0,POINT (-71.34242925745025 46.75074626368401),46.75074626368401,-71.34242925745025
366,201381,Centre de loisirs Saint-Ange,1545.0,Rang Saint-Ange,Centres de loisirs,0,0,POINT (-71.40923620944099 46.76616398893724),46.76616398893724,-71.40923620944099
367,201375,Centre de loisirs Sainte-Geneviève,690.0,Avenue de Cherbourg,Centres de loisirs,0,0,POINT (-71.3194928745585 46.77664138472997),46.77664138472997,-71.3194928745585
368,201230,Centre de loisirs Sainte-Gertrude,788.0,Avenue du Cénacle,Centres de loisirs,0,0,POINT (-71.18830177698506 46.87077437569955),46.87077437569955,-71.18830177698506
369,201377,Centre de loisirs Sainte-Ursule,3224.0,Rue Armand-Hamelin,Centres de loisirs,0,0,POINT (-71.30803117496129 46.7571401529832),46.7571401529832,-71.30803117496129
370,201371,Centre de loisirs Saint-Jean-Baptiste-De La Salle,2608.0,Rue Biencourt,Centres de loisirs,0,0,POINT (-71.2964229285485 46.78439406442257),46.78439406442257,-71.2964229285485
371,201372,Centre de loisirs Saint-Louis-de-France,1560.0,Route de l'Église,Centres de loisirs,0,0,POINT (-71.28007990371121 46.760536874001744),46.760536874001744,-71.28007990371121
372,201373,Centre de loisirs Saint-Mathieu,1000.0,Rue de Bar-le-Duc,Centres de loisirs,0,0,POINT (-71.30676335575384 46.766811844578115),46.766811844578115,-71.30676335575384
373,201374,Centre de loisirs Saint-Thomas-d'Aquin,895.0,Avenue Myrand,Centres de loisirs,0,0,POINT (-71.26694517686222 46.78713943303239),46.78713943303239,-71.26694517686222
374,201005,Centre de loisirs Ulric-Turcotte,35.0,Rue Vachon,Centres de loisirs,0,0,POINT (-71.15894828347412 46.88636726363672),46.88636726363672,-71.15894828347412
375,104669,Centre de plein air de Beauport,95.0,Rue de la Sérénité,Centres de plein air,0,0,POINT (-71.17566264180006 46.902833495205556),46.902833495205556,-71.17566264180006
376,201419,Centre de services Claude-Germain,202.0,Rue Huot,Pavillons de services,0,0,POINT (-71.37901955517566 46.76629659813495),46.76629659813495,-71.37901955517566
377,201415,Centre de services de Bélair,3110.0,Avenue Notre-Dame,Pavillons de services,0,0,POINT (-71.41687234046121 46.79587677371545),46.79587677371545,-71.41687234046121
378,201424,Centre de services de Champigny,1836.0,Avenue Jules-Verne,Pavillons de services,0,0,POINT (-71.3643187929306 46.77270927612726),46.77270927612726,-71.3643187929306
379,201403,Centre de services de la Falaise,1615.0,Côte à Gignac,Pavillons de services,0,0,POINT (-71.2672561303945 46.76627862986445),46.76627862986445,-71.2672561303945
380,201399,Centre de services de l'Anse,2201.0,Côte de Sillery,Pavillons de services,0,0,POINT (-71.25234739300733 46.770651037734446),46.770651037734446,-71.25234739300733
381,201410,Centre de services des Écores,4001.0,Rue Charles-A.-Roy,Pavillons de services,0,0,POINT (-71.35174593891604 46.76056604241104),46.76056604241104,-71.35174593891604
382,201425,Centre de services des Potiers,4333.0,Rue Bégin,Pavillons de services,0,0,POINT (-71.35044739162946 46.74932207891062),46.74932207891062,-71.35044739162946
383,201416,Centre de services des Primevères,1465.0,Rue Félix-Antoine-Savard,Pavillons de services,0,0,POINT (-71.36963107760444 46.77422133669481),46.77422133669481,-71.36963107760444
384,201423,Centre de services des Sources,1140.0,Rue du Capitaine-Bernier,Pavillons de services,0,0,POINT (-71.36277914148391 46.76652815839761),46.76652815839761,-71.36277914148391
385,201417,Centre de services des Trois-Saisons,1469.0,Rue Buffon,Pavillons de services,0,0,POINT (-71.38009192657607 46.81463408314413),46.81463408314413,-71.38009192657607
386,201407,Centre de services Du Buisson,2140.0,Rue Marie-Victorin,Pavillons de services,0,0,POINT (-71.25809982764464 46.779147120663),46.779147120663,-71.25809982764464
387,201411,Centre de services du Plateau,4575.0,Rue de la Promenade-des-Soeurs,Pavillons de services,0,0,POINT (-71.36479538812566 46.7468155183488),46.7468155183488,-71.36479538812566
388,201427,Centre de services Fénelon,1260.0,Rue Fénelon,Pavillons de services,0,0,POINT (-71.3673386324514 46.81546285651111),46.81546285651111,-71.3673386324514
389,201420,Centre de services Kiwanis,1818.0,Avenue Jules-Verne,Pavillons de services,0,0,POINT (-71.3613133271659 46.77381574417634),46.77381574417634,-71.3613133271659
390,201428,Centre de services Malraux,108.0,Rue Malraux,Pavillons de services,0,0,POINT (-71.38663144016041 46.765497272909414),46.765497272909414,-71.38663144016041
391,201409,Centre de services Roland-Beaudin,929.0,Avenue Roland-Beaudin,Pavillons de services,0,0,POINT (-71.29889394751301 46.77290540695559),46.77290540695559,-71.29889394751301
392,201405,Centre de services Ross,1290.0,Avenue Ernest-Lavigne,Pavillons de services,0,0,POINT (-71.26632702693844 46.7740035702357),46.7740035702357,-71.26632702693844
393,201393,Centre de services Saint-Benoît,3454.0,Rue Rochambeau,Pavillons de services,0,0,POINT (-71.32574639396988 46.76585223856759),46.76585223856759,-71.32574639396988
394,201406,Centre de services Saint-Charles-Garnier,1730.0,Rue Sheppard,Pavillons de services,0,0,POINT (-71.24980490535089 46.78454238670303),46.78454238670303,-71.24980490535089
395,201395,Centre de services Saint-Denys,2770.0,Rue de la Picardie,Pavillons de services,0,0,POINT (-71.29079209695472 46.774140633641466),46.774140633641466,-71.29079209695472
396,201408,Centre de services Saint-Louis-de-France,1591.0,Rue du Sieur-D'Argenteuil,Pavillons de services,0,0,POINT (-71.28257188662191 46.76084722901294),46.76084722901294,-71.28257188662191
397,201397,Centre de services Saint-Yves,2530.0,Rue Anthony-Law,Pavillons de services,0,0,POINT (-71.27270309749694 46.770609854285325),46.770609854285325,-71.27270309749694
398,201379,Centre de yoga de Sainte-Foy,844.0,Rue Paradis,Centres de loisirs,0,0,POINT (-71.26667155165482 46.78726291072477),46.78726291072477,-71.26667155165482
399,201235,Centre Deblois,2130.0,Avenue de l'École,Centres communautaires,0,0,POINT (-71.21272671025898 46.849671261845984),46.849671261845984,-71.21272671025898
400,107429,Centre des Congrès de Québec,,Boulevard René-Lévesque Est,Centre des congrès,0,0,POINT (-71.21656969991122 46.81018567961474),46.81018567961474,-71.21656969991122
401,201545,Centre d'hébergement Champlain des Montagnes,791.0,Rue de Sherwood,Centres d'hébergement,0,0,POINT (-71.32024405792646 46.90502353564475),46.90502353564475,-71.32024405792646
402,201569,Centre d'hébergement Charlesbourg,7150.0,Boulevard Cloutier,Centres d'hébergement,0,0,POINT (-71.27424486810874 46.851354101895645),46.851354101895645,-71.27424486810874
403,201551,Centre d'hébergement d'Assise,45.0,Rue Leclerc,Centres d'hébergement,0,0,POINT (-71.2387375707579 46.8285710845964),46.8285710845964,-71.2387375707579
404,201568,Centre d'hébergement de Limoilou,1401.0,Chemin de la Canardière,Centres d'hébergement,0,0,POINT (-71.22369633170383 46.83647854559238),46.83647854559238,-71.22369633170383
405,201547,Centre d'hébergement du Boisé Ltée,3690.0,Boulevard Neilson,Centres d'hébergement,0,0,POINT (-71.32139919790511 46.754023332631405),46.754023332631405,-71.32139919790511
406,201573,Centre d'hébergement du Fargy,700.0,Boulevard des Chutes,Centres d'hébergement,0,0,POINT (-71.18782651524651 46.85704853757887),46.85704853757887,-71.18782651524651
407,201563,Centre d'hébergement Le Faubourg,925.0,Avenue Turnbull,Centres d'hébergement,0,0,POINT (-71.22407344294861 46.80734503840693),46.80734503840693,-71.22407344294861
408,201571,Centre d'hébergement Loretteville,165.0,Rue Lessard,Centres d'hébergement,0,0,POINT (-71.35040426133418 46.85017235587924),46.85017235587924,-71.35040426133418
409,201565,Centre d'hébergement Louis-Hébert,1550.0,Rue de la Pointe-aux-Lièvres,Centres d'hébergement,0,0,POINT (-71.24405950217651 46.8241930557993),46.8241930557993,-71.24405950217651
410,201566,Centre d'hébergement Notre-Dame-de-Lourdes,105.0,Rue Hermine,Centres d'hébergement,0,0,POINT (-71.23248547748507 46.809988233949035),46.809988233949035,-71.23248547748507
411,201562,Centre d'hébergement Sacré-Coeur,1.0,Avenue du Sacré-Coeur,Centres d'hébergement,0,0,POINT (-71.24581998481624 46.8130118615027),46.8130118615027,-71.24581998481624
412,201561,Centre d'hébergement Sacré-Coeur,1.0,Avenue du Sacré-Coeur,Centres d'hébergement,0,0,POINT (-71.24512708107459 46.8129679874379),46.8129679874379,-71.24512708107459
413,201567,Centre d'hébergement Saint-Antoine,1451.0,Boulevard Père-Lelièvre,Centres d'hébergement,0,0,POINT (-71.27780931174078 46.80970079697427),46.80970079697427,-71.27780931174078
414,201549,Centre d'hébergement Saint-Jean-Eudes,6000.0,3e Avenue Ouest,Centres d'hébergement,0,0,POINT (-71.26047028612578 46.850525499785114),46.850525499785114,-71.26047028612578
415,202014,Centre écologique Léopold-E.-Beaulieu,433.0,Rue Delage,Centres culturels,0,0,POINT (-71.37239291429272 46.91032954556781),46.91032954556781,-71.37239291429272
416,102269,Centre hospitalier de l'Université Laval,2705.0,Boulevard Laurier,Hôpitaux,0,0,POINT (-71.28344242085564 46.76868650091302),46.76868650091302,-71.28344242085564
417,201552,Centre hospitalier Notre-Dame-du-Chemin,510.0,Chemin Sainte-Foy,Centres d'hébergement,0,0,POINT (-71.23592442447693 46.80279610006311),46.80279610006311,-71.23592442447693
418,102267,Centre hospitalier Robert-Giffard,,Chemin de la Canardière,Hôpitaux,0,0,POINT (-71.22072592305575 46.847932187385126),46.847932187385126,-71.22072592305575
419,101749,Centre Jeunesse Atout,1460.0,Chemin Sainte-Foy,Écoles spécialisées,0,0,POINT (-71.25701539392628 46.793809804502764),46.793809804502764,-71.25701539392628
420,201271,Centre Marc-Forrez,150.0,Boulevard des Étudiants,Centres de loisirs,0,0,POINT (-71.36385795051459 46.854404679189116),46.854404679189116,-71.36385795051459
421,201387,Centre musical Uni-Son de Sillery,1675.0,Rue Dina-Bélanger,Centres communautaires,0,0,POINT (-71.25015358658538 46.78563229330453),46.78563229330453,-71.25015358658538
422,104065,Centre récréatif de l'Apprenti-Sage,2200.0,Rue Coursol,Centres récréatifs,0,0,POINT (-71.32711198556001 46.84675379067765),46.84675379067765,-71.32711198556001
423,104067,Centre récréatif Laurence-Perron,420.0,Rue Beaucage,Centres récréatifs,0,0,POINT (-71.26656838755537 46.81352237420784),46.81352237420784,-71.26656838755537
424,107589,Centre récréatif Monseigneur-Bouffard,680.0,Rue Raoul-Jobin,Centres récréatifs,0,0,POINT (-71.24405933429853 46.80790417919925),46.80790417919925,-71.24405933429853
425,107529,Centre récréatif piscine Wilfrid-Hamel,,Rue Bigaouette,Centres récréatifs,0,0,POINT (-71.24146500348547 46.812084410485596),46.812084410485596,-71.24146500348547
426,105209,Centre récréatif Sainte-Foy,930.0,Avenue Roland-Beaudin,Centres récréatifs,0,0,POINT (-71.30004615922016 46.77093878877471),46.77093878877471,-71.30004615922016
427,201159,Centre récréatif Saint-Rodrigue,130.0,50e Rue Est,Centres récréatifs,0,0,POINT (-71.25154730862279 46.84680793899437),46.84680793899437,-71.25154730862279
428,201203,Centre sportif Alexis-Bérubé,2175.0,Avenue Saint-Clément,Centres sportifs,0,0,POINT (-71.21236461084261 46.850460605003505),46.850460605003505,-71.21236461084261
429,102333,Centre sportif Marcel-Bédard,655.0,Boulevard des Chutes,Arénas,0,0,POINT (-71.18975274953263 46.85747633983049),46.85747633983049,-71.18975274953263
430,102329,Centre sportif Marc-Simoneau,3500.0,Rue Cambronne,Centres sportifs,0,0,POINT (-71.20937252730887 46.861635416039846),46.861635416039846,-71.20937252730887
431,202379,Centre Vidéotron,250.0,Boulevard Wilfrid-Hamel,Arénas,0,0,POINT (-71.24737804884342 46.82901517951634),46.82901517951634,-71.24737804884342
432,101779,C.F.P. de Limoilou,2050.0,8e Avenue,Écoles CFP,0,0,POINT (-71.23094540039804 46.83460583370116),46.83460583370116,-71.23094540039804
433,101773,C.F.P. de Neufchâtel,3400.0,Avenue Chauveau,Écoles CFP,0,0,POINT (-71.34499973516301 46.83630542171148),46.83630542171148,-71.34499973516301
434,101781,C.F.P. de Québec,1925.0,Rue Monseigneur-Plessis,Écoles CFP,0,0,POINT (-71.25209773627371 46.81892347035698),46.81892347035698,-71.25209773627371
435,101775,C.F.P. d'Entreprise de la Capitale,840.0,Rue Raoul-Jobin,Écoles CFP,0,0,POINT (-71.24746852051084 46.80601123241422),46.80601123241422,-71.24746852051084
436,101877,C.F.P. Eastern Québec,3005.0,Rue William-Stuart,Écoles CFP,0,0,POINT (-71.28669827787277 46.75810649277071),46.75810649277071,-71.28669827787277
437,102107,C.F.P. en Transport de Charlesbourg,700.0,Rue de l'Argon,Écoles CFP,0,0,POINT (-71.32677821562226 46.88881298915651),46.88881298915651,-71.32677821562226
438,201135,C.F.P. Fierbourg,800.0,Rue de la Sorbonne,Écoles CFP,0,0,POINT (-71.25646917513541 46.863639724870666),46.863639724870666,-71.25646917513541
439,103569,C.F.P. Le Fierbourg,337.0,76e Rue Ouest,Écoles secondaires,0,0,POINT (-71.27004696614772 46.857987951390726),46.857987951390726,-71.27004696614772
440,101789,C.F.P. Louis-Jolliet,1201.0,Rue de la Pointe-aux-Lièvres,Écoles CFP,0,0,POINT (-71.24139246990016 46.8214974537651),46.8214974537651,-71.24139246990016
441,101863,C.F.P. Marie-Rollet,,Boulevard Hochelaga,Écoles CFP,0,0,POINT (-71.29619090564913 46.767713281239324),46.767713281239324,-71.29619090564913
442,101867,C.F.P. Maurice-Barbeau,762.0,Rue Jacques-Berthiaume,Écoles CFP,0,0,POINT (-71.30669259548854 46.7791832034404),46.7791832034404,-71.30669259548854
443,102111,C.F.P. Samuel-De Champlain,2740.0,Avenue Saint-David,Écoles CFP,0,0,POINT (-71.20929724400874 46.860263470333294),46.860263470333294,-71.20929724400874
444,201243,Chalet aux Pignons Verts,121.0,Rue Vachon,Pavillons de services,0,0,POINT (-71.15908509247934 46.88827729384395),46.88827729384395,-71.15908509247934
445,201170,Chalet Bon-Pasteur,395.0,Rue du Bienheureux-Jean-XXIII,Pavillons de services,0,0,POINT (-71.3091695016387 46.899723326078266),46.899723326078266,-71.3091695016387
446,201172,Chalet Bourg-Royal,1435.0,Boulevard Louis-XIV,Pavillons de services,0,0,POINT (-71.24852131062936 46.87965494583875),46.87965494583875,-71.24852131062936
447,201151,Chalet Chabot,1641.0,Avenue de Colmar,Pavillons de services,0,0,POINT (-71.27119111779277 46.87743367197253),46.87743367197253,-71.27119111779277
448,201247,Chalet Chevalier,491.0,Rue du Méandre,Pavillons de services,0,0,POINT (-71.21474483530464 46.88775260617589),46.88775260617589,-71.21474483530464
449,201292,Chalet de l'Orme,45.0,Rue de la Falaise-Verte,Pavillons de services,0,0,POINT (-71.34830493468344 46.85470183794639),46.85470183794639,-71.34830493468344
450,201296,Chalet de services de la Piscine,6106.0,Rue de l'Accueil,Pavillons de services,0,0,POINT (-71.33284143739657 46.87114288629894),46.87114288629894,-71.33284143739657
451,201177,Chalet de services de la Piscine du parc Maria-Goretti,7475.0,Avenue Paul-Comtois,Pavillons de services,0,0,POINT (-71.27178037783392 46.856279506320746),46.856279506320746,-71.27178037783392
452,201175,Chalet de services de la Piscine du parc Maurice-Dorion,8815.0,Avenue Jean-Paquin,Pavillons de services,0,0,POINT (-71.28230196771302 46.86340678668832),46.86340678668832,-71.28230196771302
453,201179,Chalet de services de la Piscine du parc Maurice-Lortie,130.0,50e Rue Est,Pavillons de services,0,0,POINT (-71.25154752837268 46.84680818270218),46.84680818270218,-71.25154752837268
454,201181,Chalet de services de la Piscine Guillaume-Mathieu,720.0,Avenue de Gironde,Pavillons de services,0,0,POINT (-71.26686094508645 46.87199349093346),46.87199349093346,-71.26686094508645
455,201183,Chalet de services de la Piscine Saint-Jérôme,585.0,64e Rue Est,Pavillons de services,0,0,POINT (-71.25303784146696 46.85626971994765),46.85626971994765,-71.25303784146696
456,201206,Chalet de services de la Piscine Terrasse Bon-Air,1085.0,60e Rue Est,Pavillons de services,0,0,POINT (-71.24109164906292 46.85884616809877),46.85884616809877,-71.24109164906292
457,201185,Chalet de services du Parc Saint-Jérôme,585.0,64e Rue Est,Pavillons de services,0,0,POINT (-71.25303779317683 46.85626966628728),46.85626966628728,-71.25303779317683
458,201297,Chalet de services du Tennis,6106.0,Rue de l'Accueil,Pavillons de services,0,0,POINT (-71.3328025287079 46.870575540408126),46.870575540408126,-71.3328025287079
459,201287,Chalet de services Restaurant,560.0,Rue Delage,Pavillons de services,0,0,POINT (-71.3779150906631 46.907053352733996),46.907053352733996,-71.3779150906631
460,201249,Chalet de tennis  Courville,2271.0,Avenue Larue,Pavillons de services,0,0,POINT (-71.1613644226046 46.890079049237215),46.890079049237215,-71.1613644226046
461,201187,Chalet de tennis  du Parc Maria-Goretti,7475.0,Avenue Paul-Comtois,Pavillons de services,0,0,POINT (-71.27246779026333 46.85540132667519),46.85540132667519,-71.27246779026333
462,201250,Chalet de tennis  Fargy,655.0,Boulevard des Chutes,Pavillons de services,0,0,POINT (-71.19028689070937 46.857801537735114),46.857801537735114,-71.19028689070937
463,201288,Chalet de Tir à l'arc,570.0,Rue Delage,Pavillons de services,0,0,POINT (-71.3798945387594 46.90610424697374),46.90610424697374,-71.3798945387594
464,201291,Chalet des Chevaliers de Colomb,1506.0,Avenue du Lac-Saint-Charles,Pavillons de services,0,0,POINT (-71.37802943396969 46.910577815302915),46.910577815302915,-71.37802943396969
465,201189,Chalet des Loisirs du Parc Terrasse Bon-Air,1085.0,60e Rue Est,Pavillons de services,0,0,POINT (-71.24109065469617 46.85884657937168),46.85884657937168,-71.24109065469617
466,201290,Chalet des Sports,540.0,Rue Delage,Pavillons de services,0,0,POINT (-71.37764096390967 46.907146146158624),46.907146146158624,-71.37764096390967
467,201193,Chalet du Parc Henri-Casault,5395.0,4e Avenue Ouest,Pavillons de services,0,0,POINT (-71.26367212558134 46.84446625977553),46.84446625977553,-71.26367212558134
468,201191,Chalet Édouard-Laurent,136.0,50e Rue Est,Pavillons de services,0,0,POINT (-71.25077897617925 46.84640735579252),46.84640735579252,-71.25077897617925
469,201152,Chalet Guillaume-Mathieu,720.0,Avenue de Gironde,Pavillons de services,0,0,POINT (-71.2668609384959 46.87199348872855),46.87199348872855,-71.2668609384959
470,201253,Chalet la Bourrasque,3320.0,Avenue Mallet,Pavillons de services,0,0,POINT (-71.22839901388237 46.86408583875449),46.86408583875449,-71.22839901388237
471,201197,Chalet la Planque,8805.0,Avenue Jean-Paquin,Pavillons de services,0,0,POINT (-71.28230191039476 46.86340690403239),46.86340690403239,-71.28230191039476
472,201195,Chalet l'Amibourg,617.0,Avenue Hélène-Paradis,Pavillons de services,0,0,POINT (-71.26592062042499 46.87128787980816),46.87128787980816,-71.26592062042499
473,201200,Chalet Lyonnais,1158.0,Rue du Lyonnais,Pavillons de services,0,0,POINT (-71.28085505333391 46.87084828458496),46.87084828458496,-71.28085505333391
474,201188,Chalet Maria-Goretti,7475.0,Avenue Paul-Comtois,Pavillons de services,0,0,POINT (-71.27195761778337 46.855982297724154),46.855982297724154,-71.27195761778337
475,201254,Chalet Noël-Langlois,99.0,Rue de la Terrasse-Orléans,Pavillons de services,0,0,POINT (-71.1745314596536 46.864604027066406),46.864604027066406,-71.1745314596536
476,201167,Chalet Notre-Dame,55.0,Rue Moïse-Verret,Pavillons de services,0,0,POINT (-71.3408856774836 46.910516050395685),46.910516050395685,-71.3408856774836
477,201255,Chalet Saint-Ignace,3300.0,Chemin Royal,Pavillons de services,0,0,POINT (-71.20905291308044 46.851409631523374),46.851409631523374,-71.20905291308044
478,201149,Chalet Saint-Pierre,5485.0,Avenue des Platanes,Pavillons de services,0,0,POINT (-71.28325006362383 46.884361475259105),46.884361475259105,-71.28325006362383
479,201257,Chalet Savio,95.0,Rue Savio,Pavillons de services,0,0,POINT (-71.17749194549971 46.87389244859932),46.87389244859932,-71.17749194549971
480,201315,Chapelle du parc Victoria,6.0,Rue Chênevert,Pavillons de services,0,0,POINT (-71.23893956506475 46.81529684519586),46.81529684519586,-71.23893956506475
481,200693,Charles-Auguste Fortier Inc.,,Boulevard de la Colline,Carrières  et Sablières,0,0,POINT (-71.37474380079703 46.897494002271934),46.897494002271934,-71.37474380079703
482,200475,CHSLD Christ-Roi,900.0,Boulevard Wilfrid-Hamel,Centres d'hébergement,0,0,POINT (-71.25837456314672 46.811355985278894),46.811355985278894,-71.25837456314672
483,201536,CHSLD Côté Jardin inc.,880.0,Avenue Painchaud,Centres d'hébergement,0,0,POINT (-71.26111549965273 46.78814996758201),46.78814996758201,-71.26111549965273
484,201535,CHSLD Domaine Saint-Dominique S.E.C.,1045.0,Boulevard René-Lévesque Ouest,Centres d'hébergement,0,0,POINT (-71.24146290295239 46.79484494755941),46.79484494755941,-71.24146290295239
485,201574,CHSLD Hôpital Chauveau,11999.0,Rue de l'Hôpital,Centres d'hébergement,0,0,POINT (-71.37033864356283 46.85344553494479),46.85344553494479,-71.37033864356283
486,201531,CHSLD Jeffery Hale,1250.0,Chemin Sainte-Foy,Centres d'hébergement,0,0,POINT (-71.25326193237332 46.79666620586782),46.79666620586782,-71.25326193237332
487,201539,CHSLD Neilson inc.,3390.0,Rue de Galais,Centres d'hébergement,0,0,POINT (-71.30690869787473 46.755118721966355),46.755118721966355,-71.30690869787473
488,201533,CHSLD Saint Brigid's Home,1645.0,Chemin Saint-Louis,Centres d'hébergement,0,0,POINT (-71.24522146258684 46.78435222114706),46.78435222114706,-71.24522146258684
489,201553,CHSLD Saint-François,1604.0,1re Avenue,Centres d'hébergement,0,0,POINT (-71.23594206488639 46.82904125137808),46.82904125137808,-71.23594206488639
490,101853,Collège des Compagnons,3643.0,Avenue des Compagnons,Écoles secondaires,0,0,POINT (-71.32857570510221 46.75956415859826),46.75956415859826,-71.32857570510221
491,103555,Collège François-de-Laval,6.0,Rue de la Vieille-Université,Écoles spécialisées,0,0,POINT (-71.20538434195082 46.81473958089714),46.81473958089714,-71.20538434195082
492,201328,Complexe de soccer de Chauveau,7200.0,Boulevard de l'Ormière,Terrains de soccer,0,0,POINT (-71.34080177002546 46.82738507817762),46.82738507817762,-71.34080177002546
493,201355,Complexe Jean-Paul-Nolin,340.0,Rue Chabot,Centres récréatifs,0,0,POINT (-71.26362716899405 46.813323470171795),46.813323470171795,-71.26362716899405
494,200665,CSL-LOMA Inc.,,Boulevard Louis-XIV,Carrières  et Sablières,0,0,POINT (-71.18335708622718 46.90396952820501),46.90396952820501,-71.18335708622718
495,200675,CSL-LOMA Inc.,,Chemin du Silex,Carrières  et Sablières,0,0,POINT (-71.19729577256409 46.93635854131714),46.93635854131714,-71.19729577256409
496,200671,CSL-LOMA Inc.,,Boulevard Lloyd-Welch,Carrières  et Sablières,0,0,POINT (-71.19502947304221 46.915102794992144),46.915102794992144,-71.19502947304221
497,200670,CSL-LOMA Inc.,,Boulevard Lloyd-Welch,Carrières  et Sablières,0,0,POINT (-71.19295691365977 46.91672177579355),46.91672177579355,-71.19295691365977
498,200668,CSL-LOMA Inc.,,Rue du Gouffre,Carrières  et Sablières,0,0,POINT (-71.18473498095528 46.91628924686456),46.91628924686456,-71.18473498095528
499,200667,CSL-LOMA Inc.,,Rue du Torrent,Carrières  et Sablières,0,0,POINT (-71.18624261797783 46.91620418450983),46.91620418450983,-71.18624261797783
500,200666,CSL-LOMA Inc.,,Avenue des Sablonnières,Carrières  et Sablières,0,0,POINT (-71.18441513838059 46.91208949860236),46.91208949860236,-71.18441513838059
501,200669,CSL-LOMA Inc.,,Rue du Gouffre,Carrières  et Sablières,0,0,POINT (-71.18312194515107 46.91645229833867),46.91645229833867,-71.18312194515107
502,200674,CSL-LOMA Inc.,,Boulevard Lloyd-Welch,Carrières  et Sablières,0,0,POINT (-71.19455775057352 46.923170843273894),46.923170843273894,-71.19455775057352
503,200673,CSL-LOMA Inc.,,Boulevard Lloyd-Welch,Carrières  et Sablières,0,0,POINT (-71.19778021779673 46.91933436916234),46.91933436916234,-71.19778021779673
504,200676,CSL-LOMA Inc.,,Chemin du Silex,Carrières  et Sablières,0,0,POINT (-71.20129804283138 46.94542665685114),46.94542665685114,-71.20129804283138
505,203062,Écocentre Beauport,425.0,Boulevard Raymond,Écocentres,0,0,POINT (-71.18375050810342 46.885260330327434),46.885260330327434,-71.18375050810342
506,200786,Écocentre de l'Hêtrière,3381.0,Rue de l'Hêtrière,Écocentres,0,0,POINT (-71.37346876265237 46.76244690968637),46.76244690968637,-71.37346876265237
507,200787,Écocentre des Rivières,1700.0,Rue Provinciale,Écocentres,0,0,POINT (-71.27219937649708 46.80160410775752),46.80160410775752,-71.27219937649708
508,200789,Écocentre Jean-Talon (Matrec),1700.0,Boulevard Jean-Talon Ouest,Écocentres,0,0,POINT (-71.30704941676044 46.86461389682903),46.86461389682903,-71.30704941676044
509,200755,Écocentre Val-Bélair,1472.0,Rue Jean-Bardot,Écocentres,0,0,POINT (-71.45029688051571 46.878427773775876),46.878427773775876,-71.45029688051571
510,104293,École primaire à l'Orée-des-Bois,1389.0,Rue des Camarades,Écoles primaires / secondaires,0,0,POINT (-71.41233084086853 46.84612496672357),46.84612496672357,-71.41233084086853
511,104289,École primaire Amédée-Boutin,1015.0,Avenue de la Montagne Ouest,Écoles primaires,0,0,POINT (-71.43250273211365 46.84196476807805),46.84196476807805,-71.43250273211365
512,101619,École primaire Anne-Hébert,555.0,Chemin Sainte-Foy,Écoles primaires,0,0,POINT (-71.23568953356464 46.801798423722666),46.801798423722666,-71.23568953356464
513,104343,École primaire aux Quatre-Vents,105.0,Rue Savio,Écoles primaires,0,0,POINT (-71.17539809452722 46.8740954939351),46.8740954939351,-71.17539809452722
514,101939,École primaire Beausoleil,2267.0,Avenue Royale,Écoles primaires,0,0,POINT (-71.1598968830309 46.88511415770494),46.88511415770494,-71.1598968830309
515,104251,École primaire Campanile,3645.0,Chemin Sainte-Foy,Écoles primaires,0,0,POINT (-71.33430370397932 46.76345062468944),46.76345062468944,-71.33430370397932
516,101999,École primaire Chabot et de l'Oasis,1666.0,Avenue de Lozère,Écoles primaires,0,0,POINT (-71.2710414560195 46.876663463575284),46.876663463575284,-71.2710414560195
517,100522,École primaire Coeur-Vaillant,3430.0,Boulevard Neilson,Écoles primaires,0,0,POINT (-71.3111685863387 46.75688861602785),46.75688861602785,-71.3111685863387
518,101801,École primaire Collège Saint-Alphonse,1473.0,Rue Provancher,Écoles primaires,0,0,POINT (-71.34266376317575 46.75036716250018),46.75036716250018,-71.34266376317575
519,101637,École primaire de Château-d'Eau,3075.0,Rue du Golf,Écoles primaires,0,0,POINT (-71.36959889460432 46.859280876212516),46.859280876212516,-71.36959889460432
520,101621,École primaire de La Chanterelle,1070.0,Boulevard Pie-XI Nord,Écoles primaires,0,0,POINT (-71.41640816811244 46.85662772012862),46.85662772012862,-71.41640816811244
521,101681,École primaire de la Chaumière,4285.0,Rue René-Chaloult,Écoles primaires,0,0,POINT (-71.35905423588024 46.832544951789544),46.832544951789544,-71.35905423588024
522,102037,École primaire de la Farandole,139.0,Rue Bertrand,Écoles primaires,0,0,POINT (-71.19061926719249 46.903508936595586),46.903508936595586,-71.19061926719249
523,102039,École primaire de la Fourmilière,5125.0,2e Avenue Ouest,Écoles primaires,0,0,POINT (-71.25589204387293 46.84642848291168),46.84642848291168,-71.25589204387293
524,101723,École primaire de la Grande-Hermine,1355.0,2e Avenue,Écoles primaires,0,0,POINT (-71.23387855796088 46.827828170284846),46.827828170284846,-71.23387855796088
525,101701,École primaire de la Mosaïque,2264.0,Rue Lemieux,Écoles primaires,0,0,POINT (-71.29793650117702 46.81337420739531),46.81337420739531,-71.29793650117702
526,202755,École primaire de la Myriade,1172.0,Rue de l'Etna,Écoles primaires,0,0,POINT (-71.42778814183254 46.84850888517212),46.84850888517212,-71.42778814183254
527,102067,École primaire de la Passerelle,460.0,Rue des Couventines,Écoles primaires,0,0,POINT (-71.37198882179143 46.90869521681195),46.90869521681195,-71.37198882179143
528,102081,École primaire de la Pléiade,2324.0,Avenue Renouard,Écoles primaires,0,0,POINT (-71.21036874432109 46.85374712485801),46.85374712485801,-71.21036874432109
529,103609,École primaire de la Primerose,155.0,Rue Bessette,Écoles primaires,0,0,POINT (-71.19288199199003 46.891773351269514),46.891773351269514,-71.19288199199003
530,102073,École primaire de la Ribambelle,500.0,Rue Anick,Écoles primaires,0,0,POINT (-71.20074496300495 46.88897933544809),46.88897933544809,-71.20074496300495
531,101657,École primaire de la Source,204.0,Boulevard des Étudiants,Écoles primaires,0,0,POINT (-71.37023113734301 46.85067667462443),46.85067667462443,-71.37023113734301
532,103749,École primaire de l'Accueil,1587.0,Rue Guillaume-Bresse,Écoles primaires,0,0,POINT (-71.33402047961037 46.870066208102784),46.870066208102784,-71.33402047961037
533,101623,École primaire de l'Apprenti-Sage,2200.0,Rue Coursol,Écoles primaires,0,0,POINT (-71.32721049168795 46.84682901488455),46.84682901488455,-71.32721049168795
534,101625,École primaire de l'Arc-en-Ciel,475.0,Rue Racine,Écoles primaires,0,0,POINT (-71.36428341631596 46.847501656532636),46.847501656532636,-71.36428341631596
535,101937,École primaire de l'Arc-en-ciel,570.0,Rue Pacifique,Écoles primaires,0,0,POINT (-71.37187620322487 46.89271221944825),46.89271221944825,-71.37187620322487
536,101659,École primaire de l'Aventure,40.0,Boulevard Johnny-Parent,Écoles primaires,0,0,POINT (-71.3551602389839 46.8457823912939),46.8457823912939,-71.3551602389839
537,101699,École primaire de l'Escabelle Pavillon A,2120.0,Rue du Curé-Lacroix,Écoles primaires,0,0,POINT (-71.33418601196125 46.856871816120176),46.856871816120176,-71.33418601196125
538,101663,École primaire de l'Escabelle Pavillon B,10721.0,Rue Saint-Charles,Écoles primaires,0,0,POINT (-71.33302511483971 46.85708381187998),46.85708381187998,-71.33302511483971
539,101717,École primaire de l'Escabelle Pavillon C,10725.0,Rue Saint-Charles,Écoles primaires,0,0,POINT (-71.33316804766544 46.857554730198956),46.857554730198956,-71.33316804766544
540,106711,École primaire de l'Escalade,20.0,Rue de l'Escalade,Écoles primaires,0,0,POINT (-71.30648258820034 46.90066424807681),46.90066424807681,-71.30648258820034
541,102027,École primaire de l'Escalade,365.0,Rue du Bienheureux-Jean-XXIII,Écoles primaires,0,0,POINT (-71.3072375397461 46.899203630262306),46.899203630262306,-71.3072375397461
542,106709,École primaire de l'Escale et du Plateau,8595.0,Boulevard Cloutier,Écoles primaires,0,0,POINT (-71.2788742875016 46.86345679151488),46.86345679151488,-71.2788742875016
543,102031,École primaire de l'Escale et du Plateau,8805.0,Avenue de Laval,Écoles primaires,0,0,POINT (-71.28010974212876 46.863754104085054),46.863754104085054,-71.28010974212876
544,203113,École primaire de l'Étoile-du-Nord,3220.0,Rue de la Galaxie,Écoles primaires,0,0,POINT (-71.32696851128155 46.884429030541476),46.884429030541476,-71.32696851128155
545,102059,École primaire de l'Harmonie (Monseigneur-Robert),769.0,Avenue de l'Éducation,Écoles primaires,0,0,POINT (-71.18871352189056 46.86964924958826),46.86964924958826,-71.18871352189056
546,102077,École primaire de l'Harmonie (Saint-Édouard),15.0,Rue Saint-Edmond,Écoles primaires,0,0,POINT (-71.18659029728272 46.85946034962048),46.85946034962048,-71.18659029728272
547,102199,École primaire de l'Oasis,1501.0,Rue du Périgord,Écoles primaires,0,0,POINT (-71.28784711695288 46.869325913904355),46.869325913904355,-71.28784711695288
548,102079,École primaire de Saint-Michel,453.0,Rue Seigneuriale,Écoles primaires,0,0,POINT (-71.21143298009042 46.88946923407089),46.88946923407089,-71.21143298009042
549,101819,École primaire d'éduc. internationale St-Mathieu,995.0,Avenue Duchesneau,Écoles primaires,0,0,POINT (-71.30783096311104 46.76626474569838),46.76626474569838,-71.30783096311104
550,101817,École primaire d'éducation internationale Filteau,830.0,Rue De Saurel,Écoles primaires,0,0,POINT (-71.32451388433401 46.76674224018991),46.76674224018991,-71.32451388433401
551,101735,École primaire des Berges,510.0,Rue du Prince-Édouard,Écoles primaires,0,0,POINT (-71.22514752247848 46.81750631564179),46.81750631564179,-71.22514752247848
552,102025,École primaire des Cimes,250.0,Rue Cambert,Écoles primaires,0,0,POINT (-71.21471440795636 46.9045916290742),46.9045916290742,-71.21471440795636
553,102043,École primaire des Constellations,7220.0,Avenue Trudelle,Écoles primaires,0,0,POINT (-71.2735606864634 46.85302386763612),46.85302386763612,-71.2735606864634
554,102075,"École primaire des Deux-Moulins, Pavillon Du Rucher",1075.0,60e Rue Est,Écoles primaires,0,0,POINT (-71.24188136580811 46.85814453259257),46.85814453259257,-71.24188136580811
555,102065,"École primaire des Deux-Moulins,Pav. Parc-Orléans",7550.0,10e Avenue Est,Écoles primaires,0,0,POINT (-71.25245688687546 46.86434073513677),46.86434073513677,-71.25245688687546
556,101661,École primaire des Écrivains,4400.0,Rue Jacques-Crépeault,Écoles primaires,0,0,POINT (-71.31573932029724 46.802461244884164),46.802461244884164,-71.31573932029724
557,101733,École primaire des Jeunes-du-Monde (pav. Bardy),1990.0,25e Rue,Écoles primaires,0,0,POINT (-71.22847146798519 46.84456786299884),46.84456786299884,-71.22847146798519
558,101731,École primaire des Jeunes-du-Monde Pav. Champfleury,2490.0,Avenue Champfleury,Écoles primaires,0,0,POINT (-71.2291763201958 46.84377195652336),46.84377195652336,-71.2291763201958
559,101683,École primaire Dominique-Savio,2050.0,Rue de la Trinité,Écoles primaires,0,0,POINT (-71.21656479848987 46.836532528278255),46.836532528278255,-71.21656479848987
560,101679,École primaire du Beau-Séjour,1644.0,Avenue Lapierre,Écoles primaires,0,0,POINT (-71.33752125796734 46.869983026063174),46.869983026063174,-71.33752125796734
561,101941,École primaire du Boisé - Pavillon du Boisé 1,651.0,Rue Jacques-Bédard,Écoles primaires,0,0,POINT (-71.34336001526536 46.91209559376455),46.91209559376455,-71.34336001526536
562,101943,École primaire du Boisé - Pavillon du Boisé 2,99.0,Rue Moïse-Verret,Écoles primaires,0,0,POINT (-71.34219549005904 46.90982500394362),46.90982500394362,-71.34219549005904
563,101945,École primaire du Bourg-Royal,825.0,Avenue du Bourg-Royal,Écoles primaires,0,0,POINT (-71.24816542479492 46.880962729182464),46.880962729182464,-71.24816542479492
564,101677,École primaire du Buisson,5385.0,Avenue Banville,Écoles primaires,0,0,POINT (-71.32995513377794 46.82145951753712),46.82145951753712,-71.32995513377794
565,101947,École primaire du Cap-Soleil,5256.0,Avenue des Sauges,Écoles primaires,0,0,POINT (-71.2860565696734 46.88310125097858),46.88310125097858,-71.2860565696734
566,102017,École primaire du Châtelet,1495.0,Rue du Vice-Roi,Écoles primaires,0,0,POINT (-71.2610565568007 46.893421128280174),46.893421128280174,-71.2610565568007
567,103929,École primaire Du Domaine,1630.0,Rue des Balsamines,Écoles primaires,0,0,POINT (-71.28195599671633 46.8135613803061),46.8135613803061,-71.28195599671633
568,102063,École primaire du Parc,90.0,Boulevard des Français,Écoles primaires,0,0,POINT (-71.16260266360217 46.875597527711065),46.875597527711065,-71.16260266360217
569,102083,École primaire du Sous-Bois,143.0,Rue des Feux-Follets,Écoles primaires,0,0,POINT (-71.19696954182608 46.91139334925982),46.91139334925982,-71.19696954182608
570,101687,École primaire du Val-Joli,1735.0,Boulevard Pie-XI Nord,Écoles primaires,0,0,POINT (-71.44489705557798 46.87147468811988),46.87147468811988,-71.44489705557798
571,101815,École primaire du Versant - Pav. Notre-Dame-de-Foy,762.0,Rue Jacques-Berthiaume,Écoles primaires,0,0,POINT (-71.30640522078869 46.779352262754486),46.779352262754486,-71.30640522078869
572,101813,École primaire du Versant - Pavillon Ste-Geneviève,700.0,Avenue de Cherbourg,Écoles primaires,0,0,POINT (-71.3194928745585 46.77664138472997),46.77664138472997,-71.3194928745585
573,101689,École primaire du Vignoble,6300.0,Rue de Montrachet,Écoles primaires,0,0,POINT (-71.32469517356036 46.86759196577569),46.86759196577569,-71.32469517356036
574,202758,École primaire Externat Saint-Jean-Berchmans,2303.0,Chemin Saint-Louis,Écoles primaires,0,0,POINT (-71.25915210681995 46.77056256145028),46.77056256145028,-71.25915210681995
575,101811,École primaire Fernand Séguin,2590.0,Rue Biencourt,Écoles primaires,0,0,POINT (-71.29552765980786 46.78459609897682),46.78459609897682,-71.29552765980786
576,101949,École primaire Freinet  Bâtiment des Loutres,7240.0,Rue des Loutres,Écoles primaires,0,0,POINT (-71.29167772621376 46.888543122238275),46.888543122238275,-71.29167772621376
577,102085,École primaire Freinet Bâtiment Des Chutes,945.0,Boulevard des Chutes,Écoles primaires,0,0,POINT (-71.18171529887452 46.866380821481876),46.866380821481876,-71.18171529887452
578,102041,École primaire Guillaume-Mathieu,615.0,Avenue Hélène-Paradis,Écoles primaires,0,0,POINT (-71.26672580177294 46.87071510734579),46.87071510734579,-71.26672580177294
579,101879,École primaire Holland School,940.0,Avenue Ernest-Gagnon,Écoles primaires,0,0,POINT (-71.24940178713643 46.79416750387894),46.79416750387894,-71.24940178713643
580,101737,École primaire Internationale de St-Sacrement,1430.0,Chemin Sainte-Foy,Écoles primaires,0,0,POINT (-71.25645673326272 46.794042513943126),46.794042513943126,-71.25645673326272
581,101691,École primaire Jean-XXIII,3690.0,Rue Antonin-Marquis,Écoles primaires,0,0,POINT (-71.31105512112921 46.817400788958366),46.817400788958366,-71.31105512112921
582,101841,École primaire Jouvence,215.0,Rue Saint-Yves,Écoles primaires,0,0,POINT (-71.37998466717467 46.76501611460732),46.76501611460732,-71.37998466717467
583,101693,École primaire Jules-Emond,1065.0,Avenue de la Montagne Est,Écoles primaires,0,0,POINT (-71.42925411515374 46.84291724212291),46.84291724212291,-71.42925411515374
584,101821,École primaire l'Arbrisseau,4675.0,Rue de la Promenade-des-Soeurs,Écoles primaires,0,0,POINT (-71.36318746341925 46.746631615111234),46.746631615111234,-71.36318746341925
