,Location,Address1,Address2,City,Phone,DateAvailable,BookingLink,VaccineType,VaccineType2,VaccineType3,walkInAvailability,DX_COORDINATES,Take Home Test Kits,POINT,LONGITUDE,LATITUDE
0,SIX08 PHARMACY,608 5 AVE S,,LETHBRIDGE,403-694-3352,Over 4 weeks,,PFIZER,MODERNA,,True,"49.6927419761712, -112.83763639828382",,POINT (-112.837636398284 49.692741976171),-112.837636398284,49.692741976171
1,PENHOLD PHARMACY,3-1380 ROBINSON AVE,,PENHOLD,403-886-4466,Over 4 weeks,,PFIZER,,,False,"52.139603574175105, -113.86884172768282",,POINT (-113.868841727683 52.139603574175),-113.868841727683,52.139603574175
2,MANNING PHARMACY,228 MANNING CROSS NW,,EDMONTON,780-758-9595,Over 4 weeks,,PFIZER,MODERNA,,False,"53.60039277954047, -113.42370017955373",,POINT (-113.423700179554 53.60039277954),-113.423700179554,53.60039277954
3,WHITEMUD PHARMACY,101-4075 106 ST NW,,EDMONTON,780-395-0788,Over 4 weeks,,PFIZER,MODERNA,,False,"53.47800998151317, -113.50360827257539",,POINT (-113.503608272575 53.478009981513),-113.503608272575,53.478009981513
4,UNIVERSAL HEALTH PHARMACY #6,3-1861 MEADOWBROOK DR SE,,AIRDRIE,403-980-7001,Over 4 weeks,,PFIZER,MODERNA,,True,"51.275632907197526, -113.98895674403269",,POINT (-113.988956744033 51.275632907198),-113.988956744033,51.275632907198
5,THORHILD DRUG STORE,722 1 ST,,THORHILD,780-398-3883,Over 4 weeks,,PFIZER,,,False,"54.16024434726392, -113.12424907278651",,POINT (-113.124249072787 54.160244347264),-113.124249072787,54.160244347264
6,STURGEON PHARMACY,150-625 ST ALBERT TR,,ST ALBERT,780-569-1722,Over 4 weeks,,PFIZER,MODERNA,,False,,,,,
7,BURNEWOOD SQUARE PHARMACY,3416 43 AVE NW,,EDMONTON,780-757-0098,Over 4 weeks,,PFIZER,,,False,,,,,
8,APPLE DRUGS,4825 50 ST,,STETTLER,403-742-8688,Over 4 weeks,,PFIZER,,,True,"52.32388733083883, -112.70477894363059",,POINT (-112.704778943631 52.323887330839),-112.704778943631,52.323887330839
9,LONDON DRUGS #45,11704 104 AVE NW,,EDMONTON,780-488-2600,Over 4 weeks,https://www.londondrugs.com/covid19,PFIZER,,,True,"53.547637370297224, -113.52363213024483",,POINT (-113.523632130245 53.547637370297),-113.523632130245,53.547637370297
10,HEALTHY CHOICE PHARMACY 101,9430 MCKENNEY AVE,,ST ALBERT,780-460-0579,Over 4 weeks,https://www.hcpedmonton.ca,PFIZER,MODERNA,,True,"53.639539141703686, -113.63895550127133",,POINT (-113.638955501271 53.639539141704),-113.638955501271,53.639539141704
11,CRESCENT DRUGS LTD.,10029 101 AVE,,LAC LA BICHE,780-623-4059,Over 4 weeks,,PFIZER,MODERNA,,True,"54.7708825696176, -111.97459891658798",,POINT (-111.974598916588 54.770882569618),-111.974598916588,54.770882569618
12,PHARMASAVE BEVERLY,3729 118 AVE NW,,EDMONTON,780-474-9344,Over 4 weeks,https://pharmasave.com/edmonton-beverly/location/,MODERNA,,,True,"53.57032061795037, -113.39992571711542",,POINT (-113.399925717115 53.57032061795),-113.399925717115,53.57032061795
13,MEDHOUSE PHARMACY & TRAVEL CLINIC,2B-4439 52 AVE,,WHITECOURT,780-779-9900,Over 4 weeks,,PFIZER,MODERNA,,True,"54.14213725426147, -115.67230000175303",,POINT (-115.672300001753 54.142137254261),-115.672300001753,54.142137254261
14,MEDICINE SHOPPE PHARMACY 127,1016A 20 ST S,,LETHBRIDGE,403-380-3282,Over 4 weeks,https://www.medicineshoppebyhospital.ca,PFIZER,MODERNA,,True,"49.68312622638937, -112.81322117308265",,POINT (-112.813221173083 49.683126226389),-112.813221173083,49.683126226389
15,DRUGSTORE PHARMACY #9021,5701  50 AVE,,ST PAUL,780-645-7035,Over 4 weeks,https://www.extrafoods.ca/covid19,PFIZER,,,True,"54.005315733261796, -111.32509146484362",,POINT (-111.325091464844 54.005315733262),-111.325091464844,54.005315733262
16,PHARMASAVE #364,124 CENTRE AVE W,,BLACK DIAMOND,,Over 4 weeks,https://pharmasave.com/black-diamond/covid-vaccinations/,PFIZER,MODERNA,,True,"50.688597383872676, -114.23406878160256",,POINT (-114.234068781603 50.688597383873),-114.234068781603,50.688597383873
17,SHOPPERS DRUG MART #2448,924 91 ST SW,,EDMONTON,780-485-5550,Over 4 weeks,https://www1.shoppersdrugmart.ca/en/health-and-pharmacy/covid-19?ShortURL=covid,PFIZER,,,True,"53.424564756072236, -113.4765145907143",,POINT (-113.476514590714 53.424564756072),-113.476514590714,53.424564756072
18,SAFEWAY PHARMACY #8928,146-3210 118 AVE NW,,EDMONTON,780-477-0855,Over 4 weeks,https://www.safeway.ca/vaccine-registration/,PFIZER,,,True,"53.57162281391652, -113.39052168551581",,POINT (-113.390521685516 53.571622813917),-113.390521685516,53.571622813917
19,MEDICINE SHOPPE PHARMACY 274,831 SADDLEBACK RD NW,,EDMONTON,780-435-3345,Over 4 weeks,https://www.medicineshoppe.ca/en/alberta/edmonton/the-medicine-shoppe-pharmacy-274-7041890,PFIZER,,,False,"53.45324428332221, -113.5241612023493",,POINT (-113.524161202349 53.453244283322),-113.524161202349,53.453244283322
20,MEDICINE SHOPPE PHARMACY 390,2356 23 AVE NW,,EDMONTON,780-485-1378,Over 4 weeks,https://www.medicineshoppe.ca/en/alberta/edmonton/the-medicine-shoppe-pharmacy-390-7028732,PFIZER,MODERNA,,True,"53.45509594472576, -113.37644345944946",,POINT (-113.376443459449 53.455095944726),-113.376443459449,53.455095944726
21,SHOPPERS DRUG MART #350,5500 FALSBRIDGE DR NE,,CALGARY,403-293-2560,Over 4 weeks,https://www1.shoppersdrugmart.ca/en/health-and-pharmacy/covid-19?ShortURL=covid,PFIZER,MODERNA,,True,"51.0980379703412, -113.95569630355418",,POINT (-113.955696303554 51.098037970341),-113.955696303554,51.098037970341
22,SHOPPERS DRUG MART #2311,10720 78 AVE,,GRANDE PRAIRIE,780-814-9028,Over 4 weeks,https://www1.shoppersdrugmart.ca/en/health-and-pharmacy/covid-19?ShortURL=covid,MODERNA,,,True,"55.15218128487392, -118.81833535774145",,POINT (-118.818335357741 55.152181284874),-118.818335357741,55.152181284874
23,ALPINE DRUG MART,5132 49 ST,,ROCKY MOUNTAIN HOUSE,403-845-6904,Over 4 weeks,https://alpinevaluedrugmart.medmeapp.com/schedule,PFIZER,MODERNA,,False,"52.37733106277647, -114.91803485712113",,POINT (-114.918034857121 52.377331062776),-114.918034857121,52.377331062776
24,WEST HEALTH PHARMACY,10660 156 ST NW,,EDMONTON,780-244-1390,Over 4 weeks,,PFIZER,MODERNA,,True,"53.550704859209276, -113.59032766332889",,POINT (-113.590327663329 53.550704859209),-113.590327663329,53.550704859209
25,LIFECARE PHARMACY,1332 WINDERMERE WAY SW,,EDMONTON,780-710-7107,Over 4 weeks,,PFIZER,MODERNA,,True,"53.43375228903615, -113.61808789944305",,POINT (-113.618087899443 53.433752289036),-113.618087899443,53.433752289036
26,SAFEWAY PHARMACY #8874,985 FIR ST,,SHERWOOD PARK,780-467-0153,Over 4 weeks,https://www.safeway.ca/vaccine-registration/,PFIZER,,,True,"53.51350895439901, -113.32371218661854",,POINT (-113.323712186619 53.513508954399),-113.323712186619,53.513508954399
27,SAFEWAY PHARMACY #8907,9601 FRANKLIN AVE,,FORT MCMURRAY,780-790-2388,Over 4 weeks,https://www.safeway.ca/vaccine-registration/,PFIZER,MODERNA,,True,"56.723376621490914, -111.37398505345234",,POINT (-111.373985053452 56.723376621491),-111.373985053452,56.723376621491
28,SHOPPERS DRUG MART #2325,300-1500 MAIN ST SW,,SLAVE LAKE,780-849-4556,Over 4 weeks,https://www1.shoppersdrugmart.ca/en/health-and-pharmacy/covid-19?ShortURL=covid,PFIZER,MODERNA,,True,"55.33570302024018, -114.45593922823564",,POINT (-114.455939228236 55.33570302024),-114.455939228236,55.33570302024
29,WALDINS PHARMACY LTD.,9124 23 AVE NW,,EDMONTON,780-756-3350,Over 4 weeks,,PFIZER,,,False,"53.452702924342624, -113.4695944593123",,POINT (-113.469594459312 53.452702924343),-113.469594459312,53.452702924343
30,WAL-MART PHARMACY #3151,100-310 SHAWVILLE BLVD SE,,CALGARY,403-201-5426,Over 4 weeks,https://portal.healthmyself.net/walmartab/forms/a66,PFIZER,,,True,"50.90101993427606, -114.0606655812924",,POINT (-114.060665581292 50.901019934276),-114.060665581292,50.901019934276
31,LOBLAW PHARMACY #1541,3515 MAYOR MAGRATH DR S,,LETHBRIDGE,403-331-2535,Over 4 weeks,https://www.realcanadiansuperstore.ca/covid19,PFIZER,,,True,"49.65923890770609, -112.7891074149965",,POINT (-112.789107414996 49.659238907706),-112.789107414996,49.659238907706
32,MEDICINE SHOPPE PHARMACY 411,3-704 MAIN ST SE,,AIRDRIE,403-980-1587,Over 4 weeks,https://www.medicineshoppe.ca/en/alberta/airdrie/the-medicine-shoppe-pharmacy-411-7046160,PFIZER,MODERNA,,True,"51.28657466033382, -114.01220884062474",,POINT (-114.012208840625 51.286574660334),-114.012208840625,51.286574660334
33,MACMILLAN'S PHARMACY,108-4930 55 AVE,,DRAYTON VALLEY,780-542-5102,Over 4 weeks,,PFIZER,,,False,"53.22859995194274, -114.97467783062284",,POINT (-114.974677830623 53.228599951943),-114.974677830623,53.228599951943
34,PACIFIC PLACE PHARMASAVE #393,958B-999 36 ST NE,,CALGARY,403-768-0202,Over 4 weeks,https://www.pacificplacepharmasave.com,PFIZER,MODERNA,,True,"51.0622958074052, -113.98403488058095",,POINT (-113.984034880581 51.062295807405),-113.984034880581,51.062295807405
35,SHOPPERS DRUG MART #323,108-392 ST. ALBERT TR,,ST ALBERT,780-458-5880,Over 4 weeks,https://www1.shoppersdrugmart.ca/en/health-and-pharmacy/covid-19?ShortURL=covid,PFIZER,MODERNA,,True,"53.64442076170706, -113.62815068658486",,POINT (-113.628150686585 53.644420761707),-113.628150686585,53.644420761707
36,SHOPPERS DRUG MART #2405,4940 137 AVE NW,,EDMONTON,780-670-5097,Over 4 weeks,https://www1.shoppersdrugmart.ca/en/health-and-pharmacy/covid-19?ShortURL=covid,PFIZER,,,True,"53.59771275511491, -113.40982892862672",,POINT (-113.409828928627 53.597712755115),-113.409828928627,53.597712755115
37,SHOPPERS DRUG MART #349,7606 ELBOW DRIVE SW,,CALGARY,403-255-1851,Over 4 weeks,https://www1.shoppersdrugmart.ca/en/health-and-pharmacy/covid-19?ShortURL=covid,PFIZER,MODERNA,,True,"50.98600973550719, -114.08248073054618",,POINT (-114.082480730546 50.986009735507),-114.082480730546,50.986009735507
38,ZENRX PHARMACY,450 14 ST NW,,CALGARY,403-270-7444,Over 4 weeks,,MODERNA,,,False,"51.05661209681784, -114.09432945980619",,POINT (-114.094329459806 51.056612096818),-114.094329459806,51.056612096818
39,CROWBOROUGH PHARMACY,111-6055 ANDREWS WAY SW,,EDMONTON,587-735-3492,Over 4 weeks,https://www.crowboroughpharmacy.com,PFIZER,,,False,"53.42981801883372, -113.59143481476812",,POINT (-113.591434814768 53.429818018834),-113.591434814768,53.429818018834
40,LOBLAW PHARMACY #4410,1906 8 AVE,,FORT MACLEOD,403-553-7905,Over 4 weeks,https://www.yourindependentgrocer.ca/covid19,PFIZER,,,False,"49.72239062805474, -113.38963995930827",,POINT (-113.389639959308 49.722390628055),-113.389639959308,49.722390628055
41,SHOPPERS DRUG MART #341,WESTLAND MALL,70 MCLEOD AVE HWY 16,SPRUCE GROVE,780-962-5202,Over 4 weeks,https://www1.shoppersdrugmart.ca/en/health-and-pharmacy/covid-19?ShortURL=covid,PFIZER,MODERNA,,True,"53.54282311369693, -113.91459281513383",,POINT (-113.914592815134 53.542823113697),-113.914592815134,53.542823113697
42,CO-OP PHARMACY STONY PLAIN,4917A 50 AVE,,STONY PLAIN,780-963-8432,Over 4 weeks,,PFIZER,,,True,"53.5300849653886, -114.00669961495007",,POINT (-114.00669961495 53.530084965389),-114.00669961495,53.530084965389
43,Macleod South,14815 Bannister Road SE,,CALGARY,811,Over 4 weeks,https://www.albertahealthservices.ca/topics/Page17295.aspx,PFIZER,MODERNA,ASTRAZENECA,False,"50.919813432719316, -114.06936577143128",,POINT (-114.069365771431 50.919813432719),-114.069365771431,50.919813432719
44,REXALL #7517,20-12 AQUITANIA BLVD W,,LETHBRIDGE,587-486-9357,Over 4 weeks,https://www.rexall.ca/covid-19/alberta-vaccine,PFIZER,,,False,"49.67325566541579, -112.90179382958954",,POINT (-112.90179382959 49.673255665416),-112.90179382959,49.673255665416
45,SRX PHARMACY #2,B01-8625 112 ST,,EDMONTON,587-454-2413,Over 4 weeks,,PFIZER,,,False,"53.522827365082904, -113.52042454396958",,POINT (-113.52042454397 53.522827365083),-113.52042454397,53.522827365083
46,WILLOW PARK PHARMASAVE #362,5905 50 ST,,LEDUC,780-612-6994,Over 4 weeks,https://leducpharmasave.com,PFIZER,MODERNA,,True,"53.27304547519219, -113.54889755778892",,POINT (-113.548897557789 53.273045475192),-113.548897557789,53.273045475192
47,SAVE-ON-FOODS PHARMACY #6628,10819 106 AVE,,GRANDE PRAIRIE,780-402-2530,Over 4 weeks,https://saveonfoodspharmacy.medmeapp.com/schedule/,MODERNA,,,True,"55.175161657248445, -118.8217344479456",,POINT (-118.821734447946 55.175161657248),-118.821734447946,55.175161657248
48,WOODS DISPENSARY,2931 20 AVE S,,LETHBRIDGE,403-328-0822,Over 4 weeks,,PFIZER,,,False,"49.67337327292146, -112.79767710944934",,POINT (-112.797677109449 49.673373272921),-112.797677109449,49.673373272921
49,MORINVILLE PHARMACY,103-10507 100 AVE,,MORINVILLE,780-572-6155,Over 4 weeks,,PFIZER,,,False,"53.801596933093, -113.65447096757117",,POINT (-113.654470967571 53.801596933093),-113.654470967571,53.801596933093
50,REXALL #7228,300-9650 HARVEST HILLS BLVD NE,,CALGARY,403-567-9102,Over 4 weeks,https://www.rexall.ca/covid-19/alberta-vaccine,PFIZER,,,True,"51.140796689247644, -114.0682160058575",,POINT (-114.068216005857 51.140796689248),-114.068216005857,51.140796689248
51,SHOPPERS DRUG MART #2396,6428 28 AVE NW,,EDMONTON,780-463-8833,Over 4 weeks,https://www1.shoppersdrugmart.ca/en/health-and-pharmacy/covid-19?ShortURL=covid,PFIZER,,,True,"53.46033113670044, -113.43148521698251",,POINT (-113.431485216983 53.4603311367),-113.431485216983,53.4603311367
52,REXALL #7215,116 TOWN CREST RD,,FORT SASKATCHEWAN,780-998-3217,Over 4 weeks,https://www.rexall.ca/covid-19/alberta-vaccine,PFIZER,MODERNA,,False,"53.682000121158666, -113.24082007866791",,POINT (-113.240820078668 53.682000121159),-113.240820078668,53.682000121159
53,LUKES DRUG MART-KILLARNEY,3407 26 AVE SW,,CALGARY,403-242-1566,Over 4 weeks,https://www.lukesdrugmart.com,PFIZER,,,True,"51.029796382964776, -114.13593823054494",,POINT (-114.135938230545 51.029796382965),-114.135938230545,51.029796382965
54,WAL-MART PHARMACY #1094,6110 CURRENTS DR NW,,EDMONTON,780-438-1161,Over 4 weeks,https://portal.healthmyself.net/walmartab/forms/a66,PFIZER,MODERNA,,True,"53.438863726373235, -113.59993274004295",,POINT (-113.599932740043 53.438863726373),-113.599932740043,53.438863726373
55,SAFEWAY PHARMACY #8915,615 DIVISION AVE SE,,MEDICINE HAT,403-504-2925,Over 4 weeks,https://www.safeway.ca/vaccine-registration/,PFIZER,,,True,"50.03307859522794, -110.68451200019605",,POINT (-110.684512000196 50.033078595228),-110.684512000196,50.033078595228
56,DOAN PHARMACY LTD,10920 107 AVE NW,,EDMONTON,780-423-8088,Over 4 weeks,,MODERNA,,,True,"53.55170422959095, -113.50982211661767",,POINT (-113.509822116618 53.551704229591),-113.509822116618,53.551704229591
57,DISCOVERY RIDGE COMPOUNDING PHARMACY AND TRAVEL CLINIC,712-10 DISCOVERY RIDGE HILL SW,,CALGARY,403-475-4325,Over 4 weeks,https://www.discoveryridgepharmacy.ca,PFIZER,,,True,"51.0156410717315, -114.21362983016934",,POINT (-114.213629830169 51.015641071732),-114.213629830169,51.015641071732
58,CONNECTCARE PHARMACY SPRUCE GROVE,214-20 WESTWIND DR,,SPRUCE GROVE,587-461-2060,Over 4 weeks,,PFIZER,MODERNA,,True,"53.566282446391746, -113.88354049960658",,POINT (-113.883540499607 53.566282446392),-113.883540499607,53.566282446392
59,WAL-MART PHARMACY #3029,1203 PARSONS RD NW,,EDMONTON,780-465-1595,Over 4 weeks,https://portal.healthmyself.net/walmartab/forms/a66,PFIZER,MODERNA,,True,"53.442677602762096, -113.46745029672041",,POINT (-113.46745029672 53.442677602762),-113.46745029672,53.442677602762
60,CO-OP PHARMACY TRADER RIDGE,13201 102 ST,,GRANDE PRAIRIE,780-402-8299,Over 4 weeks,,PFIZER,,,False,"55.200462671368015, -118.79999703023815",,POINT (-118.799997030238 55.200462671368),-118.799997030238,55.200462671368
61,HEALTH WAY PHARMACY,109-5809 MACLEOD TR SW,,CALGARY,403-460-3825,Over 4 weeks,,PFIZER,MODERNA,,True,"51.00187606341906, -114.07246148784179",,POINT (-114.072461487842 51.001876063419),-114.072461487842,51.001876063419
62,RX DRUG MART #2021,5004 53 AVE,,HIGH PRAIRIE,780-523-3878,Over 4 weeks,,PFIZER,,,True,"55.43343175494958, -116.49581312481573",,POINT (-116.495813124816 55.43343175495),-116.495813124816,55.43343175495
63,SHOPPERS DRUG MART #2341,10015 107 ST,,WESTLOCK,780-349-3388,Over 4 weeks,https://www1.shoppersdrugmart.ca/en/health-and-pharmacy/covid-19?ShortURL=covid,PFIZER,MODERNA,,True,"54.15638834852529, -113.86022988235388",,POINT (-113.860229882354 54.156388348525),-113.860229882354,54.156388348525
64,SAFEWAY PHARMACY #8989,100-4915 130 AVE SE,,CALGARY,403-257-8520,Over 4 weeks,https://www.safeway.ca/vaccine-registration/,PFIZER,MODERNA,,True,"50.93045298157235, -113.96310956154393",,POINT (-113.963109561544 50.930452981572),-113.963109561544,50.930452981572
65,STAFFORD PHARMACY & HOME HEALTHCARE,5-1475 ST. EDWARD BLVD N,,LETHBRIDGE,403-320-6500,Over 4 weeks,https://www.book.pharmachoice.com/%28403%29320-6500,PFIZER,,,False,"49.71839071307365, -112.83144408825095",,POINT (-112.831444088251 49.718390713074),-112.831444088251,49.718390713074
66,MEDICINE SHOPPE PHARMACY 370,11407 40 AVE NW,,EDMONTON,780-468-1557,Over 4 weeks,https://www.medicineshoppe.ca/en/alberta/edmonton/the-medicine-shoppe-pharmacy-370-7010470,PFIZER,MODERNA,,True,"53.47563211050439, -113.52775178643753",,POINT (-113.527751786438 53.475632110504),-113.527751786438,53.475632110504
67,SHOPPERS DRUG MART #325,198-8060 SILVER SPRINGS BLVD,,CALGARY,403-288-1125,Over 4 weeks,https://www1.shoppersdrugmart.ca/en/health-and-pharmacy/covid-19?ShortURL=covid,PFIZER,MODERNA,,True,"51.11694915565782, -114.20571990754752",,POINT (-114.205719907548 51.116949155658),-114.205719907548,51.116949155658
68,Deerfoot North Clinic,911 32 Avenue NE,Drive-Thru,CALGARY,811,Starts June 7,https://www.albertahealthservices.ca/topics/Page17295.aspx,PFIZER,MODERNA,ASTRAZENECA,False,"51.080715254995454, -114.04315198305827",,POINT (-114.043151983058 51.080715254995),-114.043151983058,51.080715254995
69,RX DRUG MART #2023,1-6601 48 AVE,,CAMROSE,780-672-0100,Over 4 weeks,https://www.remedys.ca,PFIZER,,,True,"53.01585789125072, -112.85599347657799",,POINT (-112.855993476578 53.015857891251),-112.855993476578,53.015857891251
70,MEDICINE SHOPPE PHARMACY 349,141B-355 LOUTIT RD,,FORT MCMURRAY,780-790-1234,Over 4 weeks,https://www.medicineshoppe.ca/en/alberta/fort-mcmurray/the-medicine-shoppe-pharmacy-349-7000617,PFIZER,,,True,"56.75288203555405, -111.42858700165208",,POINT (-111.428587001652 56.752882035554),-111.428587001652,56.752882035554
71,MELL PHARMACY,771 NORTH MOUNT DR NW,,CALGARY,403-454-5244,Over 4 weeks,https://mellpharmacy.medmeapp.ca/schedule,PFIZER,,,False,"51.08260366691243, -114.09593727303199",,POINT (-114.095937273032 51.082603666912),-114.095937273032,51.082603666912
72,LOBLAW PHARMACY #4202,4420 52 AVE,,WHITECOURT,780-706-4091,Over 4 weeks,https://www.nofrills.ca/covid19,PFIZER,,,False,"54.14298770257875, -115.6722398437232",,POINT (-115.672239843723 54.142987702579),-115.672239843723,54.142987702579
73,LONDONDALE GUARDIAN PHARMACY,7606 144 AVE NW,,EDMONTON,780-475-0040,Over 4 weeks,https://www.bookyourvisit.ca/londondale,MODERNA,,,True,"53.607757987353565, -113.45825141490116",,POINT (-113.458251414901 53.607757987354),-113.458251414901,53.607757987354
74,PHARMASAVE HIDDEN VALLEY,311-11 HIDDEN CREEK DR NW,,CALGARY,403-275-1000,Over 4 weeks,https://hiddenvalley.medmeapp.ca/schedule/,PFIZER,MODERNA,,True,"51.15509270074208, -114.1037701306997",,POINT (-114.1037701307 51.155092700742),-114.1037701307,51.155092700742
75,KAI HEALTH (KENSINGTON) PHARMACY,12620A 132 AVE NW,,EDMONTON,780-488-6699,Over 4 weeks,,PFIZER,,,True,"53.593309172888496, -113.53905949941985",,POINT (-113.53905949942 53.593309172888),-113.53905949942,53.593309172888
76,REXALL #7248,13709 66 ST NW,,EDMONTON,780-456-5706,Over 4 weeks,https://www.rexall.ca/covid-19/alberta-vaccine,PFIZER,,,False,"53.600391310113075, -113.44180565823972",,POINT (-113.44180565824 53.600391310113),-113.44180565824,53.600391310113
77,SOUTHBANK REMEDY'S RX,120-158 SOUTHBANK ST,,OKOTOKS,403-982-9779,Over 4 weeks,https://southbankpharmacy.myappts.ca,MODERNA,,,True,"50.705910260577106, -113.94444980171858",,POINT (-113.944449801719 50.705910260577),-113.944449801719,50.705910260577
78,SAFEWAY PHARMACY #8883,200 CORNERSTONE,6800  48 AVE,CAMROSE,780-672-1680,Over 4 weeks,https://www.safeway.ca/vaccine-registration/,PFIZER,MODERNA,,True,"53.01808569923614, -112.8723639829328",,POINT (-112.872363982933 53.018085699236),-112.872363982933,53.018085699236
79,WEST POINTE PHARMACY,124-4850 WESTWINDS DR NE,,CALGARY,403-285-6555,Over 4 weeks,,PFIZER,MODERNA,,True,"51.10101554869387, -113.96377837873106",,POINT (-113.963778378731 51.101015548694),-113.963778378731,51.101015548694
80,FOURNIER DRUGS,1306 SHOPPERS PARK MALL,,GRANDE CACHE,780-827-3230,Over 4 weeks,,MODERNA,,,False,"53.88838925815483, -119.11662083775984",,POINT (-119.11662083776 53.888389258155),-119.11662083776,53.888389258155
81,SAFEWAY PHARMACY #8895,10930 82 AVE NW,,EDMONTON,780-439-9767,Over 4 weeks,https://www.safeway.ca/vaccine-registration/,PFIZER,,,True,"53.51888628489124, -113.51341998421873",,POINT (-113.513419984219 53.518886284891),-113.513419984219,53.518886284891
82,GLENGARRY PHARMACY,115-12222 137 AVE NW,,EDMONTON,780-473-6636,Over 4 weeks,https://glengarrypharmacy.myappts.ca/src/,PFIZER,,,True,"53.600607012020006, -113.53297875894435",,POINT (-113.532978758944 53.60060701202),-113.532978758944,53.60060701202
83,MEDICINE SHOPPE PHARMACY 377,6610 132 AVE NW,,EDMONTON,780-705-7150,Over 4 weeks,https://www.medicineshoppe.ca/en/alberta/edmonton/the-medicine-shoppe-pharmacy-377-7022763,PFIZER,MODERNA,,True,"53.59213405017055, -113.4444961036202",,POINT (-113.44449610362 53.592134050171),-113.44449610362,53.592134050171
84,PHARMASAVE MILLIGAN DRIVE,2-100 MILLIGAN DR,,OKOTOKS,403-982-7663,Over 4 weeks,https://okotokspharmasave.medmeapp.com/schedule/,MODERNA,,,True,"50.73271621687378, -113.96674805955037",,POINT (-113.96674805955 50.732716216874),-113.96674805955,50.732716216874
85,ROSEWOOD PHARMACY,120-201 FESTIVAL WAY,,SHERWOOD PARK,587-200-0159,Over 4 weeks,,PFIZER,MODERNA,,True,"53.52793393122191, -113.29768061360477",,POINT (-113.297680613605 53.527933931222),-113.297680613605,53.527933931222
86,PHARMASAVE #377,ROYAL CENTRE NORTH,16636 71 ST NW,EDMONTON,780-705-2528,Over 4 weeks,,PFIZER,MODERNA,,False,"53.628235248133336, -113.45209270177253",,POINT (-113.452092701773 53.628235248133),-113.452092701773,53.628235248133
87,PHARMASAVE #397,11015 102 AVE,,FAIRVIEW,780-835-3485,Over 4 weeks,,PFIZER,MODERNA,,True,"56.066591542102394, -118.38562788622524",,POINT (-118.385627886225 56.066591542102),-118.385627886225,56.066591542102
88,MONTROSE PHARMACY,7240 118 AVE NE,,EDMONTON,780-249-4833,Over 4 weeks,,MODERNA,,,True,"53.571027154188606, -113.45147671698072",,POINT (-113.451476716981 53.571027154189),-113.451476716981,53.571027154189
89,BERWYN PHARMACY LTD,5115 51 ST,,BERWYN,780-338-3071,Over 4 weeks,,PFIZER,,,True,"56.14709753686973, -117.73620683189804",,POINT (-117.736206831898 56.14709753687),-117.736206831898,56.14709753687
90,LONDON DRUGS #33,3630 BRENTWOOD RD NW,,CALGARY,403-289-4512,Over 4 weeks,https://www.londondrugs.com/covid19,MODERNA,,,True,"51.08504956958733, -114.12364153030505",,POINT (-114.123641530305 51.085049569587),-114.123641530305,51.085049569587
91,REXALL #7282,14-11625 ELBOW DR SW,,CALGARY,403-281-7333,Over 4 weeks,https://www.rexall.ca/covid-19/alberta-vaccine,PFIZER,,,False,"50.948796417903466, -114.08567603986917",,POINT (-114.085676039869 50.948796417903),-114.085676039869,50.948796417903
92,VILLAGE LANE PHARMACY,15-1300 VILLAGE LANE,,OKOTOKS,403-938-0110,Over 4 weeks,,PFIZER,MODERNA,,True,"50.71969578705873, -113.98348711521267",,POINT (-113.983487115213 50.719695787059),-113.983487115213,50.719695787059
93,MEDICINE SHOPPE PHARMACY 251,3805 ROSS ST,,RED DEER,403-343-8088,Over 4 weeks,https://www.medicineshoppe.ca/en/alberta/red-deer/the-medicine-shoppe-pharmacy-251-7040887,PFIZER,,,False,"52.26659118573746, -113.78512330608652",,POINT (-113.785123306087 52.266591185737),-113.785123306087,52.266591185737
94,MINT HEALTH + DRUGS: LANGDON,107-355 CENTRE ST,,LANGDON,403-936-0448,Over 4 weeks,https://www.mintdrugs.com,MODERNA,,,True,"50.97411878211075, -113.68018240110892",,POINT (-113.680182401109 50.974118782111),-113.680182401109,50.974118782111
95,CHAPARRAL PHARMACY,210-10 CHAPARRAL DR SE,,CALGARY,403-475-5544,Over 4 weeks,https://www.chaparralpharmacy.ca/book-your-pfizer-covid-19-immunization/,PFIZER,,,True,"50.887717686810475, -114.03615561733555",,POINT (-114.036155617336 50.88771768681),-114.036155617336,50.88771768681
96,NOTTINGHAM PHARMACY,300-664 WYE RD,,SHERWOOD PARK,780-570-0995,Over 4 weeks,,PFIZER,MODERNA,,True,"53.512702358121146, -113.27480077819679",,POINT (-113.274800778197 53.512702358121),-113.274800778197,53.512702358121
97,TWIN BROOKS PHARMACY,11029 9 AVE NW,,EDMONTON,780-784-0462,Over 4 weeks,http://www.twinbrookspharmacy.com,PFIZER,MODERNA,,True,"53.439233380018756, -113.51714453047751",,POINT (-113.517144530478 53.439233380019),-113.517144530478,53.439233380019
98,WAL-MART PHARMACY #1089,7979 11 ST SE,,CALGARY,403-251-2671,Over 4 weeks,https://portal.healthmyself.net/walmartab/forms/a66,MODERNA,,,True,"50.98426435468065, -114.04513136764008",,POINT (-114.04513136764 50.984264354681),-114.04513136764,50.984264354681
99,KINSOL PHARMACY,803 1 AVE NE,,CALGARY,587-351-8923,Over 4 weeks,,PFIZER,MODERNA,,True,"51.053204850656506, -114.04529941496357",,POINT (-114.045299414964 51.053204850657),-114.045299414964,51.053204850657
100,SHOPPERS DRUG MART #326,A6-4900 MOLLY BANNISTER DR,,RED DEER,403-343-3355,Over 4 weeks,https://www1.shoppersdrugmart.ca/en/health-and-pharmacy/covid-19?ShortURL=covid,PFIZER,MODERNA,,True,"52.243003187314564, -113.80983374585057",,POINT (-113.809833745851 52.243003187315),-113.809833745851,52.243003187315
101,PHARMASAVE #3011,10652 WINTERBURN RD NW,,EDMONTON,825-202-8450,Over 4 weeks,,PFIZER,,,False,"53.55168656967882, -113.68978773504392",,POINT (-113.689787735044 53.551686569679),-113.689787735044,53.551686569679
102,LOBLAW PHARMACY #1566,4950 137 AVE,,EDMONTON,780-472-4735,Over 4 weeks,https://www.realcanadiansuperstore.ca/covid19,PFIZER,MODERNA,,True,"53.59864085203749, -113.41112287257238",,POINT (-113.411122872572 53.598640852037),-113.411122872572,53.598640852037
103,PINERIDGE PHARMACY,7-3250 60 ST NE,,CALGARY,403-568-0095,Over 4 weeks,,PFIZER,,,True,"51.08112709976177, -113.94636894773072",,POINT (-113.946368947731 51.081127099762),-113.946368947731,51.081127099762
104,Brentwood Village Mall,3630 Brentwood Road NW,,CALGARY,811,Over 4 weeks,https://www.albertahealthservices.ca/topics/Page17295.aspx,PFIZER,MODERNA,ASTRAZENECA,False,"51.085152769286786, -114.12627621505915",,POINT (-114.126276215059 51.085152769287),-114.126276215059,51.085152769287
105,GATEWAY PHARMACY,942-3803 CALGARY TR NW,,EDMONTON,780-466-6337,Over 4 weeks,,PFIZER,MODERNA,,True,"53.477515287887115, -113.49482182275202",,POINT (-113.494821822752 53.477515287887),-113.494821822752,53.477515287887
106,REXALL #7513,101-180 MIQUELON AVE,,DEVON,780-987-3793,Over 4 weeks,https://www.rexall.ca/covid-19/alberta-vaccine,PFIZER,,,True,"53.353256386987084, -113.73123477025264",,POINT (-113.731234770253 53.353256386987),-113.731234770253,53.353256386987
107,SHOPPERS DRUG MART #385,1436 KENSINGTON RD NW,,CALGARY,403-521-0329,Over 4 weeks,https://www1.shoppersdrugmart.ca/en/health-and-pharmacy/covid-19?ShortURL=covid,PFIZER,,,True,"51.05269886382991, -114.09439645753315",,POINT (-114.094396457533 51.05269886383),-114.094396457533,51.05269886383
108,PHARMASAVE #308,114 49 AVE W,,CLARESHOLM,403-625-2727,Over 4 weeks,,PFIZER,,,False,"50.025439697552336, -113.58225197690759",,POINT (-113.582251976908 50.025439697552),-113.582251976908,50.025439697552
109,EXCELHEALTH PHARMACY,100-3916 MACLEOD TR SW,,CALGARY,587-351-4036,Over 4 weeks,https://bookyourvisit.ca/excelhealth,PFIZER,,,True,"51.01890955538959, -114.06217891667741",,POINT (-114.062178916677 51.01890955539),-114.062178916677,51.01890955539
110,RITA'S APOTHECARY & HOME HEALTHCARE,5036A 50 ST,,BARRHEAD,780-674-6656,Over 4 weeks,,PFIZER,,,True,"54.12022289566741, -114.40431282443072",,POINT (-114.404312824431 54.120222895667),-114.404312824431,54.120222895667
111,SHOPPERS DRUG MART #2402,400-4300 SOUTH PARK DR,,STONY PLAIN,780-963-6946,Over 4 weeks,https://www1.shoppersdrugmart.ca/en/health-and-pharmacy/covid-19?ShortURL=covid,PFIZER,,,True,"53.53867399507577, -113.98007708629883",,POINT (-113.980077086299 53.538673995076),-113.980077086299,53.538673995076
112,SHOPPERS DRUG MART #2370,12955 153 AVE NW,,EDMONTON,780-476-3738,Over 4 weeks,https://www1.shoppersdrugmart.ca/en/health-and-pharmacy/covid-19?ShortURL=covid,PFIZER,MODERNA,,True,"53.61659835670509, -113.54323425353178",,POINT (-113.543234253532 53.616598356705),-113.543234253532,53.616598356705
113,BRINTNELL PHARMACY & TRAVEL CLINIC,3-4303 167 AVE NW,,EDMONTON,587-525-8650,Over 4 weeks,https://www.brintnellpharmacy.com,PFIZER,MODERNA,,True,"53.62865841575362, -113.40755581476326",,POINT (-113.407555814763 53.628658415754),-113.407555814763,53.628658415754
114,VISTA HEIGHTS PHARMACY,110-2066 18 AVE NE,,CALGARY,403-291-4525,Over 4 weeks,,PFIZER,,,False,"51.06949308072653, -114.01254828797657",,POINT (-114.012548287977 51.069493080727),-114.012548287977,51.069493080727
115,ABEX PHARMACY,103-121 TOWN CREST RD,,FORT SASKATCHEWAN,780-589-2239,Over 4 weeks,,PFIZER,MODERNA,,True,"53.6820620351159, -113.23907973042873",,POINT (-113.239079730429 53.682062035116),-113.239079730429,53.682062035116
116,SHOPPERS DRUG MART #344,EDMONTON CITY CENTRE WEST,D112-10200 102 AVE NW,EDMONTON,780-428-7110,Over 4 weeks,https://www1.shoppersdrugmart.ca/en/health-and-pharmacy/covid-19?ShortURL=covid,PFIZER,,,True,"53.54386923497756, -113.49409464581535",,POINT (-113.494094645815 53.543869234978),-113.494094645815,53.543869234978
117,SHOPPERS DRUG MART #2301,14135 23 AVE NW,,EDMONTON,780-436-5135,Over 4 weeks,https://www1.shoppersdrugmart.ca/en/health-and-pharmacy/covid-19?ShortURL=covid,PFIZER,,,False,"53.453473532897284, -113.56318520196224",,POINT (-113.563185201962 53.453473532897),-113.563185201962,53.453473532897
118,OKOTOKS H.C. PHARMACY,1-74 ELIZABETH ST,,OKOTOKS,403-995-1080,Over 4 weeks,https://www.okotokshcpharmacy.ca,PFIZER,MODERNA,,True,"50.726004721433924, -113.97844073086426",,POINT (-113.978440730864 50.726004721434),-113.978440730864,50.726004721434
119,TOWER DRUGS,137-131 9 AVE SW,,CALGARY,403-261-2006,Over 4 weeks,,MODERNA,,,False,"51.04446146037294, -114.06505991705005",,POINT (-114.06505991705 51.044461460373),-114.06505991705,51.044461460373
120,WAL-MART PHARMACY #5708,500-201 SOUTHRIDGE DR,,OKOTOKS,403-995-1375,Over 4 weeks,https://portal.healthmyself.net/walmartab/forms/a66,PFIZER,,,True,"50.70388337214059, -113.97140065545172",,POINT (-113.971400655452 50.703883372141),-113.971400655452,50.703883372141
121,CLEARWATER PHARMACY,15345 97 ST NW,,EDMONTON,780-476-8383,Over 4 weeks,,PFIZER,,,True,"53.61519918359258, -113.4904052395351",,POINT (-113.490405239535 53.615199183593),-113.490405239535,53.615199183593
122,RABBIT HILL PHARMACY,14030 23 AVE NW,,EDMONTON,780-989-5100,Over 4 weeks,,PFIZER,MODERNA,,True,"53.45498602789189, -113.56253484798893",,POINT (-113.562534847989 53.454986027892),-113.562534847989,53.454986027892
123,SAFEWAY PHARMACY #8912,2425 34 AVE SW,,CALGARY,403-217-1011,Over 4 weeks,https://www.safeway.ca/vaccine-registration/,PFIZER,,,True,"51.02281845941304, -114.11570886394131",,POINT (-114.115708863941 51.022818459413),-114.115708863941,51.022818459413
124,SOBEYS PHARMACY #5020,3000-356 CRANSTON RD SE,,CALGARY,403-257-9800,Over 4 weeks,https://www.safeway.ca/vaccine-registration/,PFIZER,,,False,"50.88029462674482, -113.97745854588962",,POINT (-113.97745854589 50.880294626745),-113.97745854589,50.880294626745
125,TARADALE PHARMACY,525-6520 FALCONRIDGE DR NE,,CALGARY,587-349-4250,Over 4 weeks,https://www.travelcliniccalgary.ca/,PFIZER,,,True,"51.09990146246621, -113.94627913054288",,POINT (-113.946279130543 51.099901462466),-113.946279130543,51.099901462466
126,MEDICINE SHOPPE PHARMACY 410,108-1 HAWTHORNE GATE,,SPRUCE GROVE,780-760-7621,Over 4 weeks,https://www.medicineshoppe.ca/en/alberta/spruce-grove/medicine-shoppe-pharmacy-410-7045340,PFIZER,MODERNA,,True,"53.55346652001119, -113.93356800177534",,POINT (-113.933568001775 53.553466520011),-113.933568001775,53.553466520011
127,SAFEWAY PHARMACY #8826,7740 18 ST SE,,CALGARY,403-279-2220,Over 4 weeks,https://www.safeway.ca/vaccine-registration/,PFIZER,MODERNA,,True,"50.98412453824299, -114.01370198298227",,POINT (-114.013701982982 50.984124538243),-114.013701982982,50.984124538243
128,MEDICINE SHOPPE PHARMACY 314,3105-230 EVERSYDE BLVD SW,,CALGARY,403-201-0180,Over 4 weeks,https://www.medicineshoppe.ca/en/alberta/calgary/the-medicine-shoppe-pharmacy-314-7012400,PFIZER,MODERNA,,True,"50.90883936951267, -114.11016373070873",,POINT (-114.110163730709 50.908839369513),-114.110163730709,50.908839369513
129,PHARMASAVE WHITEHORN #3018,BAY 17-4525 52 ST NE,,CALGARY,403-888-1551,Over 4 weeks,,PFIZER,MODERNA,,True,"51.09201308779239, -113.95860062900658",,POINT (-113.958600629007 51.092013087792),-113.958600629007,51.092013087792
130,PELICAN PLACE PHARMACY,110-10 PELICAN PL,,SYLVAN LAKE,403-864-5192,Over 4 weeks,,PFIZER,,,True,"52.29941312875432, -114.09597233877264",,POINT (-114.095972338773 52.299413128754),-114.095972338773,52.299413128754
131,GIROUX PHARMASAVE,215-4 VERSAILLES AVE,,ST ALBERT,780-569-3302,Over 4 weeks,,PFIZER,MODERNA,,True,"53.63998680671451, -113.6714258326471",,POINT (-113.671425832647 53.639986806715),-113.671425832647,53.639986806715
132,SAFEWAY PHARMACY #8924,110-2020 SHERWOOD DR,,SHERWOOD PARK,780-467-3222,Over 4 weeks,https://www.safeway.ca/vaccine-registration/,PFIZER,MODERNA,,True,"53.53113465285072, -113.29305939031596",,POINT (-113.293059390316 53.531134652851),-113.293059390316,53.531134652851
133,Northgate Village Mall,495 36 Street NE,,CALGARY,811,Over 4 weeks,https://www.albertahealthservices.ca/topics/Page17295.aspx,PFIZER,MODERNA,ASTRAZENECA,False,"51.05583255470261, -113.98529805738859",,POINT (-113.985298057389 51.055832554703),-113.985298057389,51.055832554703
134,ARROWWOOD PHARMACY,3-6 RAILWAY AVE W,,ARROWWOOD,403-534-3333,Over 4 weeks,,PFIZER,,,True,"50.73747534532372, -113.15229277790553",,POINT (-113.152292777906 50.737475345324),-113.152292777906,50.737475345324
135,SOBEYS PHARMACY #1139,200-500 COUNTRY HILLS BLVD NE,,CALGARY,403-567-9302,Over 4 weeks,https://www.safeway.ca/vaccine-registration/,PFIZER,,,False,"51.155556580980765, -114.05793962684885",,POINT (-114.057939626849 51.155556580981),-114.057939626849,51.155556580981
136,D&M PHARMACY AND TRAVEL CLINIC,1505 19 ST NW,,CALGARY,587-353-0377,Over 4 weeks,https://www.travelpharmacy.ca,PFIZER,MODERNA,,True,"51.07046504501041, -114.10698622868519",,POINT (-114.106986228685 51.07046504501),-114.106986228685,51.07046504501
137,WAINWRIGHT VALUE DRUG MART,306 10 ST,,WAINWRIGHT,780-842-4488,Over 4 weeks,,PFIZER,,,False,"52.83497926746803, -110.8598753574836",,POINT (-110.859875357484 52.834979267468),-110.859875357484,52.834979267468
138,LANDMARK PHARMACY,283-1623 CENTRE ST NW,,CALGARY,587-349-3727,Over 4 weeks,,PFIZER,MODERNA,,False,"51.066821417880945, -114.06357047263437",,POINT (-114.063570472634 51.066821417881),-114.063570472634,51.066821417881
139,COVENTRY PHARMACY,110-790 COVENTRY DR NE,,CALGARY,403-453-9194,Over 4 weeks,https://www.calgarytravelclinics.com,PFIZER,MODERNA,,True,"51.1581152545846, -114.04254335211733",,POINT (-114.042543352117 51.158115254585),-114.042543352117,51.158115254585
140,PETRA PHARMACY,1010 MAYOR MAGRATH DR S,,LETHBRIDGE,403-942-3731,Over 4 weeks,https://www.pharmachoice.com,PFIZER,,,True,"49.68356939590436, -112.80552872903975",,POINT (-112.80552872904 49.683569395904),-112.80552872904,49.683569395904
141,SHOPPERS DRUG MART #340,2-5700 HWY 2A,,LACOMBE,403-782-3220,Over 4 weeks,https://www1.shoppersdrugmart.ca/en/health-and-pharmacy/covid-19?ShortURL=covid,PFIZER,MODERNA,,True,"52.473901488555796, -113.71838447694594",,POINT (-113.718384476946 52.473901488556),-113.718384476946,52.473901488556
142,SHOPPERS DRUG MART #2379,10405 JASPER AVE NW,,EDMONTON,780-670-3690,Over 4 weeks,https://www1.shoppersdrugmart.ca/en/health-and-pharmacy/covid-19?ShortURL=covid,PFIZER,,,False,"53.54071761966063, -113.49994600163943",,POINT (-113.499946001639 53.540717619661),-113.499946001639,53.540717619661
143,COALDALE PHARMASAVE,1910 20 AVE,,COALDALE,403-345-3744,Over 4 weeks,,PFIZER,MODERNA,,True,"49.728132226356266, -112.62179024575389",,POINT (-112.621790245754 49.728132226356),-112.621790245754,49.728132226356
144,MEDICINE SHOPPE PHARMACY 225,8111 118 AVE NW,,EDMONTON,780-477-1192,Over 4 weeks,https://www.medicineshoppe.ca/en/alberta/edmonton/the-medicine-shoppe-pharmacy-225-7002977,PFIZER,MODERNA,,True,"53.570287846857205, -113.46604355944503",,POINT (-113.466043559445 53.570287846857),-113.466043559445,53.570287846857
145,ROYAL OAK PHARMACY,228-500 ROYAL OAK DR NW,,CALGARY,403-455-3565,Over 4 weeks,https://royaloakpharmacy.medmeapp.ca/schedule,PFIZER,MODERNA,,True,"51.139591831550895, -114.23291117873006",,POINT (-114.23291117873 51.139591831551),-114.23291117873,51.139591831551
146,COPPERSTONE PHARMACY,115-10 COPPERSTONE ST SE,,CALGARY,403-724-9744,Over 4 weeks,,PFIZER,MODERNA,,True,"50.91593971051723, -113.93367290338861",,POINT (-113.933672903389 50.915939710517),-113.933672903389,50.915939710517
147,GLENBROOK PHARMACY,12718 66 ST NW,,EDMONTON,7804789093,Over 4 weeks,https://bookyourvisit.ca/glenbrook,PFIZER,MODERNA,,True,"53.5861073192768, -113.4431783465774",,POINT (-113.443178346577 53.586107319277),-113.443178346577,53.586107319277
148,SAFEWAY PHARMACY #8908,38 AVE & MILLWOODS RD NW,,EDMONTON,780-461-5152,Over 4 weeks,https://www.safeway.ca/vaccine-registration/,PFIZER,MODERNA,,True,"53.47163184316331, -113.4516839712972",,POINT (-113.451683971297 53.471631843163),-113.451683971297,53.471631843163
149,SAFEWAY PHARMACY #8880,9710 170 ST NW,,EDMONTON,780-486-4248,Over 4 weeks,https://www.safeway.ca/vaccine-registration/,PFIZER,,,True,"53.53428913547101, -113.6175458982624",,POINT (-113.617545898262 53.534289135471),-113.617545898262,53.534289135471
150,SOUTH COUNTRY CO-OP LTD. @TABER PHARMACY,4926 46 AVE,,TABER,403-223-5984,Over 4 weeks,,PFIZER,,,False,"49.78568311080898, -112.1290168549614",,POINT (-112.129016854961 49.785683110809),-112.129016854961,49.785683110809
151,WESTMOUNT REMEDY'S RX PHARMACY,1031-200 SOUTHRIDGE DR,,OKOTOKS,403-917-0655,Over 4 weeks,https://westmountremedys.business.site/,PFIZER,,,True,"50.70674986893613, -113.9778523731936",,POINT (-113.977852373194 50.706749868936),-113.977852373194,50.706749868936
152,KOEGLER'S PHARMASAVE,1334 VETERANS ST,,PINCHER CREEK,403-627-2444,Over 4 weeks,,PFIZER,MODERNA,,False,"49.49537939716937, -113.94659670150695",,POINT (-113.946596701507 49.495379397169),-113.946596701507,49.495379397169
153,LEIBEL'S PHARMACY,7B VILLAGE DR RR2,,WESTEROSE,780-586-0796,Over 4 weeks,,MODERNA,,,False,"52.96127346949749, -114.02797917073933",,POINT (-114.027979170739 52.961273469497),-114.027979170739,52.961273469497
154,SHOPPERS DRUG MART #2366,106-19489 SETON CRES. SE,,CALGARY,403-279-7726,Over 4 weeks,https://www1.shoppersdrugmart.ca/en/health-and-pharmacy/covid-19?ShortURL=covid,PFIZER,MODERNA,,True,"50.88138986766014, -113.95972229140364",,POINT (-113.959722291404 50.88138986766),-113.959722291404,50.88138986766
155,NORTH EAST PHARMACY,7210 144 AVE NW,,EDMONTON,780-478-3322,Over 4 weeks,,PFIZER,,,False,"53.606394592080065, -113.45181508629685",,POINT (-113.451815086297 53.60639459208),-113.451815086297,53.60639459208
156,HEWES WAY PHARMACY,101-2551 HEWES WAY NW,,EDMONTON,780-462-8757,Over 4 weeks,,PFIZER,,,False,"53.45670287538831, -113.42463373264657",,POINT (-113.424633732647 53.456702875388),-113.424633732647,53.456702875388
157,DRUGSTORE PHARMACY #9043,1252 HWY 9 S,,DRUMHELLER,403-823-4795,Over 4 weeks,https://www.extrafoods.ca/covid19,PFIZER,,,False,"51.445397587290024, -112.70238815818142",,POINT (-112.702388158181 51.44539758729),-112.702388158181,51.44539758729
158,BEAUMONT CENTRE PHARMACY,5003 50 AVE,,BEAUMONT,780-929-9299,Over 4 weeks,https://beaumontcentrepharmacy.medmeapp.ca/schedule/,PFIZER,,,False,"53.352338079323665, -113.4157081705898",,POINT (-113.41570817059 53.352338079324),-113.41570817059,53.352338079324
159,BLACKFALDS PROFESSIONAL PHARMACY,1-5049 PARKWOOD RD,,BLACKFALDS,403-600-2280,Over 4 weeks,https://blackfaldsprofessionalpharmacy.ca,MODERNA,,,True,"52.38192670760238, -113.78758138758376",,POINT (-113.787581387584 52.381926707602),-113.787581387584,52.381926707602
160,SHOPPERS DRUG MART #352,584 RIVERBEND SQ NW,,EDMONTON,780-988-6657,Over 4 weeks,https://www1.shoppersdrugmart.ca/en/health-and-pharmacy/covid-19?ShortURL=covid,PFIZER,MODERNA,,True,"53.46875528231995, -113.58912304397113",,POINT (-113.589123043971 53.46875528232),-113.589123043971,53.46875528232
161,SAVE-ON-FOODS PHARMACY #6661,LONDONDERRY MALL,137 AVE & 66 ST,EDMONTON,780-473-8351,Over 4 weeks,https://saveonfoodspharmacy.medmeapp.com/schedule/,PFIZER,,,True,"53.60174264048406, -113.44712894243845",,POINT (-113.447128942438 53.601742640484),-113.447128942438,53.601742640484
162,SHOPPERS DRUG MART #2386,310-505 MAIN ST,,AIRDRIE,403-948-5858,Over 4 weeks,https://www1.shoppersdrugmart.ca/en/health-and-pharmacy/covid-19?ShortURL=covid,PFIZER,MODERNA,,True,"51.28871179508346, -114.01510935750551",,POINT (-114.015109357506 51.288711795083),-114.015109357506,51.288711795083
163,MILLWOODS ARP DRUGS,4213 23 AVE NW,,EDMONTON,780-461-9823,Over 4 weeks,,PFIZER,,,False,"53.45486592257216, -113.40747854410871",,POINT (-113.407478544109 53.454865922572),-113.407478544109,53.454865922572
164,MINT HEALTH + DRUGS: CRYSTAL RIDGE,2-55 WHEATLAND TR,,STRATHMORE,403-901-2244,Over 4 weeks,https://www.mintdrugs.com,PFIZER,MODERNA,,True,"51.0592229328412, -113.39918355953846",,POINT (-113.399183559538 51.059222932841),-113.399183559538,51.059222932841
165,SAMS DRUG MART,102-4620 48 ST,,STONY PLAIN,780-571-1221,Over 4 weeks,https://www.samsdrugmart.com,PFIZER,MODERNA,,True,"53.53304050146822, -114.00224735593348",,POINT (-114.002247355933 53.533040501468),-114.002247355933,53.533040501468
166,ATHABASCA VALUE DRUG MART,4911 50 ST,,ATHABASCA,780-675-2188,Over 4 weeks,,PFIZER,MODERNA,,True,"54.72048468234039, -113.28620918775312",,POINT (-113.286209187753 54.72048468234),-113.286209187753,54.72048468234
167,MINT HEALTH + DRUGS MAIN STREET,5106 50 ST,,STONY PLAIN,780-963-3728,Over 4 weeks,https://www.mintdrugs.com,MODERNA,,,False,"53.528441085962406, -114.00744303061153",,POINT (-114.007443030612 53.528441085962),-114.007443030612,53.528441085962
168,WAL-MART PHARMACY #3154,239 WYE RD,,SHERWOOD PARK,780-464-5107,Over 4 weeks,https://portal.healthmyself.net/walmartab/forms/a66,PFIZER,MODERNA,,True,"53.51120200151407, -113.31687549401438",,POINT (-113.316875494014 53.511202001514),-113.316875494014,53.511202001514
169,"PHARM, DRUGSTORE + MORE",103A-3009 14 ST SW,,CALGARY,403-764-3080,Over 4 weeks,https://www.thepharmdrugstore.com/,PFIZER,,,True,"51.02731533774539, -114.09436601366582",,POINT (-114.094366013666 51.027315337745),-114.094366013666,51.027315337745
170,GRANDE BANKS PHARMACY,105-10302 67 AVE,,GRANDE PRAIRIE,780-533-5200,Over 4 weeks,,PFIZER,,,True,"55.14111232697484, -118.8053751877427",,POINT (-118.805375187743 55.141112326975),-118.805375187743,55.141112326975
171,SHOPPERS DRUG MART #356,3625 SHAGANAPPI TRAIL NW,,CALGARY,403-288-0111,Over 4 weeks,https://www1.shoppersdrugmart.ca/en/health-and-pharmacy/covid-19?ShortURL=covid,PFIZER,MODERNA,,True,"51.08500551840911, -114.15718178593289",,POINT (-114.157181785933 51.085005518409),-114.157181785933,51.085005518409
172,LOBLAW PHARMACY #4971,210 5 AVE W,,COCHRANE,403-932-0415,Over 4 weeks,https://www.nofrills.ca/covid19,PFIZER,MODERNA,,True,"51.187791420941494, -114.47551860146694",,POINT (-114.475518601467 51.187791420941),-114.475518601467,51.187791420941
173,IMAGINE HEALTH PHARMACY-DOWNTOWN CALGARY,100-300 6 AVE SE,,CALGARY,403-775-9669,Over 4 weeks,,PFIZER,MODERNA,,True,"51.0475576800923, -114.05737419180795",,POINT (-114.057374191808 51.047557680092),-114.057374191808,51.047557680092
174,WAL-MART PHARMACY #3147,11050 103 AVE,,GRANDE PRAIRIE,780-513-3745,Over 4 weeks,https://portal.healthmyself.net/walmartab/forms/a66,PFIZER,,,True,"55.17283297139456, -118.82720519027446",,POINT (-118.827205190274 55.172832971395),-118.827205190274,55.172832971395
175,SHOPPERS DRUG MART #328,10955 23 AVE NW,,EDMONTON,780-436-3055,Over 4 weeks,https://www1.shoppersdrugmart.ca/en/health-and-pharmacy/covid-19?ShortURL=covid,PFIZER,MODERNA,,True,"53.45328401025234, -113.51179752580096",,POINT (-113.511797525801 53.453284010252),-113.511797525801,53.453284010252
176,CALGARY CO-OP PHARMACY #8,2580 SOUTHLAND DR SW,,CALGARY,403-299-5400,Over 4 weeks,https://www.calgarycoop.com/covid19vaccination,PFIZER,,,True,"50.962740956250414, -114.12098155284991",,POINT (-114.12098155285 50.96274095625),-114.12098155285,50.96274095625
177,DIDSBURY VALUE DRUG MART,1710 20 ST,,DIDSBURY,403-335-3307,Over 4 weeks,,PFIZER,,,False,"51.658797868980535, -114.13779804549866",,POINT (-114.137798045499 51.658797868981),-114.137798045499,51.658797868981
178,PLAZA IDA DISPENSARY,6A-5030 47 AVE,,RED DEER,403-340-3784,Over 4 weeks,,PFIZER,,,True,"52.27011711506772, -113.8055308480182",,POINT (-113.805530848018 52.270117115068),-113.805530848018,52.270117115068
179,EXALAN PHARMACY,7-2111 CENTRE ST NW,,CALGARY,403-276-7076,Over 4 weeks,,PFIZER,,,False,"51.071314814782745, -114.06298967862931",,POINT (-114.062989678629 51.071314814783),-114.062989678629,51.071314814783
180,SYNERGY PHARMACY,153-501 BETHEL DR,,SHERWOOD PARK,780-449-2017,Over 4 weeks,,PFIZER,MODERNA,,True,"53.54514637930147, -113.30347714396903",,POINT (-113.303477143969 53.545146379301),-113.303477143969,53.545146379301
181,MEDICINE CIRCLE PHARMACY,11148 124 ST,,EDMONTON,780-509-0230,Over 4 weeks,,PFIZER,,,True,"53.560433110379485, -113.53619874595103",,POINT (-113.536198745951 53.560433110379),-113.536198745951,53.560433110379
182,NUAID ONE6 PHARMACY,1506 16 AVE NW,,CALGARY,403-696-9966,Over 4 weeks,,PFIZER,,,False,"51.067203047918575, -114.09665881520321",,POINT (-114.096658815203 51.067203047919),-114.096658815203,51.067203047919
183,CALGARY CO-OP PHARMACY #20,1000-11595 ROCKYVALLEY DR NW,,CALGARY,403-299-5454,Over 4 weeks,https://www.calgarycoop.com/covid19vaccination,PFIZER,,,False,"51.14773391581277, -114.25521006008557",,POINT (-114.255210060086 51.147733915813),-114.255210060086,51.147733915813
184,WAL-MART PHARMACY #1050,2881 MAIN ST SW,,AIRDRIE,403-945-1648,Over 4 weeks,https://portal.healthmyself.net/walmartab/forms/a66,PFIZER,MODERNA,,True,"51.26260480133644, -114.00699100170324",,POINT (-114.006991001703 51.262604801336),-114.006991001703,51.262604801336
185,D&M PHARMACY AND TRAVEL CLINIC 1,2105-1800 194 AVE SE,,CALGARY,403-457-7110,Over 4 weeks,https://www.travelpharmacy.ca,MODERNA,,,False,"50.882885787494594, -114.02361712275203",,POINT (-114.023617122752 50.882885787495),-114.023617122752,50.882885787495
186,MARKET DRUGS MEDICAL LTD,10203 97 ST NW,,EDMONTON,780-422-1397,Over 4 weeks,https://www.marketdrugsmedical.store/,PFIZER,,,False,"53.54432431881399, -113.48605307294052",,POINT (-113.486053072941 53.544324318814),-113.486053072941,53.544324318814
187,FORT STATION PHARMACY,629-10490 98 AVE,,FORT SASKATCHEWAN,780-589-1314,Over 4 weeks,,PFIZER,MODERNA,,True,"53.71158182674279, -113.20476795708926",,POINT (-113.204767957089 53.711581826743),-113.204767957089,53.711581826743
188,LONDON DRUGS #34,10820 104B AVE,GATEWAY POWER CENTRE,GRANDE PRAIRIE,780-538-3715,Over 4 weeks,https://www.londondrugs.com/covid19,PFIZER,,,False,"55.174489293843905, -118.82211527253276",,POINT (-118.822115272533 55.174489293844),-118.822115272533,55.174489293844
189,SHOPPERS DRUG MART #314,5-3012 17 AVE SE,,CALGARY,403-248-4757,Over 4 weeks,https://www1.shoppersdrugmart.ca/en/health-and-pharmacy/covid-19?ShortURL=covid,PFIZER,MODERNA,,True,"51.03886139660522, -113.98871927287422",,POINT (-113.988719272874 51.038861396605),-113.988719272874,51.038861396605
190,UNIVERSAL HEALTH PHARMACY #1,150-630 REDSTONE DR NE,,CALGARY,587-440-0041,Over 4 weeks,https://www.universalhealthcentre.com,PFIZER,MODERNA,,True,"51.168550098802726, -113.95138001520029",,POINT (-113.9513800152 51.168550098803),-113.9513800152,51.168550098803
191,SCRIPTS MEDICAL PHARMACY,201-6925 GATEWAY BLVD,,EDMONTON,780-306-5660,Over 4 weeks,https://www.calendly.com/scriptsmedicalonline/15min?month=2021-02,MODERNA,,,True,"53.50621720081876, -113.49354388661864",,POINT (-113.493543886619 53.506217200819),-113.493543886619,53.506217200819
192,SHOPPERS DRUG MART #373,725-500 COUNTRY HILLS BLVD NE,,CALGARY,403-226-5712,Over 4 weeks,https://www1.shoppersdrugmart.ca/en/health-and-pharmacy/covid-19?ShortURL=covid,MODERNA,,,True,"51.154720271988424, -114.0553387323878",,POINT (-114.055338732388 51.154720271988),-114.055338732388,51.154720271988
193,TERRALOSA PHARMACY,17314 99 AVE,,EDMONTON,587-462-1500,Over 4 weeks,,PFIZER,MODERNA,,True,"53.536174022422344, -113.6195441881451",,POINT (-113.619544188145 53.536174022422),-113.619544188145,53.536174022422
194,SHOPPERS DRUG MART #310,7-6108 50 ST,,LEDUC,780-986-2422,Over 4 weeks,https://www1.shoppersdrugmart.ca/en/health-and-pharmacy/covid-19?ShortURL=covid,PFIZER,MODERNA,,True,"53.27613611909531, -113.54898927281188",,POINT (-113.548989272812 53.276136119095),-113.548989272812,53.276136119095
195,PHARMASAVE GRIMSHAW 3006,5304 50 ST,,GRIMSHAW,780-332-2125,Over 4 weeks,,PFIZER,MODERNA,,True,"56.19055951381954, -117.60624227283884",,POINT (-117.606242272839 56.19055951382),-117.606242272839,56.19055951382
196,WESTLOCK PRESCRIPTION CENTRE,102-10124 107 ST,,WESTLOCK,780-349-2882,Over 4 weeks,https://www.remedys.ca/en/alberta/westlock/westlock-prescription-centre-7008724,PFIZER,,,True,"54.1573393457827, -113.85830362708222",,POINT (-113.858303627082 54.157339345783),-113.858303627082,54.157339345783
197,BRENTWOOD PHARMASAVE,101-50 BRENTWOOD BLVD,,SHERWOOD PARK,780-570-0633,Over 4 weeks,https://brentwoodpharmasave.medmeapp.ca/schedule,PFIZER,MODERNA,,False,"53.514629007899266, -113.29465309942191",,POINT (-113.294653099422 53.514629007899),-113.294653099422,53.514629007899
198,LONDON DRUGS #38,65-1240 2A AVE N,,LETHBRIDGE,403-320-5151,Over 4 weeks,https://www.londondrugs.com/covid19,MODERNA,,,True,"49.700319521804346, -112.82915578800892",,POINT (-112.829155788009 49.700319521804),-112.829155788009,49.700319521804
199,ZINOHA PHARMACY & TRAVEL HEALTH SERVICES,OAK BAY PLAZA,161-2515 90 AVE SW,CALGARY,403-238-2250,Over 4 weeks,http://www.zinohapharmacy.com,PFIZER,,,True,"50.971446108020366, -114.11910840387169",,POINT (-114.119108403872 50.97144610802),-114.119108403872,50.97144610802
200,SHOPPERS DRUG MART #2383,6449 CROWCHILD TR SW,,CALGARY,403-242-4755,Over 4 weeks,https://www1.shoppersdrugmart.ca/en/health-and-pharmacy/covid-19?ShortURL=covid,MODERNA,,,False,"50.99667719150125, -114.11899358054582",,POINT (-114.118993580546 50.996677191501),-114.118993580546,50.996677191501
201,SHOPPERS DRUG MART #2387,2067 33 AVE SW,,CALGARY,403-685-6807,Over 4 weeks,https://www1.shoppersdrugmart.ca/en/health-and-pharmacy/covid-19?ShortURL=covid,PFIZER,MODERNA,,True,"51.024017444147404, -114.10928763054503",,POINT (-114.109287630545 51.024017444147),-114.109287630545,51.024017444147
202,MEDICINE SHOPPE PHARMACY 260,11-600 CROWFOOT CRES NW,,CALGARY,403-455-9939,Over 4 weeks,https://www.medicineshoppe.ca/en/alberta/calgary/the-medicine-shoppe-pharmacy-260-7001085,MODERNA,,,False,"51.12979307371258, -114.20394273070066",,POINT (-114.203942730701 51.129793073713),-114.203942730701,51.129793073713
203,SHOPPERS DRUG MART #2331,100-106 ERIE ST S,,DEVON,780-987-3412,Over 4 weeks,https://www1.shoppersdrugmart.ca/en/health-and-pharmacy/covid-19?ShortURL=covid,PFIZER,MODERNA,,False,"53.3517044653875, -113.7267191191559",,POINT (-113.726719119156 53.351704465388),-113.726719119156,53.351704465388
204,MEDIMAX PHARMACY,240-520 3 AVE SW,,CALGARY,403-454-4412,Over 4 weeks,,MODERNA,,,True,"51.05073079676192, -114.06885222147194",,POINT (-114.068852221472 51.050730796762),-114.068852221472,51.050730796762
205,LOBLAW PHARMACY #1574,PHARMACY DEPARTMENT,10505 SOUTHPORT RD SW,CALGARY,403-225-6207,Over 4 weeks,https://www.realcanadiansuperstore.ca/covid19,PFIZER,,,True,"50.96213729963422, -114.07460433030796",,POINT (-114.074604330308 50.962137299634),-114.074604330308,50.962137299634
206,SAFEWAY PHARMACY #8841,11011 BONAVENTURE DR SE,,CALGARY,403-278-8585,Over 4 weeks,https://www.safeway.ca/vaccine-registration/,PFIZER,,,True,"50.952863154394436, -114.06115501736546",,POINT (-114.061155017365 50.952863154394),-114.061155017365,50.952863154394
207,REXALL #7507,1032 1 AVE,,BEAVERLODGE,780-354-2088,Over 4 weeks,https://www.rexall.ca/covid-19/alberta-vaccine,PFIZER,,,False,"55.21162160171942, -119.43100979397147",,POINT (-119.431009793971 55.211621601719),-119.431009793971,55.211621601719
208,PRIMECARE PHARMACY,103-3610 ROLLYVIEW RD,,LEDUC,780-769-1090,Over 4 weeks,,PFIZER,MODERNA,,True,"53.25116986317176, -113.52464035908781",,POINT (-113.524640359088 53.251169863172),-113.524640359088,53.251169863172
209,MACLEOD GUARDIAN PHARMACY,1010 MACLEOD TR SE,,CALGARY,403-276-8829,Over 4 weeks,,PFIZER,,,False,"51.042903063089774, -114.05811754419834",,POINT (-114.058117544198 51.04290306309),-114.058117544198,51.04290306309
210,CHAMPLAIN PHARMACY,111-9918 100 ST,,MORINVILLE,780-939-2438,Over 4 weeks,,PFIZER,,,False,"53.80119338855149, -113.6457975437769",,POINT (-113.645797543777 53.801193388551),-113.645797543777,53.801193388551
211,AVENIDA PHARMACY,309-12445 LAKE FRASER DR SE,,CALGARY,403-720-6337,Over 4 weeks,http://www.pharmachoice.ca,PFIZER,MODERNA,,True,"50.94217566639807, -114.06931955900703",,POINT (-114.069319559007 50.942175666398),-114.069319559007,50.942175666398
212,BEAUMONT MEDX DRUGS,108-6202 29 AVE,,BEAUMONT,780-737-5323,Over 4 weeks,https://www.medxdrugs.ca,MODERNA,,,True,"53.33936808058936, -113.43067150127858",,POINT (-113.430671501279 53.339368080589),-113.430671501279,53.339368080589
213,SAVE-ON-FOODS PHARMACY #6620 - 50TH ST MARKET,4805 167 AVE NW,,EDMONTON,587-459-7683,Over 4 weeks,https://saveonfoodspharmacy.medmeapp.com/schedule/,PFIZER,,,True,"53.627437806234596, -113.40866757497128",,POINT (-113.408667574971 53.627437806235),-113.408667574971,53.627437806235
214,NOLAN DRUGS,8731 118 AVE NW,,EDMONTON,780-477-2748,Over 4 weeks,https://bookyourvisit.ca/nolandrugs,PFIZER,,,True,"53.57041983207616, -113.47599508629779",,POINT (-113.475995086298 53.570419832076),-113.475995086298,53.570419832076
215,ASPIRE REMEDY'S RX PHARMACY,120-2810 BREMNER AVE,,RED DEER,403-986-0444,Over 4 weeks,,PFIZER,,,True,"52.245500837120844, -113.81060240130448",,POINT (-113.810602401304 52.245500837121),-113.810602401304,52.245500837121
216,SPRUCE GROVE PHARMACY,113-187 HWY 16A,,SPRUCE GROVE,780-960-5490,Over 4 weeks,https://sgpharm.com,PFIZER,MODERNA,,True,"53.539796110394946, -113.92878560888907",,POINT (-113.928785608889 53.539796110395),-113.928785608889,53.539796110395
217,AIRDRIE DRUG MART,101-124 1 AVE NE,,AIRDRIE,403-948-0475,Over 4 weeks,,PFIZER,,,False,"51.29298396327193, -114.0121116016817",,POINT (-114.012111601682 51.292983963272),-114.012111601682,51.292983963272
218,SAVE-ON-FOODS PHARMACY #6650,401 HIGHLANDS BLVD W,,LETHBRIDGE,403-381-2759,Over 4 weeks,https://saveonfoodspharmacy.medmeapp.com/schedule/,PFIZER,MODERNA,,True,"49.69486142063052, -112.89627223458646",,POINT (-112.896272234586 49.694861420631),-112.896272234586,49.694861420631
219,LOBLAW PHARMACY #4972,5106 47 AVE,,STETTLER,403-742-9180,Over 4 weeks,https://www.nofrills.ca/covid19,PFIZER,,,True,"52.320977137269885, -112.70641855911069",,POINT (-112.706418559111 52.32097713727),-112.706418559111,52.32097713727
220,MEDICINE SHOPPE PHARMACY 200,102-25 ST MICHAEL ST,,ST ALBERT,780-459-8545,Over 4 weeks,https://www.medicineshoppe.ca/en/alberta/st-albert/the-medicine-shoppe-pharmacy-200-7009780,PFIZER,MODERNA,,True,"53.63448158333804, -113.62443200177233",,POINT (-113.624432001772 53.634481583338),-113.624432001772,53.634481583338
221,WAL-MART PHARMACY #1136,255 EAST HILLS BLVD SE,,CALGARY,403-387-0853,Over 4 weeks,https://portal.healthmyself.net/walmartab/forms/a66,PFIZER,,,True,"51.03876294193923, -113.91079234989695",,POINT (-113.910792349897 51.038762941939),-113.910792349897,51.038762941939
222,CO-OP PHARMACY DOWNTOWN,9831 100 AVE,,GRANDE PRAIRIE,780-532-2652,Over 4 weeks,,PFIZER,,,False,"55.17099612571071, -118.79110096931478",,POINT (-118.791100969315 55.170996125711),-118.791100969315,55.170996125711
223,SHOPPERS DRUG MART #2304,2440 DIVISION AVE NW,,MEDICINE HAT,403-528-0539,Over 4 weeks,https://www1.shoppersdrugmart.ca/en/health-and-pharmacy/covid-19?ShortURL=covid,PFIZER,,,True,"50.06372794949333, -110.68721574492376",,POINT (-110.687215744924 50.063727949493),-110.687215744924,50.063727949493
224,SNOW'S PHARMACY INC.,53A BROADWAY N,,RAYMOND,403-752-3023,Over 4 weeks,https://www.bookmyshot.com/covidshot/403-752-3023,PFIZER,MODERNA,,True,"49.462709227377424, -112.66190693058724",,POINT (-112.661906930587 49.462709227377),-112.661906930587,49.462709227377
225,WEST EDMONTON MALL PHARMASAVE #331,2031-8882 170 ST NW,,EDMONTON,780-665-4755,Over 4 weeks,https://pharmasavewestedmontonmall.medmeapp.ca/schedule,MODERNA,,,True,"53.52155891842927, -113.61840507364607",,POINT (-113.618405073646 53.521558918429),-113.618405073646,53.521558918429
226,WALKER LAKE REMEDY'S RX,5007 22 AVE SW,,EDMONTON,780-752-2800,Over 4 weeks,,PFIZER,MODERNA,,True,"53.41415563645182, -113.41894164581895",,POINT (-113.418941645819 53.414155636452),-113.418941645819,53.414155636452
227,DRUGSTORE PHARMACY #4381,100-6509 46 ST,,OLDS,403-507-8015,Over 4 weeks,https://www.nofrills.ca/covid19,PFIZER,,,False,"51.79395653082114, -114.13500189575788",,POINT (-114.135001895758 51.793956530821),-114.135001895758,51.793956530821
228,SHOPPERS DRUG MART #2469,2037 111 ST NW,,EDMONTON,780-430-8400,Over 4 weeks,https://www1.shoppersdrugmart.ca/en/health-and-pharmacy/covid-19?ShortURL=covid,PFIZER,,,True,"53.45257648044532, -113.51385951698285",,POINT (-113.513859516983 53.452576480445),-113.513859516983,53.452576480445
229,MEDICINE SHOPPE PHARMACY 178,105-4411 16 AVE NW,,CALGARY,403-247-9502,Over 4 weeks,https://www.medicineshoppe.ca/en/alberta/calgary/the-medicine-shoppe-pharmacy-178-7015229,PFIZER,MODERNA,,True,"51.06805148017702, -114.15885881536218",,POINT (-114.158858815362 51.068051480177),-114.158858815362,51.068051480177
230,TOTAL WELLNESS PHARMACY,120-6845 66 ST,,RED DEER,403-967-1777,Over 4 weeks,,PFIZER,,,False,"52.28732942558766, -113.8522645437693",,POINT (-113.852264543769 52.287329425588),-113.852264543769,52.287329425588
231,LOBLAW PHARMACY #1573,17303 STONY PLAIN RD NW,,EDMONTON,780-486-8454,Over 4 weeks,https://www.realcanadiansuperstore.ca/covid19,MODERNA,,,True,"53.54009057035048, -113.62111657257397",,POINT (-113.621116572574 53.54009057035),-113.621116572574,53.54009057035
232,SHOPPERS DRUG MART #2369,5004-2060 SYMONS VALLEY,PKWY NW,CALGARY,587-755-7783,Over 4 weeks,https://www1.shoppersdrugmart.ca/en/health-and-pharmacy/covid-19?ShortURL=covid,PFIZER,MODERNA,,True,"51.1750809696619, -114.10862503455128",,POINT (-114.108625034551 51.175080969662),-114.108625034551,51.175080969662
233,SHOPPERS DRUG MART #2439,11120 ELLERSLIE RD SW,,EDMONTON,780-438-1131,Over 4 weeks,https://www1.shoppersdrugmart.ca/en/health-and-pharmacy/covid-19?ShortURL=covid,PFIZER,MODERNA,,True,"53.42651662209189, -113.51742334397241",,POINT (-113.517423343972 53.426516622092),-113.517423343972,53.426516622092
234,SWITZER'S DRUGS,224 50 ST,,EDSON,780-723-4666,Over 4 weeks,,PFIZER,MODERNA,,True,"53.58241455901763, -116.43138505930855",,POINT (-116.431385059309 53.582414559018),-116.431385059309,53.582414559018
235,ANDERSON DRUG BY FRESON BROS HANNA,602 2 AVE W,,HANNA,403-854-4357,Over 4 weeks,,PFIZER,MODERNA,,False,"51.642551644470835, -111.938487",,POINT (-111.938487 51.642551644471),-111.938487,51.642551644471
236,MEDICINE SHOPPE PHARMACY 403,102-102 6 AVE SW,,SLAVE LAKE,780-849-2896,Over 4 weeks,https://www.medicineshoppe.ca/en/alberta/slave-lake/medicine-shoppe-403-7038142,PFIZER,,,True,"55.27973103088204, -114.77229137472052",,POINT (-114.772291374721 55.279731030882),-114.772291374721,55.279731030882
237,SHOPPERS DRUG MART #312,10907 82 AVE NW,,EDMONTON,780-433-2424,Over 4 weeks,https://www1.shoppersdrugmart.ca/en/health-and-pharmacy/covid-19?ShortURL=covid,PFIZER,,,True,"53.517969135666014, -113.51241764212341",,POINT (-113.512417642123 53.517969135666),-113.512417642123,53.517969135666
238,SAFEWAY PHARMACY #8824,410 10 ST NW,,CALGARY,403-283-8185,Over 4 weeks,https://www.safeway.ca/vaccine-registration/,MODERNA,,,True,"51.05623392910564, -114.08441388113164",,POINT (-114.084413881132 51.056233929106),-114.084413881132,51.056233929106
239,SHOPPERS DRUG MART #317,192 KINGSWAY GARDEN MALL NW,,EDMONTON,780-474-8237,Over 4 weeks,https://www1.shoppersdrugmart.ca/en/health-and-pharmacy/covid-19?ShortURL=covid,PFIZER,MODERNA,,False,"53.56240686637358, -113.50517579453867",,POINT (-113.505175794539 53.562406866374),-113.505175794539,53.562406866374
240,PHARMASAVE BASHAW #319,5010 50 ST,,BASHAW,780-372-3503,Over 4 weeks,,PFIZER,MODERNA,,True,"52.5839873592797, -112.9711764594821",,POINT (-112.971176459482 52.58398735928),-112.971176459482,52.58398735928
241,SHOPPERS DRUG MART #2307,3735 17 ST NW,,EDMONTON,780-463-1867,Over 4 weeks,https://www1.shoppersdrugmart.ca/en/health-and-pharmacy/covid-19?ShortURL=covid,PFIZER,,,True,"53.47553200173402, -113.36676393134792",,POINT (-113.366763931348 53.475532001734),-113.366763931348,53.475532001734
242,ANDREW PHARMACY AND HOME HEALTHCARE,5022 51 St,,ANDREW,780-365-3832,Over 4 weeks,,PFIZER,MODERNA,,True,"53.87910139762706, -112.33532098777371",,POINT (-112.335320987774 53.879101397627),-112.335320987774,53.879101397627
243,QUICK CARE PHARMACY,238-2 HEBERT RD,,ST ALBERT,780-544-9393,Over 4 weeks,,PFIZER,MODERNA,,True,"53.622802998471286, -113.60535505962912",,POINT (-113.605355059629 53.622802998471),-113.605355059629,53.622802998471
244,DRUGSTORE PHARMACY #9024,120 2 ST E,,CARDSTON,403-653-3352,Over 4 weeks,https://www.extrafoods.ca/covid19,PFIZER,,,True,"49.202007310311416, -113.29660277780258",,POINT (-113.296602777803 49.202007310311),-113.296602777803,49.202007310311
245,SHOPPERS DRUG MART #2356,830-19369 SHERIFF KING ST SW,,CALGARY,403-873-9135,Over 4 weeks,https://www1.shoppersdrugmart.ca/en/health-and-pharmacy/covid-19?ShortURL=covid,MODERNA,,,True,"50.87882944402351, -114.07170845784714",,POINT (-114.071708457847 50.878829444024),-114.071708457847,50.878829444024
246,SHOPPERS DRUG MART #305,5628 4 ST NW,,CALGARY,403-275-1222,Over 4 weeks,https://www1.shoppersdrugmart.ca/en/health-and-pharmacy/covid-19?ShortURL=covid,PFIZER,MODERNA,,True,"51.10240950391534, -114.07056105753186",,POINT (-114.070561057532 51.102409503915),-114.070561057532,51.102409503915
247,PETER'S PHARMACY,419 MAIN ST,,THREE HILLS,403-443-2433,Over 4 weeks,,PFIZER,MODERNA,,True,"51.7040983026059, -113.2679659633743",,POINT (-113.267965963374 51.704098302606),-113.267965963374,51.704098302606
248,HARRVEST HILL PHARMACY,111-160 96 AVE NE,,CALGARY,403-475-5900,Over 4 weeks,,PFIZER,MODERNA,,True,"51.14266538045981, -114.06556733286939",,POINT (-114.065567332869 51.14266538046),-114.065567332869,51.14266538046
249,CALGARY CO-OP PHARMACY #5,3330 17 AVE SE,,CALGARY,403-299-4467,Over 4 weeks,https://www.calgarycoop.com/covid19vaccination,PFIZER,,,True,"51.038864712789774, -113.98816056641456",,POINT (-113.988160566415 51.03886471279),-113.988160566415,51.03886471279
250,CASTLEDOWNS ARP PHARMACY,122-15277 CASTLEDOWNS RD NW,,EDMONTON,780-457-0854,Over 4 weeks,http://castledownspharmacy.com/,PFIZER,,,True,"53.61329545634461, -113.5156894014541",,POINT (-113.515689401454 53.613295456345),-113.515689401454,53.613295456345
251,PHARMASAVE #345,BAY C -316 8 AVE W,,BROOKS,403-362-2265,Over 4 weeks,,PFIZER,MODERNA,,True,"50.5756322351245, -111.89821880172202",,POINT (-111.898218801722 50.575632235125),-111.898218801722,50.575632235125
252,SAFEWAY PHARMACY #8899,3901 56 ST,,WETASKIWIN,780-352-2848,Over 4 weeks,https://www.safeway.ca/vaccine-registration/,PFIZER,MODERNA,,True,"52.958674239156096, -113.38908821971637",,POINT (-113.389088219716 52.958674239156),-113.389088219716,52.958674239156
253,SHOPPERS DRUG MART #360,5-9701 84 AVE,,GRANDE PRAIRIE,780-532-3318,Over 4 weeks,https://www1.shoppersdrugmart.ca/en/health-and-pharmacy/covid-19?ShortURL=covid,MODERNA,,,True,"55.15694187588257, -118.78172333606906",,POINT (-118.781723336069 55.156941875883),-118.781723336069,55.156941875883
254,LOBLAW PHARMACY #4201,5700 HWY 2A,,LACOMBE,403-782-7354,Over 4 weeks,https://www.nofrills.ca/covid19,PFIZER,,,True,"52.47282769282346, -113.71953871492913",,POINT (-113.719538714929 52.472827692823),-113.719538714929,52.472827692823
255,DRUGSTORE PHARMACY #9052,5520 46 ST,,ROCKY MOUNTAIN HOUSE,403-846-4715,Over 4 weeks,https://www.extrafoods.ca/covid19,PFIZER,,,True,"52.384589851747585, -114.91430791664561",,POINT (-114.914307916646 52.384589851748),-114.914307916646,52.384589851748
256,MEDIWELL PHARMACY,106-3840 104 AVE NE,,CALGARY,825-222-8900,Over 4 weeks,,PFIZER,,,True,"51.14783742137332, -113.97887721535922",,POINT (-113.978877215359 51.147837421373),-113.978877215359,51.147837421373
257,SOBEYS PHARMACY #1104,327 BLUEFOX BLVD N,,LETHBRIDGE,403-320-5618,Over 4 weeks,https://www.safeway.ca/vaccine-registration/,PFIZER,MODERNA,,False,"49.72811355590728, -112.81021708640435",,POINT (-112.810217086404 49.728113555907),-112.810217086404,49.728113555907
258,WHOLE HEALTH PHARMACY EDMONTON,13578B FORT RD NW,,EDMONTON,587-524-9928,Over 4 weeks,,PFIZER,MODERNA,,False,"53.59859405698685, -113.42285577143258",,POINT (-113.422855771433 53.598594056987),-113.422855771433,53.598594056987
259,TRINITY PHARMACY,10530 101 ST NW,,EDMONTON,780-752-2220,Over 4 weeks,,PFIZER,MODERNA,,True,"53.548701592005244, -113.4941813574633",,POINT (-113.494181357463 53.548701592005),-113.494181357463,53.548701592005
260,RX DRUG MART #2014,5028 50 ST,,BARRHEAD,780-674-2121,Over 4 weeks,,PFIZER,,,True,"54.119857201616824, -114.40478668949075",,POINT (-114.404786689491 54.119857201617),-114.404786689491,54.119857201617
261,TAWA PHARMASAVE,3013 66 ST NW,,EDMONTON,780-758-7283,Over 4 weeks,https://www.tawapharmasave.ca,PFIZER,MODERNA,,True,"53.46167069331454, -113.43299085746575",,POINT (-113.432990857466 53.461670693315),-113.432990857466,53.461670693315
262,GREENBROOK PHARMACY,344 8 ST E,,BROOKS,403-362-4283,Over 4 weeks,,PFIZER,,,True,"50.56623942403791, -111.88085645901572",,POINT (-111.880856459016 50.566239424038),-111.880856459016,50.566239424038
263,MEDICINE SHOPPE PHARMACY 372,203-8706 FRANKLIN AVE,,FORT MCMURRAY,587-536-6648,Over 4 weeks,https://www.medicineshoppe.ca/en/alberta/fort-mcmurray/the-medicine-shoppe-pharmacy-372-7022420,PFIZER,,,True,"56.721474334264755, -111.36265880154642",,POINT (-111.362658801546 56.721474334265),-111.362658801546,56.721474334265
264,MEDICINE SHOPPE PHARMACY 387,13703 93 ST NW,,EDMONTON,780-760-3387,Over 4 weeks,https://www.medicineshoppe.ca/en/alberta/edmonton/the-medicine-shoppe-pharmacy-387-7027091,PFIZER,MODERNA,,True,"53.60025033007542, -113.48464991711431",,POINT (-113.484649917114 53.600250330075),-113.484649917114,53.600250330075
265,East Calgary Health Centre Family Care Clinic,4715 8 Ave SE,,CALGARY,811,Starts June 15,https://www.albertahealthservices.ca/topics/Page17295.aspx,PFIZER,MODERNA,,True,"51.04509946728836, -113.96723463040288",,POINT (-113.967234630403 51.045099467288),-113.967234630403,51.045099467288
266,IDA COMMUNITY PHARMACY,36 EVERGREEN PK NW,,EDMONTON,587-523-0900,Over 4 weeks,https://www.bookmyshot.com/5875230900,PFIZER,MODERNA,,False,"53.632911014882836, -113.35185797257166",,POINT (-113.351857972572 53.632911014883),-113.351857972572,53.632911014883
267,MEDICINE SHOPPE PHARMACY 320,102-16028 100A AVE NW,,EDMONTON,780-487-6336,Over 4 weeks,https://www.medicineshoppe.ca/en/alberta/edmonton/the-medicine-shoppe-pharmacy-320-7008159,MODERNA,,,True,"53.54125358115344, -113.59899929992949",,POINT (-113.598999299929 53.541253581153),-113.598999299929,53.541253581153
268,SOBEYS PHARMACY #5190,5309 ELLERSLIE RD SW,,EDMONTON,780-450-1116,Over 4 weeks,https://www.safeway.ca/vaccine-registration/,PFIZER,,,True,"53.42441104276009, -113.4251908151372",,POINT (-113.425190815137 53.42441104276),-113.425190815137,53.42441104276
269,BALKWILL PHARMACY LTD.,223 MAIN ST,,TROCHU,403-442-3823,Over 4 weeks,,PFIZER,,,False,"51.82750491806628, -113.22721165713405",,POINT (-113.227211657134 51.827504918066),-113.227211657134,51.827504918066
270,MEDICINE SHOPPE PHARMACY 344,9559 118 AVE NW,,EDMONTON,780-477-3779,Over 4 weeks,https://www.medicineshoppe.ca/en/alberta/edmonton/the-medicine-shoppe-pharmacy-344-7011508,PFIZER,,,True,"53.57039804655016, -113.48973808643399",,POINT (-113.489738086434 53.57039804655),-113.489738086434,53.57039804655
271,IDEAL CARE PHARMACY,12147 82 ST NW,,EDMONTON,780-756-1236,Over 4 weeks,,PFIZER,MODERNA,,True,"53.576375904214565, -113.46673635709242",,POINT (-113.466736357092 53.576375904215),-113.466736357092,53.576375904215
272,SHOPPERS DRUG MART #331,180 CORNERSTONE MALL,6800 48 AVE,CAMROSE,780-672-4961,Over 4 weeks,https://www1.shoppersdrugmart.ca/en/health-and-pharmacy/covid-19?ShortURL=covid,PFIZER,MODERNA,,False,"53.0187860472885, -112.86480110142242",,POINT (-112.864801101422 53.018786047289),-112.864801101422,53.018786047289
273,DRUGSTORE PHARMACY #6717,5106 46 ST,,BONNYVILLE,780-812-3947,Over 4 weeks,https://www.wholesaleclub.ca/covid19,PFIZER,,,True,"54.28129906597499, -110.72575260440735",,POINT (-110.725752604407 54.281299065975),-110.725752604407,54.281299065975
274,UNIVERSAL HEALTH PHARMACY #12 DIDSBURY,106-2034 19 AVE,,DIDSBURY,403-335-8473,Over 4 weeks,https://www.universalhealthcentre.com,PFIZER,MODERNA,,True,"51.660439884334934, -114.13928091518672",,POINT (-114.139280915187 51.660439884335),-114.139280915187,51.660439884335
275,REXALL #7223,3-4502 50 ST,,PONOKA,403-783-5568,Over 4 weeks,https://www.rexall.ca/covid-19/alberta-vaccine,PFIZER,,,False,"52.671876443635334, -113.57989677119497",,POINT (-113.579896771195 52.671876443635),-113.579896771195,52.671876443635
276,MEDICINE SHOPPE PHARMACY 188,100-11910 111 AVE,,EDMONTON,780-455-1302,Over 4 weeks,https://www.medicineshoppe.ca/en/alberta/edmonton/the-medicine-shoppe-pharmacy-188-7034562,PFIZER,MODERNA,,False,"53.55838449834272, -113.52597577337167",,POINT (-113.525975773372 53.558384498343),-113.525975773372,53.558384498343
277,REXALL #7514,10507 KINGSWAY AVE NW,,EDMONTON,780-634-0461,Over 4 weeks,https://www.rexall.ca/covid-19/alberta-vaccine,PFIZER,,,False,"53.557195646761166, -113.500763576785",,POINT (-113.500763576785 53.557195646761),-113.500763576785,53.557195646761
278,LOBLAW PHARMACY #1577,5858 SIGNAL HILL CTR SW,,CALGARY,403-686-8035,Over 4 weeks,https://www.realcanadiansuperstore.ca/covid19,MODERNA,,,True,"51.02133800151927, -114.16788510147099",,POINT (-114.167885101471 51.021338001519),-114.167885101471,51.021338001519
279,SAFEWAY PHARMACY #8859,300-2 HEBERT RD,,ST ALBERT,780-460-9339,Over 4 weeks,https://www.safeway.ca/vaccine-registration/,PFIZER,,,True,"53.62263206239557, -113.60598737312247",,POINT (-113.605987373122 53.622632062396),-113.605987373122,53.622632062396
280,SHOPPERS DRUG MART #2409,4718 50 ST,,STETTLER,403-742-3367,Over 4 weeks,https://www1.shoppersdrugmart.ca/en/health-and-pharmacy/covid-19?ShortURL=covid,PFIZER,MODERNA,,True,"52.32262667129393, -112.70544954400366",,POINT (-112.705449544004 52.322626671294),-112.705449544004,52.322626671294
281,SAFEWAY PHARMACY #8867,11410 104 AVE NW,,EDMONTON,780-424-0666,Over 4 weeks,https://www.safeway.ca/vaccine-registration/,PFIZER,,,True,"53.54754034832534, -113.51793140935568",,POINT (-113.517931409356 53.547540348325),-113.517931409356,53.547540348325
282,SHOPPERS DRUG MART #2391,8756 COUNTRY HILLS BLVD NW,,CALGARY,403-208-4742,Over 4 weeks,https://www1.shoppersdrugmart.ca/en/health-and-pharmacy/covid-19?ShortURL=covid,PFIZER,,,True,"51.14996696064976, -114.21175238636569",,POINT (-114.211752386366 51.14996696065),-114.211752386366,51.14996696065
283,STOKES PHARMACY,408 4 AVE S,,LETHBRIDGE,403-380-3535,Over 4 weeks,https://stokes.medmeapp.com/schedule,PFIZER,,,True,"49.69444898146085, -112.8403498305811",,POINT (-112.840349830581 49.694448981461),-112.840349830581,49.694448981461
284,SHOPPERS DRUG MART #2315,102-11962 104 AVE NW,,EDMONTON,780-670-6922,Over 4 weeks,https://www1.shoppersdrugmart.ca/en/health-and-pharmacy/covid-19?ShortURL=covid,PFIZER,,,True,"53.54771322083544, -113.52638672894646",,POINT (-113.526386728946 53.547713220835),-113.526386728946,53.547713220835
285,WABAMUN PHARMACY LTD,5120 51 AVE,,WABAMUN,780-892-2418,Over 4 weeks,http://bookyourvisit.ca/wabamunpharmacy,PFIZER,MODERNA,,True,"53.55802193275887, -114.47194791513336",,POINT (-114.471947915133 53.558021932759),-114.471947915133,53.558021932759
286,COSTCO PHARMACY #1157,1075 ST. ALBERT TR,,ST ALBERT,780-544-2010,Over 4 weeks,https://www.costcopharmacy.ca/appointment,PFIZER,MODERNA,,True,"53.66952362928042, -113.63710631679469",,POINT (-113.637106316795 53.66952362928),-113.637106316795,53.66952362928
287,MINT HEALTH + DRUGS: BEAVERLODGE,112 10 ST,,BEAVERLODGE,780-354-2148,Over 4 weeks,https://www.mintdrugs.com,MODERNA,,,False,"55.20993861373877, -119.42863688878789",,POINT (-119.428636888788 55.209938613739),-119.428636888788,55.209938613739
288,VISTA PHARMACY & TRAVEL CLINIC,130A-920 36 ST NE,,CALGARY,403-460-3226,Over 4 weeks,https://www.vistapharmacy.ca,PFIZER,MODERNA,,True,"51.060325327843145, -113.9809978152033",,POINT (-113.980997815203 51.060325327843),-113.980997815203,51.060325327843
289,SHOPPERS DRUG MART #2355,28 CROWFOOT TERR NW,,CALGARY,403-241-8818,Over 4 weeks,https://www1.shoppersdrugmart.ca/en/health-and-pharmacy/covid-19?ShortURL=covid,PFIZER,MODERNA,,True,"51.12459751811486, -114.20358137318355",,POINT (-114.203581373184 51.124597518115),-114.203581373184,51.124597518115
290,SHOPPERS DRUG MART #355,1790-1632 14 AVE NW,,CALGARY,403-289-6761,Over 4 weeks,https://www1.shoppersdrugmart.ca/en/health-and-pharmacy/covid-19?ShortURL=covid,PFIZER,MODERNA,,True,"51.066323019841185, -114.10162354403835",,POINT (-114.101623544038 51.066323019841),-114.101623544038,51.066323019841
291,SOUTH TRAIL PHARMACY,78-4307 130 AVE SE,,CALGARY,403-475-8612,Over 4 weeks,,PFIZER,,,True,"50.93059254313827, -113.97307171520688",,POINT (-113.973071715207 50.930592543138),-113.973071715207,50.930592543138
292,SAFEWAY PHARMACY #8921,2304 109 ST NW,,EDMONTON,780-430-4269,Over 4 weeks,https://www.safeway.ca/vaccine-registration/,PFIZER,,,True,"53.45485952831057, -113.50904479641544",,POINT (-113.509044796415 53.454859528311),-113.509044796415,53.454859528311
293,SHOPPERS DRUG MART #2300,100-665 ST. ALBERT RD,,ST ALBERT,780-418-7891,Over 4 weeks,https://www1.shoppersdrugmart.ca/en/health-and-pharmacy/covid-19?ShortURL=covid,PFIZER,,,False,"53.656560367264, -113.62887271305092",,POINT (-113.628872713051 53.656560367264),-113.628872713051,53.656560367264
294,BENTLEY IDA,5018 50 AVE,,BENTLEY,403-748-3820,Over 4 weeks,,PFIZER,,,False,"52.46550339073427, -114.05121781479113",,POINT (-114.051217814791 52.465503390734),-114.051217814791,52.465503390734
295,MEDICINE SHOPPE PHARMACY 315,6525 118 AVE NW,,EDMONTON,780-479-2077,Over 4 weeks,https://www.medicineshoppe.ca/en/alberta/edmonton/the-medicine-shoppe-pharmacy-315-7008312,PFIZER,,,True,"53.57022436224803, -113.44257554410437",,POINT (-113.442575544104 53.570224362248),-113.442575544104,53.570224362248
296,PHARMASAVE #346,1D-3808 HIGHWAY ST,,VALLEYVIEW,780-524-2183,Over 4 weeks,,PFIZER,MODERNA,,False,"55.05127182089933, -117.28229883297",,POINT (-117.28229883297 55.051271820899),-117.28229883297,55.051271820899
297,LOBLAW PHARMACY #1544,12225 99 ST,,GRANDE PRAIRIE,780-831-3835,Over 4 weeks,https://www.realcanadiansuperstore.ca/covid19,PFIZER,MODERNA,,True,"55.191090814692735, -118.79075100136774",,POINT (-118.790751001368 55.191090814693),-118.790751001368,55.191090814693
298,REXALL #7238,14403 MILLER BLVD NW,,EDMONTON,780-475-1364,Over 4 weeks,https://www.rexall.ca/covid-19/alberta-vaccine,PFIZER,,,True,"53.60760166177484, -113.41318958104048",,POINT (-113.41318958104 53.607601661775),-113.41318958104,53.607601661775
299,HEALTH AID PHARMACY,12918 167 AVE NW,,EDMONTON,780-244-0803,Over 4 weeks,,PFIZER,,,False,"53.62942031224673, -113.54677535709112",,POINT (-113.546775357091 53.629420312247),-113.546775357091,53.629420312247
300,LIFE MED PHARMACY #2,218 CENTER ST,,VULCAN,403-485-2552,Over 4 weeks,,PFIZER,MODERNA,,True,"50.55832841710742, -113.25243621271233",,POINT (-113.252436212712 50.558328417107),-113.252436212712,50.558328417107
301,SHOPPERS DRUG MART #313,254 MEADOWLARK HEALTH CTR,87 AVE & 156 ST NW,EDMONTON,780-484-7718,Over 4 weeks,https://www1.shoppersdrugmart.ca/en/health-and-pharmacy/covid-19?ShortURL=covid,PFIZER,MODERNA,,True,"53.52081736103533, -113.5933808553326",,POINT (-113.593380855333 53.520817361035),-113.593380855333,53.520817361035
302,PREFERREDRX PHARMACY,1-4601 50 AVE,,OLDS,403-556-4155,Over 4 weeks,,PFIZER,,,False,"51.79479291332106, -114.10307476337209",,POINT (-114.103074763372 51.794792913321),-114.103074763372,51.794792913321
303,CRANSTON SMART DRUG MART,121-35 CRANFORD WAY SE,,CALGARY,587-623-1120,Over 4 weeks,https://www.cranstonpharmacy.com/,PFIZER,,,True,"50.86868515401452, -113.96842343017276",,POINT (-113.968423430173 50.868685154015),-113.968423430173,50.868685154015
304,SAFEWAY PHARMACY #8885,4202 SOUTH PARK DR,,STONY PLAIN,780-963-2264,Over 4 weeks,https://www.safeway.ca/vaccine-registration/,PFIZER,,,True,"53.54003448883053, -113.9788555080575",,POINT (-113.978855508057 53.540034488831),-113.978855508057,53.540034488831
305,MEDICINE SHOPPE PHARMACY 194,2303 4 ST SW,,CALGARY,403-229-3458,Over 4 weeks,https://www.medicineshoppe.ca/en/alberta/calgary/the-medicine-shoppe-pharmacy-194-7002313,PFIZER,MODERNA,,True,"51.03231992879565, -114.07189851520411",,POINT (-114.071898515204 51.032319928796),-114.071898515204,51.032319928796
306,SHOPPERS DRUG MART #2377,5970 MULLEN WAY NW,,EDMONTON,780-435-1782,Over 4 weeks,https://www1.shoppersdrugmart.ca/en/health-and-pharmacy/covid-19?ShortURL=covid,PFIZER,,,False,"53.43538214177696, -113.57133687280725",,POINT (-113.571336872807 53.435382141777),-113.571336872807,53.435382141777
307,HIGH RIVER PHARMACY,103 3 AVE SW,,HIGH RIVER,403-652-5608,Over 4 weeks,,PFIZER,MODERNA,,True,"50.58007659727062, -113.87258524367111",,POINT (-113.872585243671 50.580076597271),-113.872585243671,50.580076597271
308,WELLNESS DISPENSARY,26-10081 166 ST,,EDMONTON,780-930-1344,Over 4 weeks,,PFIZER,,,True,"53.5405804147211, -113.60716820289986",,POINT (-113.6071682029 53.540580414721),-113.6071682029,53.540580414721
309,FAMILY CARE PHARMACY,218-40 COUNTRY HILLS LANDNG NW,,CALGARY,587-352-2600,Over 4 weeks,,PFIZER,,,False,"51.142655397503624, -114.07037784838134",,POINT (-114.070377848381 51.142655397504),-114.070377848381,51.142655397504
310,ROYAL CARE DOUGLASDALE PHARMACY,6-20 DOUGLAS WOODS DR SE,,CALGARY,587-349-3443,Over 4 weeks,,PFIZER,MODERNA,,False,"50.943565580441906, -114.00199330572143",,POINT (-114.001993305721 50.943565580442),-114.001993305721,50.943565580442
311,SHOPPERS DRUG MART #2374,15969 97 ST NW,,EDMONTON,780-473-2813,Over 4 weeks,https://www1.shoppersdrugmart.ca/en/health-and-pharmacy/covid-19?ShortURL=covid,PFIZER,MODERNA,,True,"53.62060479726173, -113.4897931169779",,POINT (-113.489793116978 53.620604797262),-113.489793116978,53.620604797262
312,UNIVERSAL PHARMACY,113-5271 MEMORIAL DR SE,,CALGARY,403-235-0081,Over 4 weeks,,MODERNA,,,True,"51.05308992770506, -113.95625928821474",,POINT (-113.956259288215 51.053089927705),-113.956259288215,51.053089927705
313,SAVE-ON-FOODS PHARMACY #6623,400-100 SOUTHBANK BLVD,,OKOTOKS,587-757-8972,Over 4 weeks,https://saveonfoodspharmacy.medmeapp.com/schedule/,PFIZER,,,False,"50.707267517822196, -113.9482979499049",,POINT (-113.948297949905 50.707267517822),-113.948297949905,50.707267517822
314,PATIENT CARE PHARMACY,7707 85 ST NW,,EDMONTON,780-705-8100,Over 4 weeks,http://www.patientcarepharmacyedmonton.com,MODERNA,,,False,"53.51419382832625, -113.45739788661845",,POINT (-113.457397886618 53.514193828326),-113.457397886618,53.514193828326
315,SHOPPERS DRUG MART #2446,5351 167 AVE NW,,EDMONTON,780-478-7261,Over 4 weeks,https://www1.shoppersdrugmart.ca/en/health-and-pharmacy/covid-19?ShortURL=covid,PFIZER,,,True,"53.628464515561404, -113.41705518629618",,POINT (-113.417055186296 53.628464515561),-113.417055186296,53.628464515561
316,WAL-MART PHARMACY #3150,2051 STRACHAN RD SE,,MEDICINE HAT,403-526-1444,Over 4 weeks,https://portal.healthmyself.net/walmartab/forms/a66,PFIZER,,,True,"49.99362263327772, -110.64315754677442",,POINT (-110.643157546774 49.993622633278),-110.643157546774,49.993622633278
317,6&6 PHARMACY,526 6 ST S,,LETHBRIDGE,403-942-0044,Over 4 weeks,,PFIZER,,,False,"49.69189388865414, -112.83851237230212",,POINT (-112.838512372302 49.691893888654),-112.838512372302,49.691893888654
318,SAVE-ON-FOODS PHARMACY #6607,6406 FRANKLIN AVE,,FORT MCMURRAY,780-791-4147,Over 4 weeks,https://www.saveonfoods.com,PFIZER,MODERNA,,True,"56.718010604954635, -111.35540110872412",,POINT (-111.355401108724 56.718010604955),-111.355401108724,56.718010604955
319,VIKING PHARMACY,5305 51 ST,,VIKING,780-336-3380,Over 4 weeks,,PFIZER,MODERNA,,True,"53.09676372223644, -111.77849882864098",,POINT (-111.778498828641 53.096763722236),-111.778498828641,53.096763722236
320,WAL-MART PHARMACY #3038,PARKS WEST MALL,100-900 CARMICHAEL LANE,HINTON,780-865-1575,Over 4 weeks,https://portal.healthmyself.net/walmartab/forms/a66,PFIZER,,,False,"53.38371495782238, -117.62520481915517",,POINT (-117.625204819155 53.383714957822),-117.625204819155,53.383714957822
321,PHARMASAVE WESTMOUNT,10844 124 ST NW,,EDMONTON,780-249-9901,Over 4 weeks,https://www.pharmasave.com/edmonton-westmount,PFIZER,,,True,"53.55400169458897, -113.53575074798651",,POINT (-113.535750747987 53.554001694589),-113.535750747987,53.554001694589
322,MEDICINE SHOPPE PHARMACY 126,12-5440 4 ST NW,,CALGARY,403-274-3400,Over 4 weeks,https://www.medicineshoppe.ca/en/alberta/calgary/the-medicine-shoppe-pharmacy-126-7011287,PFIZER,,,False,"51.099479247407565, -114.07035164476649",,POINT (-114.070351644766 51.099479247408),-114.070351644766,51.099479247408
323,WAL-MART PHARMACY #1028,1801 SOUTH RAILWAY AVE,,DRUMHELLER,403-820-7741,Over 4 weeks,https://portal.healthmyself.net/walmartab/forms/a66,PFIZER,,,False,"51.45007900323477, -112.68827273053343",,POINT (-112.688272730533 51.450079003235),-112.688272730533,51.450079003235
324,MEDICINE SHOPPE PHARMACY 393,10714 142 ST NW,,EDMONTON,587-520-2061,Over 4 weeks,https://www.medicineshoppe.ca/en/alberta/edmonton/the-medicine-shoppe-pharmacy-393-7051291,PFIZER,MODERNA,,True,"53.55180776823176, -113.5671364594458",,POINT (-113.567136459446 53.551807768232),-113.567136459446,53.551807768232
325,REXALL #7284,116-817 19 ST NE,,CALGARY,403-277-2227,Over 4 weeks,https://www.rexall.ca/covid-19/alberta-vaccine,PFIZER,,,False,"51.05857866194498, -114.01455826590526",,POINT (-114.014558265905 51.058578661945),-114.014558265905,51.058578661945
326,MADIGAN PHARMACY,68-6060 MEMORIAL DR NE,,CALGARY,403-457-9250,Over 4 weeks,https://madiganpharmacy.myappts.ca/src/,PFIZER,MODERNA,,True,"51.05299776998445, -113.94273370186833",,POINT (-113.942733701868 51.052997769984),-113.942733701868,51.052997769984
327,BOYLE MCCAULEY PHARMACY & HOME HEALTH CARE,10817 95 ST NW,,EDMONTON,780-705-6333,Over 4 weeks,,MODERNA,,,True,"53.55524254897086, -113.48405065894534",,POINT (-113.484050658945 53.555242548971),-113.484050658945,53.555242548971
328,PHARMASAVE #312 LEGAL,4718 50 AVE,,LEGAL,780-961-2285,Over 4 weeks,,PFIZER,,,False,"53.94939125861901, -113.59109324982558",,POINT (-113.591093249826 53.949391258619),-113.591093249826,53.949391258619
329,CURE CARE PHARMACY,11-9104 179 AVE NW,,EDMONTON,587-459-4999,Over 4 weeks,https://forms.gle/Pof2d7Jv6J2R5ihU7,MODERNA,,,True,"53.64164879071526, -113.47844395894329",,POINT (-113.478443958943 53.641648790715),-113.478443958943,53.641648790715
330,REXALL #7516,118 10 ST,,WAINWRIGHT,780-842-3414,Over 4 weeks,https://www.rexall.ca/covid-19/alberta-vaccine,PFIZER,MODERNA,,True,"52.83346976619082, -110.86169465043282",,POINT (-110.861694650433 52.833469766191),-110.861694650433,52.833469766191
331,WAL-MART PHARMACY #1145,SOUTHPARK VILLAGE,3931 CALGARY TR NW,EDMONTON,780-433-2575,Over 4 weeks,https://portal.healthmyself.net/walmartab/forms/a66,PFIZER,,,True,"53.47553197266305, -113.4940168596329",,POINT (-113.494016859633 53.475531972663),-113.494016859633,53.475531972663
332,SAFEWAY PHARMACY #8830,TOWER LANE MALL,505 MAIN ST N,AIRDRIE,403-948-3361,Over 4 weeks,https://www.safeway.ca/vaccine-registration/,PFIZER,MODERNA,,True,"51.28883542928862, -114.01407513264104",,POINT (-114.014075132641 51.288835429289),-114.014075132641,51.288835429289
333,SHOPPERS DRUG MART #2413,100-2250 162 AVE SW,,CALGARY,403-201-8202,Over 4 weeks,https://www1.shoppersdrugmart.ca/en/health-and-pharmacy/covid-19?ShortURL=covid,MODERNA,,,True,"50.90812284550865, -114.10964918637232",,POINT (-114.109649186372 50.908122845509),-114.109649186372,50.908122845509
334,VILLAGE PHARMACY,9805 71 ST NW,,EDMONTON,780-440-4555,Over 4 weeks,,PFIZER,,,True,"53.53786975775802, -113.4365686286284",,POINT (-113.436568628628 53.537869757758),-113.436568628628,53.537869757758
335,LOBLAW PHARMACY #1550,PHARMACY DEPARTMENT #1550,1792 TRANS CANADA WAY SE,MEDICINE HAT,403-528-5735,Over 4 weeks,https://www.realcanadiansuperstore.ca/covid19,PFIZER,MODERNA,,True,"50.004219390543554, -110.65235171498837",,POINT (-110.652351714988 50.004219390544),-110.652351714988,50.004219390544
336,SAGE MEADOWS PHARMACY,240-2971 136 AVE NW,,CALGARY,587-997-0093,Over 4 weeks,,PFIZER,,,True,"51.17538135889466, -114.13147587688022",,POINT (-114.13147587688 51.175381358895),-114.13147587688,51.175381358895
337,FOREST HILLS PHARMASAVE #323,3-5315 17 AVE SE,,CALGARY,587-354-7766,Over 4 weeks,,PFIZER,MODERNA,,True,"51.03760600778254, -113.95798970133279",,POINT (-113.957989701333 51.037606007783),-113.957989701333,51.037606007783
338,REXALL #7285,70 HIGH ST SE,,CALGARY,403-257-3636,Over 4 weeks,https://www.rexall.ca/covid-19/alberta-vaccine,PFIZER,,,False,"50.91468586034687, -113.96055018875533",,POINT (-113.960550188755 50.914685860347),-113.960550188755,50.914685860347
339,PARSONS PHARMACY,1C-4755 49 ST,,RED DEER,403-986-0700,Over 4 weeks,,PFIZER,MODERNA,,True,"52.26762626376237, -113.8072085541157",,POINT (-113.807208554116 52.267626263762),-113.807208554116,52.267626263762
340,DOWNTOWN DRUGMART,115 8 AVE SW,STEPHEN AVE MALL,CALGARY,403-266-2059,Over 4 weeks,https://www.downtowndrugmart.myappts.ca/ssc,MODERNA,,,True,"51.04561822970537, -114.06392619948016",,POINT (-114.06392619948 51.045618229705),-114.06392619948,51.045618229705
341,DELTON SUPER DRUGS LTD.,12904 82 ST NW,,EDMONTON,780-476-8737,Over 4 weeks,,PFIZER,,,True,"53.587695774064585, -113.46772925709224",,POINT (-113.467729257092 53.587695774065),-113.467729257092,53.587695774065
342,LOBLAW PHARMACY #1565,10-110 JENNIFER HEIL WAY,,SPRUCE GROVE,780-960-7435,Over 4 weeks,https://www.realcanadiansuperstore.ca/covid19,PFIZER,,,False,"53.544182057913645, -113.93346842839583",,POINT (-113.933468428396 53.544182057914),-113.933468428396,53.544182057914
343,STUBBS PHARMACY,1506 9 AVE S,,LETHBRIDGE,403-328-5512,Over 4 weeks,,PFIZER,MODERNA,,False,"49.686494769182616, -112.82045654407574",,POINT (-112.820456544076 49.686494769183),-112.820456544076,49.686494769183
344,PONOKA PROFESSIONAL PHARMACY,20-5011 48 AVE,,PONOKA,403-783-7333,Over 4 weeks,https://www.calendly.com/ponoka,PFIZER,MODERNA,,True,"52.67438950347934, -113.57852696889736",,POINT (-113.578526968897 52.674389503479),-113.578526968897,52.674389503479
345,TWO PHARMACY,105-100 GRANDE BLVD W,,COCHRANE,,Over 4 weeks,https://www.twopharmacy.ca,PFIZER,MODERNA,,False,"51.18576124907873, -114.47443117287024",,POINT (-114.47443117287 51.185761249079),-114.47443117287,51.185761249079
346,WAL-MART PHARMACY #3009,WESTBROOK PLAZA,1212 37 ST SW,CALGARY,403-249-8904,Over 4 weeks,https://portal.healthmyself.net/walmartab/forms/a66,PFIZER,,,True,"51.041099035352225, -114.13962029222571",,POINT (-114.139620292226 51.041099035352),-114.139620292226,51.041099035352
347,NORTHEY REMEDY'S RX PHARMACY,190 NORTHEY AVE,,RED DEER,403-346-2367,Over 4 weeks,https://northeyremedysrx.medmeapp.ca/schedule,PFIZER,,,True,"52.30200945417577, -113.82650523050967",,POINT (-113.82650523051 52.302009454176),-113.82650523051,52.302009454176
348,SAFEWAY PHARMACY #8917,610 BIG ROCK LANE,,OKOTOKS,403-938-9351,Over 4 weeks,https://www.safeway.ca/vaccine-registration/,PFIZER,MODERNA,,False,"50.71705583906501, -113.97918845785102",,POINT (-113.979188457851 50.717055839065),-113.979188457851,50.717055839065
349,MEDICARE PLUS PHARMACY,7-6208 RUNDLEHORN DR NE,,CALGARY,403-453-6386,Over 4 weeks,,PFIZER,MODERNA,,True,"51.07169307195537, -113.94241146494126",,POINT (-113.942411464941 51.071693071955),-113.942411464941,51.071693071955
350,SHOPPERS DRUG MART #2358,6302 50 ST,,BEAUMONT,780-929-4231,Over 4 weeks,https://www1.shoppersdrugmart.ca/en/health-and-pharmacy/covid-19?ShortURL=covid,PFIZER,MODERNA,,True,"53.36373324334833, -113.41560413634691",,POINT (-113.415604136347 53.363733243348),-113.415604136347,53.363733243348
351,SAFEWAY PHARMACY #8820,524 ELBOW DR SW,,CALGARY,403-228-4240,Over 4 weeks,https://www.safeway.ca/vaccine-registration/,PFIZER,,,False,"51.030444181172726, -114.07217793270588",,POINT (-114.072177932706 51.030444181173),-114.072177932706,51.030444181173
352,SHOPPERS DRUG MART 2432,383 HERITAGE DR SE,,CALGARY,403-255-4998,Over 4 weeks,https://www.shoppersdrugmart.ca/covid19,PFIZER,MODERNA,,True,"50.979649839039936, -114.06096477554094",,POINT (-114.060964775541 50.97964983904),-114.060964775541,50.97964983904
353,SAFEWAY PHARMACY #8909,850 SADDLETOWNE CIR NE,,CALGARY,403-293-1670,Over 4 weeks,https://www.safeway.ca/vaccine-registration/,PFIZER,MODERNA,,True,"51.123753987441674, -113.94470210201922",,POINT (-113.944702102019 51.123753987442),-113.944702102019,51.123753987442
354,SHOPPERS DRUG MART #371,3945 34 ST NW,,EDMONTON,780-461-6768,Over 4 weeks,https://www1.shoppersdrugmart.ca/en/health-and-pharmacy/covid-19?ShortURL=covid,PFIZER,MODERNA,,True,"53.474930461125375, -113.39239443381642",,POINT (-113.392394433816 53.474930461125),-113.392394433816,53.474930461125
355,MINT HEALTH + DRUGS: TRI WELLNESS,104-7 TRI LEISURE WAY,,SPRUCE GROVE,587-853-0453,Over 4 weeks,,PFIZER,MODERNA,,False,"53.549860205025155, -113.93675555723145",,POINT (-113.936755557231 53.549860205025),-113.936755557231,53.549860205025
356,SALVUS RXELLENCE PROFESSIONAL DISPENSARY,44-143 LIBERTON DR,,ST ALBERT,780-418-3113,Over 4 weeks,,PFIZER,MODERNA,,True,"53.65236735030585, -113.63014957681963",,POINT (-113.63014957682 53.652367350306),-113.63014957682,53.652367350306
357,SHOPPERS DRUG MART #2427,5-1020 SHERWOOD DR,,SHERWOOD PARK,780-449-2565,Over 4 weeks,https://www1.shoppersdrugmart.ca/en/health-and-pharmacy/covid-19?ShortURL=covid,PFIZER,MODERNA,,False,"53.5131575131254, -113.31844400164027",,POINT (-113.31844400164 53.513157513125),-113.31844400164,53.513157513125
358,SAVE-ON-FOODS PHARMACY #6622,1120 91 ST SW,,EDMONTON,780-462-7741,Over 4 weeks,https://saveonfoodspharmacy.medmeapp.com/schedule/,PFIZER,,,False,"53.422944260436125, -113.47531828662072",,POINT (-113.475318286621 53.422944260436),-113.475318286621,53.422944260436
359,MEDICINE SHOPPE PHARMACY 171,100-2675 36 ST NE,,CALGARY,403-291-0076,Over 4 weeks,https://www.medicineshoppe.ca/en/alberta/calgary/the-medicine-shoppe-pharmacy-171-7015167,MODERNA,,,True,"51.077488052841446, -113.9825869159321",,POINT (-113.982586915932 51.077488052841),-113.982586915932,51.077488052841
360,SHOPPERS DRUG MART #2431 COOPERS CROSSING,801-401 COOPERS BLVD SW,,AIRDRIE,403-912-0246,Over 4 weeks,https://www1.shoppersdrugmart.ca/en/health-and-pharmacy/covid-19?ShortURL=covid,PFIZER,MODERNA,,True,"51.25839246686645, -114.0230999599843",,POINT (-114.023099959984 51.258392466866),-114.023099959984,51.258392466866
361,SHOPPERS DRUG MART #6027,18750 18 ST NW,,EDMONTON,587-497-2783,Over 4 weeks,https://www1.shoppersdrugmart.ca/en/health-and-pharmacy/covid-19?ShortURL=covid,PFIZER,MODERNA,,True,"53.64941112396932, -113.37616482437903",,POINT (-113.376164824379 53.649411123969),-113.376164824379,53.649411123969
362,SAFEWAY PHARMACY #8849,8120 BEDDINGTON BLVD NW,,CALGARY,403-295-8895,Over 4 weeks,https://www.safeway.ca/vaccine-registration/,PFIZER,,,False,"51.127322313137086, -114.07349572845503",,POINT (-114.073495728455 51.127322313137),-114.073495728455,51.127322313137
363,BEVERLY PHARMACY,4243 118 AVE NW,,EDMONTON,780-756-7711,Over 4 weeks,,PFIZER,,,True,"53.57026758848596, -113.40789267243692",,POINT (-113.407892672437 53.570267588486),-113.407892672437,53.570267588486
364,BEARSPAW FAMILY PHARMACY,1929 105 ST NW,,EDMONTON,780-485-8195,Over 4 weeks,https://bearspawpharmacy.medmeapp.ca/schedule,PFIZER,,,True,"53.448456601845656, -113.50026762825952",,POINT (-113.50026762826 53.448456601846),-113.50026762826,53.448456601846
365,REXALL #7203,4702 51 ST,,WHITECOURT,780-778-3676,Over 4 weeks,https://www.rexall.ca/covid-19/alberta-vaccine,PFIZER,MODERNA,,True,"54.138214267372874, -115.68724117117073",,POINT (-115.687241171171 54.138214267373),-115.687241171171,54.138214267373
366,ABBEYDALE PHARMACY & TRAVEL CLINIC,814 68 ST NE,,CALGARY,587-470-8000,Over 4 weeks,https://www.travelcliniccalgary.ca,PFIZER,,,True,"51.05923951641243, -113.93432608634603",,POINT (-113.934326086346 51.059239516412),-113.934326086346,51.059239516412
367,WAL-MART PHARMACY #1122,16940 127 ST NW,,EDMONTON,780-457-6795,Over 4 weeks,https://portal.healthmyself.net/walmartab/forms/a66,PFIZER,MODERNA,,True,"53.63192106547913, -113.54275005593092",,POINT (-113.542750055931 53.631921065479),-113.542750055931,53.631921065479
368,LOBLAW PHARMACY #1548,PHARMACY DEPARTMENT,9 HAINEAULT ST,FORT MCMURRAY,780-790-3835,Over 4 weeks,https://www.realcanadiansuperstore.ca/covid19,PFIZER,,,True,"56.723337562435674, -111.37621284365706",,POINT (-111.376212843657 56.723337562436),-111.376212843657,56.723337562436
369,SAFEWAY PHARMACY #8914,304 5 AVE W,,COCHRANE,403-851-1279,Over 4 weeks,https://www.safeway.ca/vaccine-registration/,PFIZER,MODERNA,,False,"51.18535157758179, -114.47557283085321",,POINT (-114.475572830853 51.185351577582),-114.475572830853,51.185351577582
370,ALI'S DRUG MART,214-11 WESTWIND DR,,SPRUCE GROVE,587-461-7308,Over 4 weeks,https://www.alidrugmart.com,PFIZER,,,True,"53.56543864633342, -113.88328518592888",,POINT (-113.883285185929 53.565438646333),-113.883285185929,53.565438646333
371,UNIVERSAL HEALTH PHARMACY #8 CASTLERIDGE,4-12 CASTLERIDGE DR NE,,CALGARY,403-262-6391,Over 4 weeks,https://www.universalhealthcentre.com,PFIZER,MODERNA,,True,"51.10753891275242, -113.9499422728724",,POINT (-113.949942272872 51.107538912752),-113.949942272872,51.107538912752
372,MEDICINE SHOPPE PHARMACY 242,111-31 SUNPARK PLAZA SE,,CALGARY,403-873-0087,Over 4 weeks,https://www.medicineshoppe.ca/en/alberta/calgary/the-medicine-shoppe-pharmacy-242-7024603,PFIZER,MODERNA,,True,"50.90263168345981, -114.05870281536825",,POINT (-114.058702815368 50.90263168346),-114.058702815368,50.90263168346
373,REXALL #7241,4801 50 AVE,,STONY PLAIN,780-963-5005,Over 4 weeks,https://www.rexall.ca/covid-19/alberta-vaccine,PFIZER,MODERNA,,True,"53.53027056626738, -114.00295585651347",,POINT (-114.002955856513 53.530270566267),-114.002955856513,53.530270566267
374,FAMILY CARE MEDICAL PHARMACY,101-11611 107 AVE NW,,EDMONTON,780-250-3991,Over 4 weeks,,PFIZER,,,True,"53.551343460716446, -113.52183873010948",,POINT (-113.521838730109 53.551343460716),-113.521838730109,53.551343460716
375,STAMPEDE PHARMACY,19-3616 52 AVE NW,,CALGARY,403-460-4646,Over 4 weeks,,PFIZER,,,False,"51.10148999333996, -114.13999299508139",,POINT (-114.139992995081 51.10148999334),-114.139992995081,51.10148999334
376,WAL-MART PHARMACY #1070,1100 TABLE MOUNTAIN,,PINCHER CREEK,403-627-1730,Over 4 weeks,https://portal.healthmyself.net/walmartab/forms/a66,PFIZER,,,True,"49.499537129878696, -113.94374046397708",,POINT (-113.943740463977 49.499537129879),-113.943740463977,49.499537129879
377,MEDICINE SHOPPE PHARMACY 412,9216 ELLERSLIE RD SW,,EDMONTON,780-250-9454,Over 4 weeks,https://msp412.medmeapp.com/schedule/,PFIZER,,,False,"53.42607664130035, -113.47537934041716",,POINT (-113.475379340417 53.4260766413),-113.475379340417,53.4260766413
378,GAIL'S APOTHECARY AND COMPOUNDING PHARMACY,2-425 13 ST N,,LETHBRIDGE,403-329-4121,Over 4 weeks,,PFIZER,,,False,"49.70516542802187, -112.82325378601905",,POINT (-112.823253786019 49.705165428022),-112.823253786019,49.705165428022
379,ELITE PHARMACY,110-6108 BOWNESS RD NW,,CALGARY,403-457-7221,Over 4 weeks,,PFIZER,,,True,"51.08381249226897, -114.17372085900381",,POINT (-114.173720859004 51.083812492269),-114.173720859004,51.083812492269
380,PHARMACY ONE,10003 106 AVE NW,,EDMONTON,587-525-8545,Over 4 weeks,,PFIZER,,,True,"53.54991701058491, -113.49183416702677",,POINT (-113.491834167027 53.549917010585),-113.491834167027,53.549917010585
381,GRACE I.D.A. PHARMACY,14723 40 AVE NW,,EDMONTON,780-652-2144,Over 4 weeks,www.graceidapharmacy.com,PFIZER,,,True,"53.47631557668603, -113.57629118851489",,POINT (-113.576291188515 53.476315576686),-113.576291188515,53.476315576686
382,DRUG & BEAN (MISSION),120-2210 2 ST SW,,CALGARY,587-356-3786,Over 4 weeks,,PFIZER,,,True,"51.034024677101456, -114.06760937693028",,POINT (-114.06760937693 51.034024677101),-114.06760937693,51.034024677101
383,PHARMASAVE #302,58 8 ST NW,,MEDICINE HAT,403-527-5332,Over 4 weeks,https://pharmaconnect.ca/appointment/3ab2e46d-9350-4d89-a3d3-03c65a86207f,PFIZER,,,False,"50.05014498459202, -110.68765439279973",,POINT (-110.6876543928 50.050144984592),-110.6876543928,50.050144984592
384,BEHEALTHY PHARMACY,10120 149 ST NW,,EDMONTON,780-444-3381,Over 4 weeks,,PFIZER,MODERNA,,True,"53.542552154825074, -113.57856492335134",,POINT (-113.578564923351 53.542552154825),-113.578564923351,53.542552154825
385,BASSANO PHARMACY,401 2 AVE,,BASSANO,403-641-3757,Over 4 weeks,,PFIZER,,,False,"50.78740408341009, -112.4688665767323",,POINT (-112.468866576732 50.78740408341),-112.468866576732,50.78740408341
386,WAL-MART PHARMACY #1138,775 TAMARACK WAY NW,,EDMONTON,780-643-3013,Over 4 weeks,https://portal.healthmyself.net/walmartab/forms/a66,PFIZER,MODERNA,,True,"53.479287456840176, -113.36217352525028",,POINT (-113.36217352525 53.47928745684),-113.36217352525,53.47928745684
387,FRONTLINE PHARMACY,627 CAMERON HEIGHTS DR NW,,EDMONTON,780-444-4884,Over 4 weeks,https://frontlinepharmacy.medmeapp.ca/schedule/,PFIZER,,,True,"53.47034890092765, -113.63124980127535",,POINT (-113.631249801275 53.470348900928),-113.631249801275,53.470348900928
388,VISTA PARK PHARMACY,102B-450 VISTA DR SE,,MEDICINE HAT,403-487-4688,Over 4 weeks,,PFIZER,MODERNA,,True,"49.993089616197224, -110.68022491523234",,POINT (-110.680224915232 49.993089616197),-110.680224915232,49.993089616197
389,MEDICINE SHOPPE PHARMACY 115,15819 87 AVE NW,,EDMONTON,780-486-1882,Over 4 weeks,https://msmeadowlark.medmeapp.com/schedule,PFIZER,MODERNA,,True,"53.519184368123284, -113.59555239069874",,POINT (-113.595552390699 53.519184368123),-113.595552390699,53.519184368123
390,CALGARY DRUG MART #02,2-4100 MARLBOROUGH DR NE,,CALGARY,587-354-4466,Over 4 weeks,,PFIZER,MODERNA,,True,"51.05984057174906, -113.9748259113825",,POINT (-113.974825911382 51.059840571749),-113.974825911382,51.059840571749
391,CHESTERMERE REMEDY'S RX,106B-300 MERGANSER DR,,CHESTERMERE,403-719-8270,Over 4 weeks,,PFIZER,MODERNA,,False,"51.037794971112035, -113.84011925735774",,POINT (-113.840119257358 51.037794971112),-113.840119257358,51.037794971112
392,REXALL #7206,4705 50 AVE,,VALLEYVIEW,780-524-3593,Over 4 weeks,https://www.rexall.ca/covid-19/alberta-vaccine,PFIZER,MODERNA,,True,"55.06900411260979, -117.27533844609935",,POINT (-117.275338446099 55.06900411261),-117.275338446099,55.06900411261
