idx,facility_name,facility_type,longitude,latitude,street_addr,city,phone,website,provider
0,SIX08 PHARMACY,covid_vaccination_centres,-112.837636398284,49.692741976171,608 5 AVE S,LETHBRIDGE,403-694-3352,,Calgary
1,PENHOLD PHARMACY,covid_vaccination_centres,-113.868841727683,52.139603574175,3-1380 ROBINSON AVE,PENHOLD,403-886-4466,,Calgary
2,MANNING PHARMACY,covid_vaccination_centres,-113.423700179554,53.60039277954,228 MANNING CROSS NW,EDMONTON,780-758-9595,,Calgary
3,WHITEMUD PHARMACY,covid_vaccination_centres,-113.503608272575,53.478009981513,101-4075 106 ST NW,EDMONTON,780-395-0788,,Calgary
4,UNIVERSAL HEALTH PHARMACY #6,covid_vaccination_centres,-113.988956744033,51.275632907198,3-1861 MEADOWBROOK DR SE,AIRDRIE,403-980-7001,,Calgary
5,THORHILD DRUG STORE,covid_vaccination_centres,-113.124249072787,54.160244347264,722 1 ST,THORHILD,780-398-3883,,Calgary
6,STURGEON PHARMACY,covid_vaccination_centres,,,150-625 ST ALBERT TR,ST ALBERT,780-569-1722,,Calgary
7,BURNEWOOD SQUARE PHARMACY,covid_vaccination_centres,,,3416 43 AVE NW,EDMONTON,780-757-0098,,Calgary
8,APPLE DRUGS,covid_vaccination_centres,-112.704778943631,52.323887330839,4825 50 ST,STETTLER,403-742-8688,,Calgary
9,LONDON DRUGS #45,covid_vaccination_centres,-113.523632130245,53.547637370297,11704 104 AVE NW,EDMONTON,780-488-2600,https://www.londondrugs.com/covid19,Calgary
10,HEALTHY CHOICE PHARMACY 101,covid_vaccination_centres,-113.638955501271,53.639539141704,9430 MCKENNEY AVE,ST ALBERT,780-460-0579,https://www.hcpedmonton.ca,Calgary
11,CRESCENT DRUGS LTD.,covid_vaccination_centres,-111.974598916588,54.770882569618,10029 101 AVE,LAC LA BICHE,780-623-4059,,Calgary
12,PHARMASAVE BEVERLY,covid_vaccination_centres,-113.399925717115,53.57032061795,3729 118 AVE NW,EDMONTON,780-474-9344,https://pharmasave.com/edmonton-beverly/location/,Calgary
13,MEDHOUSE PHARMACY & TRAVEL CLINIC,covid_vaccination_centres,-115.672300001753,54.142137254261,2B-4439 52 AVE,WHITECOURT,780-779-9900,,Calgary
14,MEDICINE SHOPPE PHARMACY 127,covid_vaccination_centres,-112.813221173083,49.683126226389,1016A 20 ST S,LETHBRIDGE,403-380-3282,https://www.medicineshoppebyhospital.ca,Calgary
15,DRUGSTORE PHARMACY #9021,covid_vaccination_centres,-111.325091464844,54.005315733262,5701 50 AVE,ST PAUL,780-645-7035,https://www.extrafoods.ca/covid19,Calgary
16,PHARMASAVE #364,covid_vaccination_centres,-114.234068781603,50.688597383873,124 CENTRE AVE W,BLACK DIAMOND,,https://pharmasave.com/black-diamond/covid-vaccinations/,Calgary
17,SHOPPERS DRUG MART #2448,covid_vaccination_centres,-113.476514590714,53.424564756072,924 91 ST SW,EDMONTON,780-485-5550,https://www1.shoppersdrugmart.ca/en/health-and-pharmacy/covid-19?ShortURL=covid,Calgary
18,SAFEWAY PHARMACY #8928,covid_vaccination_centres,-113.390521685516,53.571622813917,146-3210 118 AVE NW,EDMONTON,780-477-0855,https://www.safeway.ca/vaccine-registration/,Calgary
19,MEDICINE SHOPPE PHARMACY 274,covid_vaccination_centres,-113.524161202349,53.453244283322,831 SADDLEBACK RD NW,EDMONTON,780-435-3345,https://www.medicineshoppe.ca/en/alberta/edmonton/the-medicine-shoppe-pharmacy-274-7041890,Calgary
20,MEDICINE SHOPPE PHARMACY 390,covid_vaccination_centres,-113.376443459449,53.455095944726,2356 23 AVE NW,EDMONTON,780-485-1378,https://www.medicineshoppe.ca/en/alberta/edmonton/the-medicine-shoppe-pharmacy-390-7028732,Calgary
21,SHOPPERS DRUG MART #350,covid_vaccination_centres,-113.955696303554,51.098037970341,5500 FALSBRIDGE DR NE,CALGARY,403-293-2560,https://www1.shoppersdrugmart.ca/en/health-and-pharmacy/covid-19?ShortURL=covid,Calgary
22,SHOPPERS DRUG MART #2311,covid_vaccination_centres,-118.818335357741,55.152181284874,10720 78 AVE,GRANDE PRAIRIE,780-814-9028,https://www1.shoppersdrugmart.ca/en/health-and-pharmacy/covid-19?ShortURL=covid,Calgary
23,ALPINE DRUG MART,covid_vaccination_centres,-114.918034857121,52.377331062776,5132 49 ST,ROCKY MOUNTAIN HOUSE,403-845-6904,https://alpinevaluedrugmart.medmeapp.com/schedule,Calgary
24,WEST HEALTH PHARMACY,covid_vaccination_centres,-113.590327663329,53.550704859209,10660 156 ST NW,EDMONTON,780-244-1390,,Calgary
25,LIFECARE PHARMACY,covid_vaccination_centres,-113.618087899443,53.433752289036,1332 WINDERMERE WAY SW,EDMONTON,780-710-7107,,Calgary
26,SAFEWAY PHARMACY #8874,covid_vaccination_centres,-113.323712186619,53.513508954399,985 FIR ST,SHERWOOD PARK,780-467-0153,https://www.safeway.ca/vaccine-registration/,Calgary
27,SAFEWAY PHARMACY #8907,covid_vaccination_centres,-111.373985053452,56.723376621491,9601 FRANKLIN AVE,FORT MCMURRAY,780-790-2388,https://www.safeway.ca/vaccine-registration/,Calgary
28,SHOPPERS DRUG MART #2325,covid_vaccination_centres,-114.455939228236,55.33570302024,300-1500 MAIN ST SW,SLAVE LAKE,780-849-4556,https://www1.shoppersdrugmart.ca/en/health-and-pharmacy/covid-19?ShortURL=covid,Calgary
29,WALDINS PHARMACY LTD.,covid_vaccination_centres,-113.469594459312,53.452702924343,9124 23 AVE NW,EDMONTON,780-756-3350,,Calgary
30,WAL-MART PHARMACY #3151,covid_vaccination_centres,-114.060665581292,50.901019934276,100-310 SHAWVILLE BLVD SE,CALGARY,403-201-5426,https://portal.healthmyself.net/walmartab/forms/a66,Calgary
31,LOBLAW PHARMACY #1541,covid_vaccination_centres,-112.789107414996,49.659238907706,3515 MAYOR MAGRATH DR S,LETHBRIDGE,403-331-2535,https://www.realcanadiansuperstore.ca/covid19,Calgary
32,MEDICINE SHOPPE PHARMACY 411,covid_vaccination_centres,-114.012208840625,51.286574660334,3-704 MAIN ST SE,AIRDRIE,403-980-1587,https://www.medicineshoppe.ca/en/alberta/airdrie/the-medicine-shoppe-pharmacy-411-7046160,Calgary
33,MACMILLAN'S PHARMACY,covid_vaccination_centres,-114.974677830623,53.228599951943,108-4930 55 AVE,DRAYTON VALLEY,780-542-5102,,Calgary
34,PACIFIC PLACE PHARMASAVE #393,covid_vaccination_centres,-113.984034880581,51.062295807405,958B-999 36 ST NE,CALGARY,403-768-0202,https://www.pacificplacepharmasave.com,Calgary
35,SHOPPERS DRUG MART #323,covid_vaccination_centres,-113.628150686585,53.644420761707,108-392 ST. ALBERT TR,ST ALBERT,780-458-5880,https://www1.shoppersdrugmart.ca/en/health-and-pharmacy/covid-19?ShortURL=covid,Calgary
36,SHOPPERS DRUG MART #2405,covid_vaccination_centres,-113.409828928627,53.597712755115,4940 137 AVE NW,EDMONTON,780-670-5097,https://www1.shoppersdrugmart.ca/en/health-and-pharmacy/covid-19?ShortURL=covid,Calgary
37,SHOPPERS DRUG MART #349,covid_vaccination_centres,-114.082480730546,50.986009735507,7606 ELBOW DRIVE SW,CALGARY,403-255-1851,https://www1.shoppersdrugmart.ca/en/health-and-pharmacy/covid-19?ShortURL=covid,Calgary
38,ZENRX PHARMACY,covid_vaccination_centres,-114.094329459806,51.056612096818,450 14 ST NW,CALGARY,403-270-7444,,Calgary
39,CROWBOROUGH PHARMACY,covid_vaccination_centres,-113.591434814768,53.429818018834,111-6055 ANDREWS WAY SW,EDMONTON,587-735-3492,https://www.crowboroughpharmacy.com,Calgary
40,LOBLAW PHARMACY #4410,covid_vaccination_centres,-113.389639959308,49.722390628055,1906 8 AVE,FORT MACLEOD,403-553-7905,https://www.yourindependentgrocer.ca/covid19,Calgary
41,SHOPPERS DRUG MART #341,covid_vaccination_centres,-113.914592815134,53.542823113697,WESTLAND MALL,SPRUCE GROVE,780-962-5202,https://www1.shoppersdrugmart.ca/en/health-and-pharmacy/covid-19?ShortURL=covid,Calgary
42,CO-OP PHARMACY STONY PLAIN,covid_vaccination_centres,-114.00669961495,53.530084965389,4917A 50 AVE,STONY PLAIN,780-963-8432,,Calgary
43,Macleod South,covid_vaccination_centres,-114.069365771431,50.919813432719,14815 Bannister Road SE,CALGARY,811,https://www.albertahealthservices.ca/topics/Page17295.aspx,Calgary
44,REXALL #7517,covid_vaccination_centres,-112.90179382959,49.673255665416,20-12 AQUITANIA BLVD W,LETHBRIDGE,587-486-9357,https://www.rexall.ca/covid-19/alberta-vaccine,Calgary
45,SRX PHARMACY #2,covid_vaccination_centres,-113.52042454397,53.522827365083,B01-8625 112 ST,EDMONTON,587-454-2413,,Calgary
46,WILLOW PARK PHARMASAVE #362,covid_vaccination_centres,-113.548897557789,53.273045475192,5905 50 ST,LEDUC,780-612-6994,https://leducpharmasave.com,Calgary
47,SAVE-ON-FOODS PHARMACY #6628,covid_vaccination_centres,-118.821734447946,55.175161657248,10819 106 AVE,GRANDE PRAIRIE,780-402-2530,https://saveonfoodspharmacy.medmeapp.com/schedule/,Calgary
48,WOODS DISPENSARY,covid_vaccination_centres,-112.797677109449,49.673373272921,2931 20 AVE S,LETHBRIDGE,403-328-0822,,Calgary
49,MORINVILLE PHARMACY,covid_vaccination_centres,-113.654470967571,53.801596933093,103-10507 100 AVE,MORINVILLE,780-572-6155,,Calgary
50,REXALL #7228,covid_vaccination_centres,-114.068216005857,51.140796689248,300-9650 HARVEST HILLS BLVD NE,CALGARY,403-567-9102,https://www.rexall.ca/covid-19/alberta-vaccine,Calgary
51,SHOPPERS DRUG MART #2396,covid_vaccination_centres,-113.431485216983,53.4603311367,6428 28 AVE NW,EDMONTON,780-463-8833,https://www1.shoppersdrugmart.ca/en/health-and-pharmacy/covid-19?ShortURL=covid,Calgary
52,REXALL #7215,covid_vaccination_centres,-113.240820078668,53.682000121159,116 TOWN CREST RD,FORT SASKATCHEWAN,780-998-3217,https://www.rexall.ca/covid-19/alberta-vaccine,Calgary
53,LUKES DRUG MART-KILLARNEY,covid_vaccination_centres,-114.135938230545,51.029796382965,3407 26 AVE SW,CALGARY,403-242-1566,https://www.lukesdrugmart.com,Calgary
54,WAL-MART PHARMACY #1094,covid_vaccination_centres,-113.599932740043,53.438863726373,6110 CURRENTS DR NW,EDMONTON,780-438-1161,https://portal.healthmyself.net/walmartab/forms/a66,Calgary
55,SAFEWAY PHARMACY #8915,covid_vaccination_centres,-110.684512000196,50.033078595228,615 DIVISION AVE SE,MEDICINE HAT,403-504-2925,https://www.safeway.ca/vaccine-registration/,Calgary
56,DOAN PHARMACY LTD,covid_vaccination_centres,-113.509822116618,53.551704229591,10920 107 AVE NW,EDMONTON,780-423-8088,,Calgary
57,DISCOVERY RIDGE COMPOUNDING PHARMACY AND TRAVEL CLINIC,covid_vaccination_centres,-114.213629830169,51.015641071732,712-10 DISCOVERY RIDGE HILL SW,CALGARY,403-475-4325,https://www.discoveryridgepharmacy.ca,Calgary
58,CONNECTCARE PHARMACY SPRUCE GROVE,covid_vaccination_centres,-113.883540499607,53.566282446392,214-20 WESTWIND DR,SPRUCE GROVE,587-461-2060,,Calgary
59,WAL-MART PHARMACY #3029,covid_vaccination_centres,-113.46745029672,53.442677602762,1203 PARSONS RD NW,EDMONTON,780-465-1595,https://portal.healthmyself.net/walmartab/forms/a66,Calgary
60,CO-OP PHARMACY TRADER RIDGE,covid_vaccination_centres,-118.799997030238,55.200462671368,13201 102 ST,GRANDE PRAIRIE,780-402-8299,,Calgary
61,HEALTH WAY PHARMACY,covid_vaccination_centres,-114.072461487842,51.001876063419,109-5809 MACLEOD TR SW,CALGARY,403-460-3825,,Calgary
62,RX DRUG MART #2021,covid_vaccination_centres,-116.495813124816,55.43343175495,5004 53 AVE,HIGH PRAIRIE,780-523-3878,,Calgary
63,SHOPPERS DRUG MART #2341,covid_vaccination_centres,-113.860229882354,54.156388348525,10015 107 ST,WESTLOCK,780-349-3388,https://www1.shoppersdrugmart.ca/en/health-and-pharmacy/covid-19?ShortURL=covid,Calgary
64,SAFEWAY PHARMACY #8989,covid_vaccination_centres,-113.963109561544,50.930452981572,100-4915 130 AVE SE,CALGARY,403-257-8520,https://www.safeway.ca/vaccine-registration/,Calgary
65,STAFFORD PHARMACY & HOME HEALTHCARE,covid_vaccination_centres,-112.831444088251,49.718390713074,5-1475 ST. EDWARD BLVD N,LETHBRIDGE,403-320-6500,https://www.book.pharmachoice.com/%28403%29320-6500,Calgary
66,MEDICINE SHOPPE PHARMACY 370,covid_vaccination_centres,-113.527751786438,53.475632110504,11407 40 AVE NW,EDMONTON,780-468-1557,https://www.medicineshoppe.ca/en/alberta/edmonton/the-medicine-shoppe-pharmacy-370-7010470,Calgary
67,SHOPPERS DRUG MART #325,covid_vaccination_centres,-114.205719907548,51.116949155658,198-8060 SILVER SPRINGS BLVD,CALGARY,403-288-1125,https://www1.shoppersdrugmart.ca/en/health-and-pharmacy/covid-19?ShortURL=covid,Calgary
68,Deerfoot North Clinic,covid_vaccination_centres,-114.043151983058,51.080715254995,911 32 Avenue NE,CALGARY,811,https://www.albertahealthservices.ca/topics/Page17295.aspx,Calgary
69,RX DRUG MART #2023,covid_vaccination_centres,-112.855993476578,53.015857891251,1-6601 48 AVE,CAMROSE,780-672-0100,https://www.remedys.ca,Calgary
70,MEDICINE SHOPPE PHARMACY 349,covid_vaccination_centres,-111.428587001652,56.752882035554,141B-355 LOUTIT RD,FORT MCMURRAY,780-790-1234,https://www.medicineshoppe.ca/en/alberta/fort-mcmurray/the-medicine-shoppe-pharmacy-349-7000617,Calgary
71,MELL PHARMACY,covid_vaccination_centres,-114.095937273032,51.082603666912,771 NORTH MOUNT DR NW,CALGARY,403-454-5244,https://mellpharmacy.medmeapp.ca/schedule,Calgary
72,LOBLAW PHARMACY #4202,covid_vaccination_centres,-115.672239843723,54.142987702579,4420 52 AVE,WHITECOURT,780-706-4091,https://www.nofrills.ca/covid19,Calgary
73,LONDONDALE GUARDIAN PHARMACY,covid_vaccination_centres,-113.458251414901,53.607757987354,7606 144 AVE NW,EDMONTON,780-475-0040,https://www.bookyourvisit.ca/londondale,Calgary
74,PHARMASAVE HIDDEN VALLEY,covid_vaccination_centres,-114.1037701307,51.155092700742,311-11 HIDDEN CREEK DR NW,CALGARY,403-275-1000,https://hiddenvalley.medmeapp.ca/schedule/,Calgary
75,KAI HEALTH (KENSINGTON) PHARMACY,covid_vaccination_centres,-113.53905949942,53.593309172888,12620A 132 AVE NW,EDMONTON,780-488-6699,,Calgary
76,REXALL #7248,covid_vaccination_centres,-113.44180565824,53.600391310113,13709 66 ST NW,EDMONTON,780-456-5706,https://www.rexall.ca/covid-19/alberta-vaccine,Calgary
77,SOUTHBANK REMEDY'S RX,covid_vaccination_centres,-113.944449801719,50.705910260577,120-158 SOUTHBANK ST,OKOTOKS,403-982-9779,https://southbankpharmacy.myappts.ca,Calgary
78,SAFEWAY PHARMACY #8883,covid_vaccination_centres,-112.872363982933,53.018085699236,200 CORNERSTONE,CAMROSE,780-672-1680,https://www.safeway.ca/vaccine-registration/,Calgary
79,WEST POINTE PHARMACY,covid_vaccination_centres,-113.963778378731,51.101015548694,124-4850 WESTWINDS DR NE,CALGARY,403-285-6555,,Calgary
80,FOURNIER DRUGS,covid_vaccination_centres,-119.11662083776,53.888389258155,1306 SHOPPERS PARK MALL,GRANDE CACHE,780-827-3230,,Calgary
81,SAFEWAY PHARMACY #8895,covid_vaccination_centres,-113.513419984219,53.518886284891,10930 82 AVE NW,EDMONTON,780-439-9767,https://www.safeway.ca/vaccine-registration/,Calgary
82,GLENGARRY PHARMACY,covid_vaccination_centres,-113.532978758944,53.60060701202,115-12222 137 AVE NW,EDMONTON,780-473-6636,https://glengarrypharmacy.myappts.ca/src/,Calgary
83,MEDICINE SHOPPE PHARMACY 377,covid_vaccination_centres,-113.44449610362,53.592134050171,6610 132 AVE NW,EDMONTON,780-705-7150,https://www.medicineshoppe.ca/en/alberta/edmonton/the-medicine-shoppe-pharmacy-377-7022763,Calgary
84,PHARMASAVE MILLIGAN DRIVE,covid_vaccination_centres,-113.96674805955,50.732716216874,2-100 MILLIGAN DR,OKOTOKS,403-982-7663,https://okotokspharmasave.medmeapp.com/schedule/,Calgary
85,ROSEWOOD PHARMACY,covid_vaccination_centres,-113.297680613605,53.527933931222,120-201 FESTIVAL WAY,SHERWOOD PARK,587-200-0159,,Calgary
86,PHARMASAVE #377,covid_vaccination_centres,-113.452092701773,53.628235248133,ROYAL CENTRE NORTH,EDMONTON,780-705-2528,,Calgary
87,PHARMASAVE #397,covid_vaccination_centres,-118.385627886225,56.066591542102,11015 102 AVE,FAIRVIEW,780-835-3485,,Calgary
88,MONTROSE PHARMACY,covid_vaccination_centres,-113.451476716981,53.571027154189,7240 118 AVE NE,EDMONTON,780-249-4833,,Calgary
89,BERWYN PHARMACY LTD,covid_vaccination_centres,-117.736206831898,56.14709753687,5115 51 ST,BERWYN,780-338-3071,,Calgary
90,LONDON DRUGS #33,covid_vaccination_centres,-114.123641530305,51.085049569587,3630 BRENTWOOD RD NW,CALGARY,403-289-4512,https://www.londondrugs.com/covid19,Calgary
91,REXALL #7282,covid_vaccination_centres,-114.085676039869,50.948796417903,14-11625 ELBOW DR SW,CALGARY,403-281-7333,https://www.rexall.ca/covid-19/alberta-vaccine,Calgary
92,VILLAGE LANE PHARMACY,covid_vaccination_centres,-113.983487115213,50.719695787059,15-1300 VILLAGE LANE,OKOTOKS,403-938-0110,,Calgary
93,MEDICINE SHOPPE PHARMACY 251,covid_vaccination_centres,-113.785123306087,52.266591185737,3805 ROSS ST,RED DEER,403-343-8088,https://www.medicineshoppe.ca/en/alberta/red-deer/the-medicine-shoppe-pharmacy-251-7040887,Calgary
94,MINT HEALTH + DRUGS: LANGDON,covid_vaccination_centres,-113.680182401109,50.974118782111,107-355 CENTRE ST,LANGDON,403-936-0448,https://www.mintdrugs.com,Calgary
95,CHAPARRAL PHARMACY,covid_vaccination_centres,-114.036155617336,50.88771768681,210-10 CHAPARRAL DR SE,CALGARY,403-475-5544,https://www.chaparralpharmacy.ca/book-your-pfizer-covid-19-immunization/,Calgary
96,NOTTINGHAM PHARMACY,covid_vaccination_centres,-113.274800778197,53.512702358121,300-664 WYE RD,SHERWOOD PARK,780-570-0995,,Calgary
97,TWIN BROOKS PHARMACY,covid_vaccination_centres,-113.517144530478,53.439233380019,11029 9 AVE NW,EDMONTON,780-784-0462,http://www.twinbrookspharmacy.com,Calgary
98,WAL-MART PHARMACY #1089,covid_vaccination_centres,-114.04513136764,50.984264354681,7979 11 ST SE,CALGARY,403-251-2671,https://portal.healthmyself.net/walmartab/forms/a66,Calgary
99,KINSOL PHARMACY,covid_vaccination_centres,-114.045299414964,51.053204850657,803 1 AVE NE,CALGARY,587-351-8923,,Calgary
100,SHOPPERS DRUG MART #326,covid_vaccination_centres,-113.809833745851,52.243003187315,A6-4900 MOLLY BANNISTER DR,RED DEER,403-343-3355,https://www1.shoppersdrugmart.ca/en/health-and-pharmacy/covid-19?ShortURL=covid,Calgary
101,PHARMASAVE #3011,covid_vaccination_centres,-113.689787735044,53.551686569679,10652 WINTERBURN RD NW,EDMONTON,825-202-8450,,Calgary
102,LOBLAW PHARMACY #1566,covid_vaccination_centres,-113.411122872572,53.598640852037,4950 137 AVE,EDMONTON,780-472-4735,https://www.realcanadiansuperstore.ca/covid19,Calgary
103,PINERIDGE PHARMACY,covid_vaccination_centres,-113.946368947731,51.081127099762,7-3250 60 ST NE,CALGARY,403-568-0095,,Calgary
104,Brentwood Village Mall,covid_vaccination_centres,-114.126276215059,51.085152769287,3630 Brentwood Road NW,CALGARY,811,https://www.albertahealthservices.ca/topics/Page17295.aspx,Calgary
105,GATEWAY PHARMACY,covid_vaccination_centres,-113.494821822752,53.477515287887,942-3803 CALGARY TR NW,EDMONTON,780-466-6337,,Calgary
106,REXALL #7513,covid_vaccination_centres,-113.731234770253,53.353256386987,101-180 MIQUELON AVE,DEVON,780-987-3793,https://www.rexall.ca/covid-19/alberta-vaccine,Calgary
107,SHOPPERS DRUG MART #385,covid_vaccination_centres,-114.094396457533,51.05269886383,1436 KENSINGTON RD NW,CALGARY,403-521-0329,https://www1.shoppersdrugmart.ca/en/health-and-pharmacy/covid-19?ShortURL=covid,Calgary
108,PHARMASAVE #308,covid_vaccination_centres,-113.582251976908,50.025439697552,114 49 AVE W,CLARESHOLM,403-625-2727,,Calgary
109,EXCELHEALTH PHARMACY,covid_vaccination_centres,-114.062178916677,51.01890955539,100-3916 MACLEOD TR SW,CALGARY,587-351-4036,https://bookyourvisit.ca/excelhealth,Calgary
110,RITA'S APOTHECARY & HOME HEALTHCARE,covid_vaccination_centres,-114.404312824431,54.120222895667,5036A 50 ST,BARRHEAD,780-674-6656,,Calgary
111,SHOPPERS DRUG MART #2402,covid_vaccination_centres,-113.980077086299,53.538673995076,400-4300 SOUTH PARK DR,STONY PLAIN,780-963-6946,https://www1.shoppersdrugmart.ca/en/health-and-pharmacy/covid-19?ShortURL=covid,Calgary
112,SHOPPERS DRUG MART #2370,covid_vaccination_centres,-113.543234253532,53.616598356705,12955 153 AVE NW,EDMONTON,780-476-3738,https://www1.shoppersdrugmart.ca/en/health-and-pharmacy/covid-19?ShortURL=covid,Calgary
113,BRINTNELL PHARMACY & TRAVEL CLINIC,covid_vaccination_centres,-113.407555814763,53.628658415754,3-4303 167 AVE NW,EDMONTON,587-525-8650,https://www.brintnellpharmacy.com,Calgary
114,VISTA HEIGHTS PHARMACY,covid_vaccination_centres,-114.012548287977,51.069493080727,110-2066 18 AVE NE,CALGARY,403-291-4525,,Calgary
115,ABEX PHARMACY,covid_vaccination_centres,-113.239079730429,53.682062035116,103-121 TOWN CREST RD,FORT SASKATCHEWAN,780-589-2239,,Calgary
116,SHOPPERS DRUG MART #344,covid_vaccination_centres,-113.494094645815,53.543869234978,EDMONTON CITY CENTRE WEST,EDMONTON,780-428-7110,https://www1.shoppersdrugmart.ca/en/health-and-pharmacy/covid-19?ShortURL=covid,Calgary
117,SHOPPERS DRUG MART #2301,covid_vaccination_centres,-113.563185201962,53.453473532897,14135 23 AVE NW,EDMONTON,780-436-5135,https://www1.shoppersdrugmart.ca/en/health-and-pharmacy/covid-19?ShortURL=covid,Calgary
118,OKOTOKS H.C. PHARMACY,covid_vaccination_centres,-113.978440730864,50.726004721434,1-74 ELIZABETH ST,OKOTOKS,403-995-1080,https://www.okotokshcpharmacy.ca,Calgary
119,TOWER DRUGS,covid_vaccination_centres,-114.06505991705,51.044461460373,137-131 9 AVE SW,CALGARY,403-261-2006,,Calgary
120,WAL-MART PHARMACY #5708,covid_vaccination_centres,-113.971400655452,50.703883372141,500-201 SOUTHRIDGE DR,OKOTOKS,403-995-1375,https://portal.healthmyself.net/walmartab/forms/a66,Calgary
121,CLEARWATER PHARMACY,covid_vaccination_centres,-113.490405239535,53.615199183593,15345 97 ST NW,EDMONTON,780-476-8383,,Calgary
122,RABBIT HILL PHARMACY,covid_vaccination_centres,-113.562534847989,53.454986027892,14030 23 AVE NW,EDMONTON,780-989-5100,,Calgary
123,SAFEWAY PHARMACY #8912,covid_vaccination_centres,-114.115708863941,51.022818459413,2425 34 AVE SW,CALGARY,403-217-1011,https://www.safeway.ca/vaccine-registration/,Calgary
124,SOBEYS PHARMACY #5020,covid_vaccination_centres,-113.97745854589,50.880294626745,3000-356 CRANSTON RD SE,CALGARY,403-257-9800,https://www.safeway.ca/vaccine-registration/,Calgary
125,TARADALE PHARMACY,covid_vaccination_centres,-113.946279130543,51.099901462466,525-6520 FALCONRIDGE DR NE,CALGARY,587-349-4250,https://www.travelcliniccalgary.ca/,Calgary
126,MEDICINE SHOPPE PHARMACY 410,covid_vaccination_centres,-113.933568001775,53.553466520011,108-1 HAWTHORNE GATE,SPRUCE GROVE,780-760-7621,https://www.medicineshoppe.ca/en/alberta/spruce-grove/medicine-shoppe-pharmacy-410-7045340,Calgary
127,SAFEWAY PHARMACY #8826,covid_vaccination_centres,-114.013701982982,50.984124538243,7740 18 ST SE,CALGARY,403-279-2220,https://www.safeway.ca/vaccine-registration/,Calgary
128,MEDICINE SHOPPE PHARMACY 314,covid_vaccination_centres,-114.110163730709,50.908839369513,3105-230 EVERSYDE BLVD SW,CALGARY,403-201-0180,https://www.medicineshoppe.ca/en/alberta/calgary/the-medicine-shoppe-pharmacy-314-7012400,Calgary
129,PHARMASAVE WHITEHORN #3018,covid_vaccination_centres,-113.958600629007,51.092013087792,BAY 17-4525 52 ST NE,CALGARY,403-888-1551,,Calgary
130,PELICAN PLACE PHARMACY,covid_vaccination_centres,-114.095972338773,52.299413128754,110-10 PELICAN PL,SYLVAN LAKE,403-864-5192,,Calgary
131,GIROUX PHARMASAVE,covid_vaccination_centres,-113.671425832647,53.639986806715,215-4 VERSAILLES AVE,ST ALBERT,780-569-3302,,Calgary
132,SAFEWAY PHARMACY #8924,covid_vaccination_centres,-113.293059390316,53.531134652851,110-2020 SHERWOOD DR,SHERWOOD PARK,780-467-3222,https://www.safeway.ca/vaccine-registration/,Calgary
133,Northgate Village Mall,covid_vaccination_centres,-113.985298057389,51.055832554703,495 36 Street NE,CALGARY,811,https://www.albertahealthservices.ca/topics/Page17295.aspx,Calgary
134,ARROWWOOD PHARMACY,covid_vaccination_centres,-113.152292777906,50.737475345324,3-6 RAILWAY AVE W,ARROWWOOD,403-534-3333,,Calgary
135,SOBEYS PHARMACY #1139,covid_vaccination_centres,-114.057939626849,51.155556580981,200-500 COUNTRY HILLS BLVD NE,CALGARY,403-567-9302,https://www.safeway.ca/vaccine-registration/,Calgary
136,D&M PHARMACY AND TRAVEL CLINIC,covid_vaccination_centres,-114.106986228685,51.07046504501,1505 19 ST NW,CALGARY,587-353-0377,https://www.travelpharmacy.ca,Calgary
137,WAINWRIGHT VALUE DRUG MART,covid_vaccination_centres,-110.859875357484,52.834979267468,306 10 ST,WAINWRIGHT,780-842-4488,,Calgary
138,LANDMARK PHARMACY,covid_vaccination_centres,-114.063570472634,51.066821417881,283-1623 CENTRE ST NW,CALGARY,587-349-3727,,Calgary
139,COVENTRY PHARMACY,covid_vaccination_centres,-114.042543352117,51.158115254585,110-790 COVENTRY DR NE,CALGARY,403-453-9194,https://www.calgarytravelclinics.com,Calgary
140,PETRA PHARMACY,covid_vaccination_centres,-112.80552872904,49.683569395904,1010 MAYOR MAGRATH DR S,LETHBRIDGE,403-942-3731,https://www.pharmachoice.com,Calgary
141,SHOPPERS DRUG MART #340,covid_vaccination_centres,-113.718384476946,52.473901488556,2-5700 HWY 2A,LACOMBE,403-782-3220,https://www1.shoppersdrugmart.ca/en/health-and-pharmacy/covid-19?ShortURL=covid,Calgary
142,SHOPPERS DRUG MART #2379,covid_vaccination_centres,-113.499946001639,53.540717619661,10405 JASPER AVE NW,EDMONTON,780-670-3690,https://www1.shoppersdrugmart.ca/en/health-and-pharmacy/covid-19?ShortURL=covid,Calgary
143,COALDALE PHARMASAVE,covid_vaccination_centres,-112.621790245754,49.728132226356,1910 20 AVE,COALDALE,403-345-3744,,Calgary
144,MEDICINE SHOPPE PHARMACY 225,covid_vaccination_centres,-113.466043559445,53.570287846857,8111 118 AVE NW,EDMONTON,780-477-1192,https://www.medicineshoppe.ca/en/alberta/edmonton/the-medicine-shoppe-pharmacy-225-7002977,Calgary
145,ROYAL OAK PHARMACY,covid_vaccination_centres,-114.23291117873,51.139591831551,228-500 ROYAL OAK DR NW,CALGARY,403-455-3565,https://royaloakpharmacy.medmeapp.ca/schedule,Calgary
146,COPPERSTONE PHARMACY,covid_vaccination_centres,-113.933672903389,50.915939710517,115-10 COPPERSTONE ST SE,CALGARY,403-724-9744,,Calgary
147,GLENBROOK PHARMACY,covid_vaccination_centres,-113.443178346577,53.586107319277,12718 66 ST NW,EDMONTON,7804789093,https://bookyourvisit.ca/glenbrook,Calgary
148,SAFEWAY PHARMACY #8908,covid_vaccination_centres,-113.451683971297,53.471631843163,38 AVE & MILLWOODS RD NW,EDMONTON,780-461-5152,https://www.safeway.ca/vaccine-registration/,Calgary
149,SAFEWAY PHARMACY #8880,covid_vaccination_centres,-113.617545898262,53.534289135471,9710 170 ST NW,EDMONTON,780-486-4248,https://www.safeway.ca/vaccine-registration/,Calgary
150,SOUTH COUNTRY CO-OP LTD. @TABER PHARMACY,covid_vaccination_centres,-112.129016854961,49.785683110809,4926 46 AVE,TABER,403-223-5984,,Calgary
151,WESTMOUNT REMEDY'S RX PHARMACY,covid_vaccination_centres,-113.977852373194,50.706749868936,1031-200 SOUTHRIDGE DR,OKOTOKS,403-917-0655,https://westmountremedys.business.site/,Calgary
152,KOEGLER'S PHARMASAVE,covid_vaccination_centres,-113.946596701507,49.495379397169,1334 VETERANS ST,PINCHER CREEK,403-627-2444,,Calgary
153,LEIBEL'S PHARMACY,covid_vaccination_centres,-114.027979170739,52.961273469497,7B VILLAGE DR RR2,WESTEROSE,780-586-0796,,Calgary
154,SHOPPERS DRUG MART #2366,covid_vaccination_centres,-113.959722291404,50.88138986766,106-19489 SETON CRES. SE,CALGARY,403-279-7726,https://www1.shoppersdrugmart.ca/en/health-and-pharmacy/covid-19?ShortURL=covid,Calgary
155,NORTH EAST PHARMACY,covid_vaccination_centres,-113.451815086297,53.60639459208,7210 144 AVE NW,EDMONTON,780-478-3322,,Calgary
156,HEWES WAY PHARMACY,covid_vaccination_centres,-113.424633732647,53.456702875388,101-2551 HEWES WAY NW,EDMONTON,780-462-8757,,Calgary
157,DRUGSTORE PHARMACY #9043,covid_vaccination_centres,-112.702388158181,51.44539758729,1252 HWY 9 S,DRUMHELLER,403-823-4795,https://www.extrafoods.ca/covid19,Calgary
158,BEAUMONT CENTRE PHARMACY,covid_vaccination_centres,-113.41570817059,53.352338079324,5003 50 AVE,BEAUMONT,780-929-9299,https://beaumontcentrepharmacy.medmeapp.ca/schedule/,Calgary
159,BLACKFALDS PROFESSIONAL PHARMACY,covid_vaccination_centres,-113.787581387584,52.381926707602,1-5049 PARKWOOD RD,BLACKFALDS,403-600-2280,https://blackfaldsprofessionalpharmacy.ca,Calgary
160,SHOPPERS DRUG MART #352,covid_vaccination_centres,-113.589123043971,53.46875528232,584 RIVERBEND SQ NW,EDMONTON,780-988-6657,https://www1.shoppersdrugmart.ca/en/health-and-pharmacy/covid-19?ShortURL=covid,Calgary
161,SAVE-ON-FOODS PHARMACY #6661,covid_vaccination_centres,-113.447128942438,53.601742640484,LONDONDERRY MALL,EDMONTON,780-473-8351,https://saveonfoodspharmacy.medmeapp.com/schedule/,Calgary
162,SHOPPERS DRUG MART #2386,covid_vaccination_centres,-114.015109357506,51.288711795083,310-505 MAIN ST,AIRDRIE,403-948-5858,https://www1.shoppersdrugmart.ca/en/health-and-pharmacy/covid-19?ShortURL=covid,Calgary
163,MILLWOODS ARP DRUGS,covid_vaccination_centres,-113.407478544109,53.454865922572,4213 23 AVE NW,EDMONTON,780-461-9823,,Calgary
164,MINT HEALTH + DRUGS: CRYSTAL RIDGE,covid_vaccination_centres,-113.399183559538,51.059222932841,2-55 WHEATLAND TR,STRATHMORE,403-901-2244,https://www.mintdrugs.com,Calgary
165,SAMS DRUG MART,covid_vaccination_centres,-114.002247355933,53.533040501468,102-4620 48 ST,STONY PLAIN,780-571-1221,https://www.samsdrugmart.com,Calgary
166,ATHABASCA VALUE DRUG MART,covid_vaccination_centres,-113.286209187753,54.72048468234,4911 50 ST,ATHABASCA,780-675-2188,,Calgary
167,MINT HEALTH + DRUGS MAIN STREET,covid_vaccination_centres,-114.007443030612,53.528441085962,5106 50 ST,STONY PLAIN,780-963-3728,https://www.mintdrugs.com,Calgary
168,WAL-MART PHARMACY #3154,covid_vaccination_centres,-113.316875494014,53.511202001514,239 WYE RD,SHERWOOD PARK,780-464-5107,https://portal.healthmyself.net/walmartab/forms/a66,Calgary
169,"PHARM, DRUGSTORE + MORE",covid_vaccination_centres,-114.094366013666,51.027315337745,103A-3009 14 ST SW,CALGARY,403-764-3080,https://www.thepharmdrugstore.com/,Calgary
170,GRANDE BANKS PHARMACY,covid_vaccination_centres,-118.805375187743,55.141112326975,105-10302 67 AVE,GRANDE PRAIRIE,780-533-5200,,Calgary
171,SHOPPERS DRUG MART #356,covid_vaccination_centres,-114.157181785933,51.085005518409,3625 SHAGANAPPI TRAIL NW,CALGARY,403-288-0111,https://www1.shoppersdrugmart.ca/en/health-and-pharmacy/covid-19?ShortURL=covid,Calgary
172,LOBLAW PHARMACY #4971,covid_vaccination_centres,-114.475518601467,51.187791420941,210 5 AVE W,COCHRANE,403-932-0415,https://www.nofrills.ca/covid19,Calgary
173,IMAGINE HEALTH PHARMACY-DOWNTOWN CALGARY,covid_vaccination_centres,-114.057374191808,51.047557680092,100-300 6 AVE SE,CALGARY,403-775-9669,,Calgary
174,WAL-MART PHARMACY #3147,covid_vaccination_centres,-118.827205190274,55.172832971395,11050 103 AVE,GRANDE PRAIRIE,780-513-3745,https://portal.healthmyself.net/walmartab/forms/a66,Calgary
175,SHOPPERS DRUG MART #328,covid_vaccination_centres,-113.511797525801,53.453284010252,10955 23 AVE NW,EDMONTON,780-436-3055,https://www1.shoppersdrugmart.ca/en/health-and-pharmacy/covid-19?ShortURL=covid,Calgary
176,CALGARY CO-OP PHARMACY #8,covid_vaccination_centres,-114.12098155285,50.96274095625,2580 SOUTHLAND DR SW,CALGARY,403-299-5400,https://www.calgarycoop.com/covid19vaccination,Calgary
177,DIDSBURY VALUE DRUG MART,covid_vaccination_centres,-114.137798045499,51.658797868981,1710 20 ST,DIDSBURY,403-335-3307,,Calgary
178,PLAZA IDA DISPENSARY,covid_vaccination_centres,-113.805530848018,52.270117115068,6A-5030 47 AVE,RED DEER,403-340-3784,,Calgary
179,EXALAN PHARMACY,covid_vaccination_centres,-114.062989678629,51.071314814783,7-2111 CENTRE ST NW,CALGARY,403-276-7076,,Calgary
180,SYNERGY PHARMACY,covid_vaccination_centres,-113.303477143969,53.545146379301,153-501 BETHEL DR,SHERWOOD PARK,780-449-2017,,Calgary
181,MEDICINE CIRCLE PHARMACY,covid_vaccination_centres,-113.536198745951,53.560433110379,11148 124 ST,EDMONTON,780-509-0230,,Calgary
182,NUAID ONE6 PHARMACY,covid_vaccination_centres,-114.096658815203,51.067203047919,1506 16 AVE NW,CALGARY,403-696-9966,,Calgary
183,CALGARY CO-OP PHARMACY #20,covid_vaccination_centres,-114.255210060086,51.147733915813,1000-11595 ROCKYVALLEY DR NW,CALGARY,403-299-5454,https://www.calgarycoop.com/covid19vaccination,Calgary
184,WAL-MART PHARMACY #1050,covid_vaccination_centres,-114.006991001703,51.262604801336,2881 MAIN ST SW,AIRDRIE,403-945-1648,https://portal.healthmyself.net/walmartab/forms/a66,Calgary
185,D&M PHARMACY AND TRAVEL CLINIC 1,covid_vaccination_centres,-114.023617122752,50.882885787495,2105-1800 194 AVE SE,CALGARY,403-457-7110,https://www.travelpharmacy.ca,Calgary
186,MARKET DRUGS MEDICAL LTD,covid_vaccination_centres,-113.486053072941,53.544324318814,10203 97 ST NW,EDMONTON,780-422-1397,https://www.marketdrugsmedical.store/,Calgary
187,FORT STATION PHARMACY,covid_vaccination_centres,-113.204767957089,53.711581826743,629-10490 98 AVE,FORT SASKATCHEWAN,780-589-1314,,Calgary
188,LONDON DRUGS #34,covid_vaccination_centres,-118.822115272533,55.174489293844,10820 104B AVE,GRANDE PRAIRIE,780-538-3715,https://www.londondrugs.com/covid19,Calgary
189,SHOPPERS DRUG MART #314,covid_vaccination_centres,-113.988719272874,51.038861396605,5-3012 17 AVE SE,CALGARY,403-248-4757,https://www1.shoppersdrugmart.ca/en/health-and-pharmacy/covid-19?ShortURL=covid,Calgary
190,UNIVERSAL HEALTH PHARMACY #1,covid_vaccination_centres,-113.9513800152,51.168550098803,150-630 REDSTONE DR NE,CALGARY,587-440-0041,https://www.universalhealthcentre.com,Calgary
191,SCRIPTS MEDICAL PHARMACY,covid_vaccination_centres,-113.493543886619,53.506217200819,201-6925 GATEWAY BLVD,EDMONTON,780-306-5660,https://www.calendly.com/scriptsmedicalonline/15min?month=2021-02,Calgary
192,SHOPPERS DRUG MART #373,covid_vaccination_centres,-114.055338732388,51.154720271988,725-500 COUNTRY HILLS BLVD NE,CALGARY,403-226-5712,https://www1.shoppersdrugmart.ca/en/health-and-pharmacy/covid-19?ShortURL=covid,Calgary
193,TERRALOSA PHARMACY,covid_vaccination_centres,-113.619544188145,53.536174022422,17314 99 AVE,EDMONTON,587-462-1500,,Calgary
194,SHOPPERS DRUG MART #310,covid_vaccination_centres,-113.548989272812,53.276136119095,7-6108 50 ST,LEDUC,780-986-2422,https://www1.shoppersdrugmart.ca/en/health-and-pharmacy/covid-19?ShortURL=covid,Calgary
195,PHARMASAVE GRIMSHAW 3006,covid_vaccination_centres,-117.606242272839,56.19055951382,5304 50 ST,GRIMSHAW,780-332-2125,,Calgary
196,WESTLOCK PRESCRIPTION CENTRE,covid_vaccination_centres,-113.858303627082,54.157339345783,102-10124 107 ST,WESTLOCK,780-349-2882,https://www.remedys.ca/en/alberta/westlock/westlock-prescription-centre-7008724,Calgary
197,BRENTWOOD PHARMASAVE,covid_vaccination_centres,-113.294653099422,53.514629007899,101-50 BRENTWOOD BLVD,SHERWOOD PARK,780-570-0633,https://brentwoodpharmasave.medmeapp.ca/schedule,Calgary
198,LONDON DRUGS #38,covid_vaccination_centres,-112.829155788009,49.700319521804,65-1240 2A AVE N,LETHBRIDGE,403-320-5151,https://www.londondrugs.com/covid19,Calgary
199,ZINOHA PHARMACY & TRAVEL HEALTH SERVICES,covid_vaccination_centres,-114.119108403872,50.97144610802,OAK BAY PLAZA,CALGARY,403-238-2250,http://www.zinohapharmacy.com,Calgary
200,SHOPPERS DRUG MART #2383,covid_vaccination_centres,-114.118993580546,50.996677191501,6449 CROWCHILD TR SW,CALGARY,403-242-4755,https://www1.shoppersdrugmart.ca/en/health-and-pharmacy/covid-19?ShortURL=covid,Calgary
201,SHOPPERS DRUG MART #2387,covid_vaccination_centres,-114.109287630545,51.024017444147,2067 33 AVE SW,CALGARY,403-685-6807,https://www1.shoppersdrugmart.ca/en/health-and-pharmacy/covid-19?ShortURL=covid,Calgary
202,MEDICINE SHOPPE PHARMACY 260,covid_vaccination_centres,-114.203942730701,51.129793073713,11-600 CROWFOOT CRES NW,CALGARY,403-455-9939,https://www.medicineshoppe.ca/en/alberta/calgary/the-medicine-shoppe-pharmacy-260-7001085,Calgary
203,SHOPPERS DRUG MART #2331,covid_vaccination_centres,-113.726719119156,53.351704465388,100-106 ERIE ST S,DEVON,780-987-3412,https://www1.shoppersdrugmart.ca/en/health-and-pharmacy/covid-19?ShortURL=covid,Calgary
204,MEDIMAX PHARMACY,covid_vaccination_centres,-114.068852221472,51.050730796762,240-520 3 AVE SW,CALGARY,403-454-4412,,Calgary
205,LOBLAW PHARMACY #1574,covid_vaccination_centres,-114.074604330308,50.962137299634,PHARMACY DEPARTMENT,CALGARY,403-225-6207,https://www.realcanadiansuperstore.ca/covid19,Calgary
206,SAFEWAY PHARMACY #8841,covid_vaccination_centres,-114.061155017365,50.952863154394,11011 BONAVENTURE DR SE,CALGARY,403-278-8585,https://www.safeway.ca/vaccine-registration/,Calgary
207,REXALL #7507,covid_vaccination_centres,-119.431009793971,55.211621601719,1032 1 AVE,BEAVERLODGE,780-354-2088,https://www.rexall.ca/covid-19/alberta-vaccine,Calgary
208,PRIMECARE PHARMACY,covid_vaccination_centres,-113.524640359088,53.251169863172,103-3610 ROLLYVIEW RD,LEDUC,780-769-1090,,Calgary
209,MACLEOD GUARDIAN PHARMACY,covid_vaccination_centres,-114.058117544198,51.04290306309,1010 MACLEOD TR SE,CALGARY,403-276-8829,,Calgary
210,CHAMPLAIN PHARMACY,covid_vaccination_centres,-113.645797543777,53.801193388551,111-9918 100 ST,MORINVILLE,780-939-2438,,Calgary
211,AVENIDA PHARMACY,covid_vaccination_centres,-114.069319559007,50.942175666398,309-12445 LAKE FRASER DR SE,CALGARY,403-720-6337,http://www.pharmachoice.ca,Calgary
212,BEAUMONT MEDX DRUGS,covid_vaccination_centres,-113.430671501279,53.339368080589,108-6202 29 AVE,BEAUMONT,780-737-5323,https://www.medxdrugs.ca,Calgary
213,SAVE-ON-FOODS PHARMACY #6620 - 50TH ST MARKET,covid_vaccination_centres,-113.408667574971,53.627437806235,4805 167 AVE NW,EDMONTON,587-459-7683,https://saveonfoodspharmacy.medmeapp.com/schedule/,Calgary
214,NOLAN DRUGS,covid_vaccination_centres,-113.475995086298,53.570419832076,8731 118 AVE NW,EDMONTON,780-477-2748,https://bookyourvisit.ca/nolandrugs,Calgary
215,ASPIRE REMEDY'S RX PHARMACY,covid_vaccination_centres,-113.810602401304,52.245500837121,120-2810 BREMNER AVE,RED DEER,403-986-0444,,Calgary
216,SPRUCE GROVE PHARMACY,covid_vaccination_centres,-113.928785608889,53.539796110395,113-187 HWY 16A,SPRUCE GROVE,780-960-5490,https://sgpharm.com,Calgary
217,AIRDRIE DRUG MART,covid_vaccination_centres,-114.012111601682,51.292983963272,101-124 1 AVE NE,AIRDRIE,403-948-0475,,Calgary
218,SAVE-ON-FOODS PHARMACY #6650,covid_vaccination_centres,-112.896272234586,49.694861420631,401 HIGHLANDS BLVD W,LETHBRIDGE,403-381-2759,https://saveonfoodspharmacy.medmeapp.com/schedule/,Calgary
219,LOBLAW PHARMACY #4972,covid_vaccination_centres,-112.706418559111,52.32097713727,5106 47 AVE,STETTLER,403-742-9180,https://www.nofrills.ca/covid19,Calgary
220,MEDICINE SHOPPE PHARMACY 200,covid_vaccination_centres,-113.624432001772,53.634481583338,102-25 ST MICHAEL ST,ST ALBERT,780-459-8545,https://www.medicineshoppe.ca/en/alberta/st-albert/the-medicine-shoppe-pharmacy-200-7009780,Calgary
221,WAL-MART PHARMACY #1136,covid_vaccination_centres,-113.910792349897,51.038762941939,255 EAST HILLS BLVD SE,CALGARY,403-387-0853,https://portal.healthmyself.net/walmartab/forms/a66,Calgary
222,CO-OP PHARMACY DOWNTOWN,covid_vaccination_centres,-118.791100969315,55.170996125711,9831 100 AVE,GRANDE PRAIRIE,780-532-2652,,Calgary
223,SHOPPERS DRUG MART #2304,covid_vaccination_centres,-110.687215744924,50.063727949493,2440 DIVISION AVE NW,MEDICINE HAT,403-528-0539,https://www1.shoppersdrugmart.ca/en/health-and-pharmacy/covid-19?ShortURL=covid,Calgary
224,SNOW'S PHARMACY INC.,covid_vaccination_centres,-112.661906930587,49.462709227377,53A BROADWAY N,RAYMOND,403-752-3023,https://www.bookmyshot.com/covidshot/403-752-3023,Calgary
225,WEST EDMONTON MALL PHARMASAVE #331,covid_vaccination_centres,-113.618405073646,53.521558918429,2031-8882 170 ST NW,EDMONTON,780-665-4755,https://pharmasavewestedmontonmall.medmeapp.ca/schedule,Calgary
226,WALKER LAKE REMEDY'S RX,covid_vaccination_centres,-113.418941645819,53.414155636452,5007 22 AVE SW,EDMONTON,780-752-2800,,Calgary
227,DRUGSTORE PHARMACY #4381,covid_vaccination_centres,-114.135001895758,51.793956530821,100-6509 46 ST,OLDS,403-507-8015,https://www.nofrills.ca/covid19,Calgary
228,SHOPPERS DRUG MART #2469,covid_vaccination_centres,-113.513859516983,53.452576480445,2037 111 ST NW,EDMONTON,780-430-8400,https://www1.shoppersdrugmart.ca/en/health-and-pharmacy/covid-19?ShortURL=covid,Calgary
229,MEDICINE SHOPPE PHARMACY 178,covid_vaccination_centres,-114.158858815362,51.068051480177,105-4411 16 AVE NW,CALGARY,403-247-9502,https://www.medicineshoppe.ca/en/alberta/calgary/the-medicine-shoppe-pharmacy-178-7015229,Calgary
230,TOTAL WELLNESS PHARMACY,covid_vaccination_centres,-113.852264543769,52.287329425588,120-6845 66 ST,RED DEER,403-967-1777,,Calgary
231,LOBLAW PHARMACY #1573,covid_vaccination_centres,-113.621116572574,53.54009057035,17303 STONY PLAIN RD NW,EDMONTON,780-486-8454,https://www.realcanadiansuperstore.ca/covid19,Calgary
232,SHOPPERS DRUG MART #2369,covid_vaccination_centres,-114.108625034551,51.175080969662,5004-2060 SYMONS VALLEY,CALGARY,587-755-7783,https://www1.shoppersdrugmart.ca/en/health-and-pharmacy/covid-19?ShortURL=covid,Calgary
233,SHOPPERS DRUG MART #2439,covid_vaccination_centres,-113.517423343972,53.426516622092,11120 ELLERSLIE RD SW,EDMONTON,780-438-1131,https://www1.shoppersdrugmart.ca/en/health-and-pharmacy/covid-19?ShortURL=covid,Calgary
234,SWITZER'S DRUGS,covid_vaccination_centres,-116.431385059309,53.582414559018,224 50 ST,EDSON,780-723-4666,,Calgary
235,ANDERSON DRUG BY FRESON BROS HANNA,covid_vaccination_centres,-111.938487,51.642551644471,602 2 AVE W,HANNA,403-854-4357,,Calgary
236,MEDICINE SHOPPE PHARMACY 403,covid_vaccination_centres,-114.772291374721,55.279731030882,102-102 6 AVE SW,SLAVE LAKE,780-849-2896,https://www.medicineshoppe.ca/en/alberta/slave-lake/medicine-shoppe-403-7038142,Calgary
237,SHOPPERS DRUG MART #312,covid_vaccination_centres,-113.512417642123,53.517969135666,10907 82 AVE NW,EDMONTON,780-433-2424,https://www1.shoppersdrugmart.ca/en/health-and-pharmacy/covid-19?ShortURL=covid,Calgary
238,SAFEWAY PHARMACY #8824,covid_vaccination_centres,-114.084413881132,51.056233929106,410 10 ST NW,CALGARY,403-283-8185,https://www.safeway.ca/vaccine-registration/,Calgary
239,SHOPPERS DRUG MART #317,covid_vaccination_centres,-113.505175794539,53.562406866374,192 KINGSWAY GARDEN MALL NW,EDMONTON,780-474-8237,https://www1.shoppersdrugmart.ca/en/health-and-pharmacy/covid-19?ShortURL=covid,Calgary
240,PHARMASAVE BASHAW #319,covid_vaccination_centres,-112.971176459482,52.58398735928,5010 50 ST,BASHAW,780-372-3503,,Calgary
241,SHOPPERS DRUG MART #2307,covid_vaccination_centres,-113.366763931348,53.475532001734,3735 17 ST NW,EDMONTON,780-463-1867,https://www1.shoppersdrugmart.ca/en/health-and-pharmacy/covid-19?ShortURL=covid,Calgary
242,ANDREW PHARMACY AND HOME HEALTHCARE,covid_vaccination_centres,-112.335320987774,53.879101397627,5022 51 St,ANDREW,780-365-3832,,Calgary
243,QUICK CARE PHARMACY,covid_vaccination_centres,-113.605355059629,53.622802998471,238-2 HEBERT RD,ST ALBERT,780-544-9393,,Calgary
244,DRUGSTORE PHARMACY #9024,covid_vaccination_centres,-113.296602777803,49.202007310311,120 2 ST E,CARDSTON,403-653-3352,https://www.extrafoods.ca/covid19,Calgary
245,SHOPPERS DRUG MART #2356,covid_vaccination_centres,-114.071708457847,50.878829444024,830-19369 SHERIFF KING ST SW,CALGARY,403-873-9135,https://www1.shoppersdrugmart.ca/en/health-and-pharmacy/covid-19?ShortURL=covid,Calgary
246,SHOPPERS DRUG MART #305,covid_vaccination_centres,-114.070561057532,51.102409503915,5628 4 ST NW,CALGARY,403-275-1222,https://www1.shoppersdrugmart.ca/en/health-and-pharmacy/covid-19?ShortURL=covid,Calgary
247,PETER'S PHARMACY,covid_vaccination_centres,-113.267965963374,51.704098302606,419 MAIN ST,THREE HILLS,403-443-2433,,Calgary
248,HARRVEST HILL PHARMACY,covid_vaccination_centres,-114.065567332869,51.14266538046,111-160 96 AVE NE,CALGARY,403-475-5900,,Calgary
249,CALGARY CO-OP PHARMACY #5,covid_vaccination_centres,-113.988160566415,51.03886471279,3330 17 AVE SE,CALGARY,403-299-4467,https://www.calgarycoop.com/covid19vaccination,Calgary
250,CASTLEDOWNS ARP PHARMACY,covid_vaccination_centres,-113.515689401454,53.613295456345,122-15277 CASTLEDOWNS RD NW,EDMONTON,780-457-0854,http://castledownspharmacy.com/,Calgary
251,PHARMASAVE #345,covid_vaccination_centres,-111.898218801722,50.575632235125,BAY C -316 8 AVE W,BROOKS,403-362-2265,,Calgary
252,SAFEWAY PHARMACY #8899,covid_vaccination_centres,-113.389088219716,52.958674239156,3901 56 ST,WETASKIWIN,780-352-2848,https://www.safeway.ca/vaccine-registration/,Calgary
253,SHOPPERS DRUG MART #360,covid_vaccination_centres,-118.781723336069,55.156941875883,5-9701 84 AVE,GRANDE PRAIRIE,780-532-3318,https://www1.shoppersdrugmart.ca/en/health-and-pharmacy/covid-19?ShortURL=covid,Calgary
254,LOBLAW PHARMACY #4201,covid_vaccination_centres,-113.719538714929,52.472827692823,5700 HWY 2A,LACOMBE,403-782-7354,https://www.nofrills.ca/covid19,Calgary
255,DRUGSTORE PHARMACY #9052,covid_vaccination_centres,-114.914307916646,52.384589851748,5520 46 ST,ROCKY MOUNTAIN HOUSE,403-846-4715,https://www.extrafoods.ca/covid19,Calgary
256,MEDIWELL PHARMACY,covid_vaccination_centres,-113.978877215359,51.147837421373,106-3840 104 AVE NE,CALGARY,825-222-8900,,Calgary
257,SOBEYS PHARMACY #1104,covid_vaccination_centres,-112.810217086404,49.728113555907,327 BLUEFOX BLVD N,LETHBRIDGE,403-320-5618,https://www.safeway.ca/vaccine-registration/,Calgary
258,WHOLE HEALTH PHARMACY EDMONTON,covid_vaccination_centres,-113.422855771433,53.598594056987,13578B FORT RD NW,EDMONTON,587-524-9928,,Calgary
259,TRINITY PHARMACY,covid_vaccination_centres,-113.494181357463,53.548701592005,10530 101 ST NW,EDMONTON,780-752-2220,,Calgary
260,RX DRUG MART #2014,covid_vaccination_centres,-114.404786689491,54.119857201617,5028 50 ST,BARRHEAD,780-674-2121,,Calgary
261,TAWA PHARMASAVE,covid_vaccination_centres,-113.432990857466,53.461670693315,3013 66 ST NW,EDMONTON,780-758-7283,https://www.tawapharmasave.ca,Calgary
262,GREENBROOK PHARMACY,covid_vaccination_centres,-111.880856459016,50.566239424038,344 8 ST E,BROOKS,403-362-4283,,Calgary
263,MEDICINE SHOPPE PHARMACY 372,covid_vaccination_centres,-111.362658801546,56.721474334265,203-8706 FRANKLIN AVE,FORT MCMURRAY,587-536-6648,https://www.medicineshoppe.ca/en/alberta/fort-mcmurray/the-medicine-shoppe-pharmacy-372-7022420,Calgary
264,MEDICINE SHOPPE PHARMACY 387,covid_vaccination_centres,-113.484649917114,53.600250330075,13703 93 ST NW,EDMONTON,780-760-3387,https://www.medicineshoppe.ca/en/alberta/edmonton/the-medicine-shoppe-pharmacy-387-7027091,Calgary
265,East Calgary Health Centre Family Care Clinic,covid_vaccination_centres,-113.967234630403,51.045099467288,4715 8 Ave SE,CALGARY,811,https://www.albertahealthservices.ca/topics/Page17295.aspx,Calgary
266,IDA COMMUNITY PHARMACY,covid_vaccination_centres,-113.351857972572,53.632911014883,36 EVERGREEN PK NW,EDMONTON,587-523-0900,https://www.bookmyshot.com/5875230900,Calgary
267,MEDICINE SHOPPE PHARMACY 320,covid_vaccination_centres,-113.598999299929,53.541253581153,102-16028 100A AVE NW,EDMONTON,780-487-6336,https://www.medicineshoppe.ca/en/alberta/edmonton/the-medicine-shoppe-pharmacy-320-7008159,Calgary
268,SOBEYS PHARMACY #5190,covid_vaccination_centres,-113.425190815137,53.42441104276,5309 ELLERSLIE RD SW,EDMONTON,780-450-1116,https://www.safeway.ca/vaccine-registration/,Calgary
269,BALKWILL PHARMACY LTD.,covid_vaccination_centres,-113.227211657134,51.827504918066,223 MAIN ST,TROCHU,403-442-3823,,Calgary
270,MEDICINE SHOPPE PHARMACY 344,covid_vaccination_centres,-113.489738086434,53.57039804655,9559 118 AVE NW,EDMONTON,780-477-3779,https://www.medicineshoppe.ca/en/alberta/edmonton/the-medicine-shoppe-pharmacy-344-7011508,Calgary
271,IDEAL CARE PHARMACY,covid_vaccination_centres,-113.466736357092,53.576375904215,12147 82 ST NW,EDMONTON,780-756-1236,,Calgary
272,SHOPPERS DRUG MART #331,covid_vaccination_centres,-112.864801101422,53.018786047289,180 CORNERSTONE MALL,CAMROSE,780-672-4961,https://www1.shoppersdrugmart.ca/en/health-and-pharmacy/covid-19?ShortURL=covid,Calgary
273,DRUGSTORE PHARMACY #6717,covid_vaccination_centres,-110.725752604407,54.281299065975,5106 46 ST,BONNYVILLE,780-812-3947,https://www.wholesaleclub.ca/covid19,Calgary
274,UNIVERSAL HEALTH PHARMACY #12 DIDSBURY,covid_vaccination_centres,-114.139280915187,51.660439884335,106-2034 19 AVE,DIDSBURY,403-335-8473,https://www.universalhealthcentre.com,Calgary
275,REXALL #7223,covid_vaccination_centres,-113.579896771195,52.671876443635,3-4502 50 ST,PONOKA,403-783-5568,https://www.rexall.ca/covid-19/alberta-vaccine,Calgary
276,MEDICINE SHOPPE PHARMACY 188,covid_vaccination_centres,-113.525975773372,53.558384498343,100-11910 111 AVE,EDMONTON,780-455-1302,https://www.medicineshoppe.ca/en/alberta/edmonton/the-medicine-shoppe-pharmacy-188-7034562,Calgary
277,REXALL #7514,covid_vaccination_centres,-113.500763576785,53.557195646761,10507 KINGSWAY AVE NW,EDMONTON,780-634-0461,https://www.rexall.ca/covid-19/alberta-vaccine,Calgary
278,LOBLAW PHARMACY #1577,covid_vaccination_centres,-114.167885101471,51.021338001519,5858 SIGNAL HILL CTR SW,CALGARY,403-686-8035,https://www.realcanadiansuperstore.ca/covid19,Calgary
279,SAFEWAY PHARMACY #8859,covid_vaccination_centres,-113.605987373122,53.622632062396,300-2 HEBERT RD,ST ALBERT,780-460-9339,https://www.safeway.ca/vaccine-registration/,Calgary
280,SHOPPERS DRUG MART #2409,covid_vaccination_centres,-112.705449544004,52.322626671294,4718 50 ST,STETTLER,403-742-3367,https://www1.shoppersdrugmart.ca/en/health-and-pharmacy/covid-19?ShortURL=covid,Calgary
281,SAFEWAY PHARMACY #8867,covid_vaccination_centres,-113.517931409356,53.547540348325,11410 104 AVE NW,EDMONTON,780-424-0666,https://www.safeway.ca/vaccine-registration/,Calgary
282,SHOPPERS DRUG MART #2391,covid_vaccination_centres,-114.211752386366,51.14996696065,8756 COUNTRY HILLS BLVD NW,CALGARY,403-208-4742,https://www1.shoppersdrugmart.ca/en/health-and-pharmacy/covid-19?ShortURL=covid,Calgary
283,STOKES PHARMACY,covid_vaccination_centres,-112.840349830581,49.694448981461,408 4 AVE S,LETHBRIDGE,403-380-3535,https://stokes.medmeapp.com/schedule,Calgary
284,SHOPPERS DRUG MART #2315,covid_vaccination_centres,-113.526386728946,53.547713220835,102-11962 104 AVE NW,EDMONTON,780-670-6922,https://www1.shoppersdrugmart.ca/en/health-and-pharmacy/covid-19?ShortURL=covid,Calgary
285,WABAMUN PHARMACY LTD,covid_vaccination_centres,-114.471947915133,53.558021932759,5120 51 AVE,WABAMUN,780-892-2418,http://bookyourvisit.ca/wabamunpharmacy,Calgary
286,COSTCO PHARMACY #1157,covid_vaccination_centres,-113.637106316795,53.66952362928,1075 ST. ALBERT TR,ST ALBERT,780-544-2010,https://www.costcopharmacy.ca/appointment,Calgary
287,MINT HEALTH + DRUGS: BEAVERLODGE,covid_vaccination_centres,-119.428636888788,55.209938613739,112 10 ST,BEAVERLODGE,780-354-2148,https://www.mintdrugs.com,Calgary
288,VISTA PHARMACY & TRAVEL CLINIC,covid_vaccination_centres,-113.980997815203,51.060325327843,130A-920 36 ST NE,CALGARY,403-460-3226,https://www.vistapharmacy.ca,Calgary
289,SHOPPERS DRUG MART #2355,covid_vaccination_centres,-114.203581373184,51.124597518115,28 CROWFOOT TERR NW,CALGARY,403-241-8818,https://www1.shoppersdrugmart.ca/en/health-and-pharmacy/covid-19?ShortURL=covid,Calgary
290,SHOPPERS DRUG MART #355,covid_vaccination_centres,-114.101623544038,51.066323019841,1790-1632 14 AVE NW,CALGARY,403-289-6761,https://www1.shoppersdrugmart.ca/en/health-and-pharmacy/covid-19?ShortURL=covid,Calgary
291,SOUTH TRAIL PHARMACY,covid_vaccination_centres,-113.973071715207,50.930592543138,78-4307 130 AVE SE,CALGARY,403-475-8612,,Calgary
292,SAFEWAY PHARMACY #8921,covid_vaccination_centres,-113.509044796415,53.454859528311,2304 109 ST NW,EDMONTON,780-430-4269,https://www.safeway.ca/vaccine-registration/,Calgary
293,SHOPPERS DRUG MART #2300,covid_vaccination_centres,-113.628872713051,53.656560367264,100-665 ST. ALBERT RD,ST ALBERT,780-418-7891,https://www1.shoppersdrugmart.ca/en/health-and-pharmacy/covid-19?ShortURL=covid,Calgary
294,BENTLEY IDA,covid_vaccination_centres,-114.051217814791,52.465503390734,5018 50 AVE,BENTLEY,403-748-3820,,Calgary
295,MEDICINE SHOPPE PHARMACY 315,covid_vaccination_centres,-113.442575544104,53.570224362248,6525 118 AVE NW,EDMONTON,780-479-2077,https://www.medicineshoppe.ca/en/alberta/edmonton/the-medicine-shoppe-pharmacy-315-7008312,Calgary
296,PHARMASAVE #346,covid_vaccination_centres,-117.28229883297,55.051271820899,1D-3808 HIGHWAY ST,VALLEYVIEW,780-524-2183,,Calgary
297,LOBLAW PHARMACY #1544,covid_vaccination_centres,-118.790751001368,55.191090814693,12225 99 ST,GRANDE PRAIRIE,780-831-3835,https://www.realcanadiansuperstore.ca/covid19,Calgary
298,REXALL #7238,covid_vaccination_centres,-113.41318958104,53.607601661775,14403 MILLER BLVD NW,EDMONTON,780-475-1364,https://www.rexall.ca/covid-19/alberta-vaccine,Calgary
299,HEALTH AID PHARMACY,covid_vaccination_centres,-113.546775357091,53.629420312247,12918 167 AVE NW,EDMONTON,780-244-0803,,Calgary
300,LIFE MED PHARMACY #2,covid_vaccination_centres,-113.252436212712,50.558328417107,218 CENTER ST,VULCAN,403-485-2552,,Calgary
301,SHOPPERS DRUG MART #313,covid_vaccination_centres,-113.593380855333,53.520817361035,254 MEADOWLARK HEALTH CTR,EDMONTON,780-484-7718,https://www1.shoppersdrugmart.ca/en/health-and-pharmacy/covid-19?ShortURL=covid,Calgary
302,PREFERREDRX PHARMACY,covid_vaccination_centres,-114.103074763372,51.794792913321,1-4601 50 AVE,OLDS,403-556-4155,,Calgary
303,CRANSTON SMART DRUG MART,covid_vaccination_centres,-113.968423430173,50.868685154015,121-35 CRANFORD WAY SE,CALGARY,587-623-1120,https://www.cranstonpharmacy.com/,Calgary
304,SAFEWAY PHARMACY #8885,covid_vaccination_centres,-113.978855508057,53.540034488831,4202 SOUTH PARK DR,STONY PLAIN,780-963-2264,https://www.safeway.ca/vaccine-registration/,Calgary
305,MEDICINE SHOPPE PHARMACY 194,covid_vaccination_centres,-114.071898515204,51.032319928796,2303 4 ST SW,CALGARY,403-229-3458,https://www.medicineshoppe.ca/en/alberta/calgary/the-medicine-shoppe-pharmacy-194-7002313,Calgary
306,SHOPPERS DRUG MART #2377,covid_vaccination_centres,-113.571336872807,53.435382141777,5970 MULLEN WAY NW,EDMONTON,780-435-1782,https://www1.shoppersdrugmart.ca/en/health-and-pharmacy/covid-19?ShortURL=covid,Calgary
307,HIGH RIVER PHARMACY,covid_vaccination_centres,-113.872585243671,50.580076597271,103 3 AVE SW,HIGH RIVER,403-652-5608,,Calgary
308,WELLNESS DISPENSARY,covid_vaccination_centres,-113.6071682029,53.540580414721,26-10081 166 ST,EDMONTON,780-930-1344,,Calgary
309,FAMILY CARE PHARMACY,covid_vaccination_centres,-114.070377848381,51.142655397504,218-40 COUNTRY HILLS LANDNG NW,CALGARY,587-352-2600,,Calgary
310,ROYAL CARE DOUGLASDALE PHARMACY,covid_vaccination_centres,-114.001993305721,50.943565580442,6-20 DOUGLAS WOODS DR SE,CALGARY,587-349-3443,,Calgary
311,SHOPPERS DRUG MART #2374,covid_vaccination_centres,-113.489793116978,53.620604797262,15969 97 ST NW,EDMONTON,780-473-2813,https://www1.shoppersdrugmart.ca/en/health-and-pharmacy/covid-19?ShortURL=covid,Calgary
312,UNIVERSAL PHARMACY,covid_vaccination_centres,-113.956259288215,51.053089927705,113-5271 MEMORIAL DR SE,CALGARY,403-235-0081,,Calgary
313,SAVE-ON-FOODS PHARMACY #6623,covid_vaccination_centres,-113.948297949905,50.707267517822,400-100 SOUTHBANK BLVD,OKOTOKS,587-757-8972,https://saveonfoodspharmacy.medmeapp.com/schedule/,Calgary
314,PATIENT CARE PHARMACY,covid_vaccination_centres,-113.457397886618,53.514193828326,7707 85 ST NW,EDMONTON,780-705-8100,http://www.patientcarepharmacyedmonton.com,Calgary
315,SHOPPERS DRUG MART #2446,covid_vaccination_centres,-113.417055186296,53.628464515561,5351 167 AVE NW,EDMONTON,780-478-7261,https://www1.shoppersdrugmart.ca/en/health-and-pharmacy/covid-19?ShortURL=covid,Calgary
316,WAL-MART PHARMACY #3150,covid_vaccination_centres,-110.643157546774,49.993622633278,2051 STRACHAN RD SE,MEDICINE HAT,403-526-1444,https://portal.healthmyself.net/walmartab/forms/a66,Calgary
317,6&6 PHARMACY,covid_vaccination_centres,-112.838512372302,49.691893888654,526 6 ST S,LETHBRIDGE,403-942-0044,,Calgary
318,SAVE-ON-FOODS PHARMACY #6607,covid_vaccination_centres,-111.355401108724,56.718010604955,6406 FRANKLIN AVE,FORT MCMURRAY,780-791-4147,https://www.saveonfoods.com,Calgary
319,VIKING PHARMACY,covid_vaccination_centres,-111.778498828641,53.096763722236,5305 51 ST,VIKING,780-336-3380,,Calgary
320,WAL-MART PHARMACY #3038,covid_vaccination_centres,-117.625204819155,53.383714957822,PARKS WEST MALL,HINTON,780-865-1575,https://portal.healthmyself.net/walmartab/forms/a66,Calgary
321,PHARMASAVE WESTMOUNT,covid_vaccination_centres,-113.535750747987,53.554001694589,10844 124 ST NW,EDMONTON,780-249-9901,https://www.pharmasave.com/edmonton-westmount,Calgary
322,MEDICINE SHOPPE PHARMACY 126,covid_vaccination_centres,-114.070351644766,51.099479247408,12-5440 4 ST NW,CALGARY,403-274-3400,https://www.medicineshoppe.ca/en/alberta/calgary/the-medicine-shoppe-pharmacy-126-7011287,Calgary
323,WAL-MART PHARMACY #1028,covid_vaccination_centres,-112.688272730533,51.450079003235,1801 SOUTH RAILWAY AVE,DRUMHELLER,403-820-7741,https://portal.healthmyself.net/walmartab/forms/a66,Calgary
324,MEDICINE SHOPPE PHARMACY 393,covid_vaccination_centres,-113.567136459446,53.551807768232,10714 142 ST NW,EDMONTON,587-520-2061,https://www.medicineshoppe.ca/en/alberta/edmonton/the-medicine-shoppe-pharmacy-393-7051291,Calgary
325,REXALL #7284,covid_vaccination_centres,-114.014558265905,51.058578661945,116-817 19 ST NE,CALGARY,403-277-2227,https://www.rexall.ca/covid-19/alberta-vaccine,Calgary
326,MADIGAN PHARMACY,covid_vaccination_centres,-113.942733701868,51.052997769984,68-6060 MEMORIAL DR NE,CALGARY,403-457-9250,https://madiganpharmacy.myappts.ca/src/,Calgary
327,BOYLE MCCAULEY PHARMACY & HOME HEALTH CARE,covid_vaccination_centres,-113.484050658945,53.555242548971,10817 95 ST NW,EDMONTON,780-705-6333,,Calgary
328,PHARMASAVE #312 LEGAL,covid_vaccination_centres,-113.591093249826,53.949391258619,4718 50 AVE,LEGAL,780-961-2285,,Calgary
329,CURE CARE PHARMACY,covid_vaccination_centres,-113.478443958943,53.641648790715,11-9104 179 AVE NW,EDMONTON,587-459-4999,https://forms.gle/Pof2d7Jv6J2R5ihU7,Calgary
330,REXALL #7516,covid_vaccination_centres,-110.861694650433,52.833469766191,118 10 ST,WAINWRIGHT,780-842-3414,https://www.rexall.ca/covid-19/alberta-vaccine,Calgary
331,WAL-MART PHARMACY #1145,covid_vaccination_centres,-113.494016859633,53.475531972663,SOUTHPARK VILLAGE,EDMONTON,780-433-2575,https://portal.healthmyself.net/walmartab/forms/a66,Calgary
332,SAFEWAY PHARMACY #8830,covid_vaccination_centres,-114.014075132641,51.288835429289,TOWER LANE MALL,AIRDRIE,403-948-3361,https://www.safeway.ca/vaccine-registration/,Calgary
333,SHOPPERS DRUG MART #2413,covid_vaccination_centres,-114.109649186372,50.908122845509,100-2250 162 AVE SW,CALGARY,403-201-8202,https://www1.shoppersdrugmart.ca/en/health-and-pharmacy/covid-19?ShortURL=covid,Calgary
334,VILLAGE PHARMACY,covid_vaccination_centres,-113.436568628628,53.537869757758,9805 71 ST NW,EDMONTON,780-440-4555,,Calgary
335,LOBLAW PHARMACY #1550,covid_vaccination_centres,-110.652351714988,50.004219390544,PHARMACY DEPARTMENT #1550,MEDICINE HAT,403-528-5735,https://www.realcanadiansuperstore.ca/covid19,Calgary
336,SAGE MEADOWS PHARMACY,covid_vaccination_centres,-114.13147587688,51.175381358895,240-2971 136 AVE NW,CALGARY,587-997-0093,,Calgary
337,FOREST HILLS PHARMASAVE #323,covid_vaccination_centres,-113.957989701333,51.037606007783,3-5315 17 AVE SE,CALGARY,587-354-7766,,Calgary
338,REXALL #7285,covid_vaccination_centres,-113.960550188755,50.914685860347,70 HIGH ST SE,CALGARY,403-257-3636,https://www.rexall.ca/covid-19/alberta-vaccine,Calgary
339,PARSONS PHARMACY,covid_vaccination_centres,-113.807208554116,52.267626263762,1C-4755 49 ST,RED DEER,403-986-0700,,Calgary
340,DOWNTOWN DRUGMART,covid_vaccination_centres,-114.06392619948,51.045618229705,115 8 AVE SW,CALGARY,403-266-2059,https://www.downtowndrugmart.myappts.ca/ssc,Calgary
341,DELTON SUPER DRUGS LTD.,covid_vaccination_centres,-113.467729257092,53.587695774065,12904 82 ST NW,EDMONTON,780-476-8737,,Calgary
342,LOBLAW PHARMACY #1565,covid_vaccination_centres,-113.933468428396,53.544182057914,10-110 JENNIFER HEIL WAY,SPRUCE GROVE,780-960-7435,https://www.realcanadiansuperstore.ca/covid19,Calgary
343,STUBBS PHARMACY,covid_vaccination_centres,-112.820456544076,49.686494769183,1506 9 AVE S,LETHBRIDGE,403-328-5512,,Calgary
344,PONOKA PROFESSIONAL PHARMACY,covid_vaccination_centres,-113.578526968897,52.674389503479,20-5011 48 AVE,PONOKA,403-783-7333,https://www.calendly.com/ponoka,Calgary
345,TWO PHARMACY,covid_vaccination_centres,-114.47443117287,51.185761249079,105-100 GRANDE BLVD W,COCHRANE,,https://www.twopharmacy.ca,Calgary
346,WAL-MART PHARMACY #3009,covid_vaccination_centres,-114.139620292226,51.041099035352,WESTBROOK PLAZA,CALGARY,403-249-8904,https://portal.healthmyself.net/walmartab/forms/a66,Calgary
347,NORTHEY REMEDY'S RX PHARMACY,covid_vaccination_centres,-113.82650523051,52.302009454176,190 NORTHEY AVE,RED DEER,403-346-2367,https://northeyremedysrx.medmeapp.ca/schedule,Calgary
348,SAFEWAY PHARMACY #8917,covid_vaccination_centres,-113.979188457851,50.717055839065,610 BIG ROCK LANE,OKOTOKS,403-938-9351,https://www.safeway.ca/vaccine-registration/,Calgary
349,MEDICARE PLUS PHARMACY,covid_vaccination_centres,-113.942411464941,51.071693071955,7-6208 RUNDLEHORN DR NE,CALGARY,403-453-6386,,Calgary
350,SHOPPERS DRUG MART #2358,covid_vaccination_centres,-113.415604136347,53.363733243348,6302 50 ST,BEAUMONT,780-929-4231,https://www1.shoppersdrugmart.ca/en/health-and-pharmacy/covid-19?ShortURL=covid,Calgary
351,SAFEWAY PHARMACY #8820,covid_vaccination_centres,-114.072177932706,51.030444181173,524 ELBOW DR SW,CALGARY,403-228-4240,https://www.safeway.ca/vaccine-registration/,Calgary
352,SHOPPERS DRUG MART 2432,covid_vaccination_centres,-114.060964775541,50.97964983904,383 HERITAGE DR SE,CALGARY,403-255-4998,https://www.shoppersdrugmart.ca/covid19,Calgary
353,SAFEWAY PHARMACY #8909,covid_vaccination_centres,-113.944702102019,51.123753987442,850 SADDLETOWNE CIR NE,CALGARY,403-293-1670,https://www.safeway.ca/vaccine-registration/,Calgary
354,SHOPPERS DRUG MART #371,covid_vaccination_centres,-113.392394433816,53.474930461125,3945 34 ST NW,EDMONTON,780-461-6768,https://www1.shoppersdrugmart.ca/en/health-and-pharmacy/covid-19?ShortURL=covid,Calgary
355,MINT HEALTH + DRUGS: TRI WELLNESS,covid_vaccination_centres,-113.936755557231,53.549860205025,104-7 TRI LEISURE WAY,SPRUCE GROVE,587-853-0453,,Calgary
356,SALVUS RXELLENCE PROFESSIONAL DISPENSARY,covid_vaccination_centres,-113.63014957682,53.652367350306,44-143 LIBERTON DR,ST ALBERT,780-418-3113,,Calgary
357,SHOPPERS DRUG MART #2427,covid_vaccination_centres,-113.31844400164,53.513157513125,5-1020 SHERWOOD DR,SHERWOOD PARK,780-449-2565,https://www1.shoppersdrugmart.ca/en/health-and-pharmacy/covid-19?ShortURL=covid,Calgary
358,SAVE-ON-FOODS PHARMACY #6622,covid_vaccination_centres,-113.475318286621,53.422944260436,1120 91 ST SW,EDMONTON,780-462-7741,https://saveonfoodspharmacy.medmeapp.com/schedule/,Calgary
359,MEDICINE SHOPPE PHARMACY 171,covid_vaccination_centres,-113.982586915932,51.077488052841,100-2675 36 ST NE,CALGARY,403-291-0076,https://www.medicineshoppe.ca/en/alberta/calgary/the-medicine-shoppe-pharmacy-171-7015167,Calgary
360,SHOPPERS DRUG MART #2431 COOPERS CROSSING,covid_vaccination_centres,-114.023099959984,51.258392466866,801-401 COOPERS BLVD SW,AIRDRIE,403-912-0246,https://www1.shoppersdrugmart.ca/en/health-and-pharmacy/covid-19?ShortURL=covid,Calgary
361,SHOPPERS DRUG MART #6027,covid_vaccination_centres,-113.376164824379,53.649411123969,18750 18 ST NW,EDMONTON,587-497-2783,https://www1.shoppersdrugmart.ca/en/health-and-pharmacy/covid-19?ShortURL=covid,Calgary
362,SAFEWAY PHARMACY #8849,covid_vaccination_centres,-114.073495728455,51.127322313137,8120 BEDDINGTON BLVD NW,CALGARY,403-295-8895,https://www.safeway.ca/vaccine-registration/,Calgary
363,BEVERLY PHARMACY,covid_vaccination_centres,-113.407892672437,53.570267588486,4243 118 AVE NW,EDMONTON,780-756-7711,,Calgary
364,BEARSPAW FAMILY PHARMACY,covid_vaccination_centres,-113.50026762826,53.448456601846,1929 105 ST NW,EDMONTON,780-485-8195,https://bearspawpharmacy.medmeapp.ca/schedule,Calgary
365,REXALL #7203,covid_vaccination_centres,-115.687241171171,54.138214267373,4702 51 ST,WHITECOURT,780-778-3676,https://www.rexall.ca/covid-19/alberta-vaccine,Calgary
366,ABBEYDALE PHARMACY & TRAVEL CLINIC,covid_vaccination_centres,-113.934326086346,51.059239516412,814 68 ST NE,CALGARY,587-470-8000,https://www.travelcliniccalgary.ca,Calgary
367,WAL-MART PHARMACY #1122,covid_vaccination_centres,-113.542750055931,53.631921065479,16940 127 ST NW,EDMONTON,780-457-6795,https://portal.healthmyself.net/walmartab/forms/a66,Calgary
368,LOBLAW PHARMACY #1548,covid_vaccination_centres,-111.376212843657,56.723337562436,PHARMACY DEPARTMENT,FORT MCMURRAY,780-790-3835,https://www.realcanadiansuperstore.ca/covid19,Calgary
369,SAFEWAY PHARMACY #8914,covid_vaccination_centres,-114.475572830853,51.185351577582,304 5 AVE W,COCHRANE,403-851-1279,https://www.safeway.ca/vaccine-registration/,Calgary
370,ALI'S DRUG MART,covid_vaccination_centres,-113.883285185929,53.565438646333,214-11 WESTWIND DR,SPRUCE GROVE,587-461-7308,https://www.alidrugmart.com,Calgary
371,UNIVERSAL HEALTH PHARMACY #8 CASTLERIDGE,covid_vaccination_centres,-113.949942272872,51.107538912752,4-12 CASTLERIDGE DR NE,CALGARY,403-262-6391,https://www.universalhealthcentre.com,Calgary
372,MEDICINE SHOPPE PHARMACY 242,covid_vaccination_centres,-114.058702815368,50.90263168346,111-31 SUNPARK PLAZA SE,CALGARY,403-873-0087,https://www.medicineshoppe.ca/en/alberta/calgary/the-medicine-shoppe-pharmacy-242-7024603,Calgary
373,REXALL #7241,covid_vaccination_centres,-114.002955856513,53.530270566267,4801 50 AVE,STONY PLAIN,780-963-5005,https://www.rexall.ca/covid-19/alberta-vaccine,Calgary
374,FAMILY CARE MEDICAL PHARMACY,covid_vaccination_centres,-113.521838730109,53.551343460716,101-11611 107 AVE NW,EDMONTON,780-250-3991,,Calgary
375,STAMPEDE PHARMACY,covid_vaccination_centres,-114.139992995081,51.10148999334,19-3616 52 AVE NW,CALGARY,403-460-4646,,Calgary
376,WAL-MART PHARMACY #1070,covid_vaccination_centres,-113.943740463977,49.499537129879,1100 TABLE MOUNTAIN,PINCHER CREEK,403-627-1730,https://portal.healthmyself.net/walmartab/forms/a66,Calgary
377,MEDICINE SHOPPE PHARMACY 412,covid_vaccination_centres,-113.475379340417,53.4260766413,9216 ELLERSLIE RD SW,EDMONTON,780-250-9454,https://msp412.medmeapp.com/schedule/,Calgary
378,GAIL'S APOTHECARY AND COMPOUNDING PHARMACY,covid_vaccination_centres,-112.823253786019,49.705165428022,2-425 13 ST N,LETHBRIDGE,403-329-4121,,Calgary
379,ELITE PHARMACY,covid_vaccination_centres,-114.173720859004,51.083812492269,110-6108 BOWNESS RD NW,CALGARY,403-457-7221,,Calgary
380,PHARMACY ONE,covid_vaccination_centres,-113.491834167027,53.549917010585,10003 106 AVE NW,EDMONTON,587-525-8545,,Calgary
381,GRACE I.D.A. PHARMACY,covid_vaccination_centres,-113.576291188515,53.476315576686,14723 40 AVE NW,EDMONTON,780-652-2144,www.graceidapharmacy.com,Calgary
382,DRUG & BEAN (MISSION),covid_vaccination_centres,-114.06760937693,51.034024677101,120-2210 2 ST SW,CALGARY,587-356-3786,,Calgary
383,PHARMASAVE #302,covid_vaccination_centres,-110.6876543928,50.050144984592,58 8 ST NW,MEDICINE HAT,403-527-5332,https://pharmaconnect.ca/appointment/3ab2e46d-9350-4d89-a3d3-03c65a86207f,Calgary
384,BEHEALTHY PHARMACY,covid_vaccination_centres,-113.578564923351,53.542552154825,10120 149 ST NW,EDMONTON,780-444-3381,,Calgary
385,BASSANO PHARMACY,covid_vaccination_centres,-112.468866576732,50.78740408341,401 2 AVE,BASSANO,403-641-3757,,Calgary
386,WAL-MART PHARMACY #1138,covid_vaccination_centres,-113.36217352525,53.47928745684,775 TAMARACK WAY NW,EDMONTON,780-643-3013,https://portal.healthmyself.net/walmartab/forms/a66,Calgary
387,FRONTLINE PHARMACY,covid_vaccination_centres,-113.631249801275,53.470348900928,627 CAMERON HEIGHTS DR NW,EDMONTON,780-444-4884,https://frontlinepharmacy.medmeapp.ca/schedule/,Calgary
388,VISTA PARK PHARMACY,covid_vaccination_centres,-110.680224915232,49.993089616197,102B-450 VISTA DR SE,MEDICINE HAT,403-487-4688,,Calgary
389,MEDICINE SHOPPE PHARMACY 115,covid_vaccination_centres,-113.595552390699,53.519184368123,15819 87 AVE NW,EDMONTON,780-486-1882,https://msmeadowlark.medmeapp.com/schedule,Calgary
390,CALGARY DRUG MART #02,covid_vaccination_centres,-113.974825911382,51.059840571749,2-4100 MARLBOROUGH DR NE,CALGARY,587-354-4466,,Calgary
391,CHESTERMERE REMEDY'S RX,covid_vaccination_centres,-113.840119257358,51.037794971112,106B-300 MERGANSER DR,CHESTERMERE,403-719-8270,,Calgary
392,REXALL #7206,covid_vaccination_centres,-117.275338446099,55.06900411261,4705 50 AVE,VALLEYVIEW,780-524-3593,https://www.rexall.ca/covid-19/alberta-vaccine,Calgary
393,REXALL #7218,covid_vaccination_centres,-114.771263177237,55.283353271966,233 MAIN ST NE,SLAVE LAKE,780-849-4005,https://www.rexall.ca/covid-19/alberta-vaccine,Calgary
394,SOUTHPORT PHARMACY,covid_vaccination_centres,-114.072901486371,50.963144296266,106-10333 SOUTHPORT RD SW,CALGARY,403-253-7753,,Calgary
395,STRATHMORE VALUE DRUG MART,covid_vaccination_centres,-113.395813628698,51.043561344888,132 2 AVE,STRATHMORE,403-934-3122,,Calgary
396,LOBLAW PHARMACY #1590,covid_vaccination_centres,-114.05425236339,51.04773744797,240-540 3 ST SE,CALGARY,825-513-9506,https://www.realcanadiansuperstore.ca/covid19,Calgary
397,HAWKSTONE HOME HEALTH CARE PHARMACY,covid_vaccination_centres,-113.642326301275,53.486446810497,100-18332 LESSARD RD,EDMONTON,780-433-3413,https://www.hawkstonepharmacy.com,Calgary
398,CHINATOWN IPHARMACY,covid_vaccination_centres,-113.489639830292,53.553225049999,9662 107A AVE NW,EDMONTON,780-756-4000,,Calgary
399,HUDSON PHARMACY,covid_vaccination_centres,-113.54228201024,53.603458503677,14072 127 ST NW,EDMONTON,780-466-2624,,Calgary
400,SHOPPERS SIMPLY PHARMACY #3084,covid_vaccination_centres,-113.443838167973,53.592309203677,6603 132 AVE NW,EDMONTON,780-475-3331,https://www1.shoppersdrugmart.ca/en/health-and-pharmacy/covid-19?ShortURL=covid,Calgary
401,NORWOOD PHARMACY,covid_vaccination_centres,-113.486273015133,53.559668499601,11051 95 ST,EDMONTON,780-669-9227,,Calgary
402,LOBLAW PHARMACY #1570,covid_vaccination_centres,-113.493423901411,53.486152389291,4821 CALGARY TR NW,EDMONTON,780-438-0196,https://www.realcanadiansuperstore.ca/covid19,Calgary
403,PHARMASAVE 337,covid_vaccination_centres,-114.646065407179,51.79580366807,557 MAIN AVE W,SUNDRE,403-638-4944,https://pharmaconnect.ca/appointment/7aef6ccb-2775-4f86-aa53-d2a5f49ceccc,Calgary
404,CALLINGWOOD PHARMACY,covid_vaccination_centres,-113.619290550184,53.505258351656,6911 172 ST NW,EDMONTON,780-481-5886,,Calgary
405,BRIDLEWOOD PHARMACY,covid_vaccination_centres,-114.117701303188,50.901377935274,95-2525 BRIDLECREST WAY SW,CALGARY,403-258-1356,,Calgary
406,UNIVERSAL HEALTH PHARMACY #9 NORTHLAND,covid_vaccination_centres,-114.135267630543,51.101133197054,108B-3604 52 AVE NW,CALGARY,587-353-5253,https://www.universalhealthcentre.com,Calgary
407,WAL-MART PHARMACY #3027,covid_vaccination_centres,-113.643590357782,53.538855474256,18521 STONY PLAIN RD NW,EDMONTON,780-484-4468,https://portal.healthmyself.net/walmartab/forms/a66,Calgary
408,REXALL #7273,covid_vaccination_centres,-110.68503354135,50.032077917777,105-73 7 ST SE,MEDICINE HAT,403-527-8842,https://www.rexall.ca/covid-19/alberta-vaccine,Calgary
409,MEDICINE SHOPPE PHARMACY 345,covid_vaccination_centres,-113.542027815268,53.603117121584,14020 127 ST NW,EDMONTON,780-472-9929,https://www.medicineshoppe.ca/en/alberta/edmonton/the-medicine-shoppe-pharmacy-345-7002753,Calgary
410,NOBLEFORD PHARMACY AND COMPOUNDING,covid_vaccination_centres,-113.054108257565,49.882423449782,221 KING ST,NOBLEFORD,403-824-4335,https://noblefordpharmacyandcompounding.myappts.ca/src/,Calgary
411,J L PHARMACARE PHARMACY,covid_vaccination_centres,-113.413869550719,53.570384023886,4627 118 AVE NW,EDMONTON,780-479-0047,,Calgary
412,PHARMACY PLUS,covid_vaccination_centres,-113.934102076882,51.098704892274,5066 68 ST NE,CALGARY,403-568-0005,,Calgary
413,EVANSDALE PHARMACY,covid_vaccination_centres,-113.4684246436,53.607388582265,8216 144 AVE NW,EDMONTON,780-478-7713,,Calgary
414,REXALL #7256,covid_vaccination_centres,-117.588624843693,53.398716939792,177 PEMBINA AVE,HINTON,780-865-2880,https://www.rexall.ca/covid-19/alberta-vaccine,Calgary
415,MARKET MALL PHARMACY & COMPOUNDING,covid_vaccination_centres,-114.157780059537,51.087926291657,100-4935 40 AVE NW,CALGARY,403-286-3120,https://www.marketmallpharmacy.com,Calgary
416,DIDSBURY FAMILY PHARMACY,covid_vaccination_centres,-114.136028724925,51.6610992165,1912 20 ST,DIDSBURY,403-335-0022,,Calgary
417,PHARMASAVE ON NORTHMOUNT,covid_vaccination_centres,-114.127905046748,51.093404668656,4501 BRISEBOIS DR NW,CALGARY,403-282-1208,https://www.pharmasavenorthmount.simplybook.me,Calgary
418,PHARMACY ON WHYTE,covid_vaccination_centres,-113.489536050387,53.518612075193,10050 82 AVE NW,EDMONTON,780-758-7600,,Calgary
419,THE COMMONS PHARMACY,covid_vaccination_centres,-111.428833263555,56.755143997011,1-245 EAGLE RIDGE BLVD,FORT MCMURRAY,780-750-2700,,Calgary
420,DAYSLAND PHARMACY,covid_vaccination_centres,-112.26011165711,52.864677750992,5023 50 ST,DAYSLAND,780-374-3900,,Calgary
421,CARDSTON REMEDY'S RX PHARMACY,covid_vaccination_centres,-113.302146188099,49.198457224689,321 MAIN ST,CARDSTON,403-659-1100,,Calgary
422,MEDICINE SHOPPE PHARMACY 212,covid_vaccination_centres,-113.991580088374,51.037460434984,2905 17 AVE SE,CALGARY,403-235-0888,https://www.medicineshoppe.ca/en/alberta/calgary/the-medicine-shoppe-pharmacy-212-7001094,Calgary
423,PLAZA 67 IDA PHARMACY,covid_vaccination_centres,-113.830450975004,52.289701192466,120-6075 67A ST,RED DEER,587-457-7117,,Calgary
424,MINT HEALTH + DRUGS: BLUE BOTTLE,covid_vaccination_centres,-114.060099715362,51.068177247758,148 17 AVE NE,CALGARY,403-276-3364,,Calgary
425,DRUGSTORE PHARMACY #4389,covid_vaccination_centres,-113.981368665755,50.731669607103,9 SANDSTONE GATE,OKOTOKS,403-938-8080,https://www.nofrills.ca/covid19,Calgary
426,SHOPPERS DRUG MART #333,covid_vaccination_centres,-113.294464004706,53.533052341489,500-2020 SHERWOOD DR,SHERWOOD PARK,780-464-9788,https://www1.shoppersdrugmart.ca/en/health-and-pharmacy/covid-19?ShortURL=covid,Calgary
427,EASTGATE DRUGS,covid_vaccination_centres,-113.400362930108,53.599670648623,3804-137 Ave NW,EDMONTON,780-800-8340,,Calgary
428,COMMUNITY DRUG MART #2029,covid_vaccination_centres,-110.203972101428,54.432076377129,206-6503 51 ST,COLD LAKE,780-594-5444,,Calgary
429,PHARMASAVE JO'S BELTLINE PHARMACY,covid_vaccination_centres,-114.090079801869,51.04319727309,1219 11 AVE SW,CALGARY,587-392-5857,,Calgary
430,REXALL #7212,covid_vaccination_centres,-113.551034809738,53.26756527989,2-5201 50 ST,LEDUC,780-986-8313,https://www.rexall.ca/covid-19/alberta-vaccine,Calgary
431,LOBLAW PHARMACY #1569,covid_vaccination_centres,-113.374246814904,53.480786973156,4410 17 ST NW,EDMONTON,780-450-2041,https://www.realcanadiansuperstore.ca/covid19,Calgary
432,ELIXIR PHARMACY,covid_vaccination_centres,-114.164179828315,51.103538810269,102-8 VARSITY ESTATES CIR NW,CALGARY,587-355-7008,https://www.elixirpharmacy.ca,Calgary
433,FUTURE DRUG MART #2,covid_vaccination_centres,-113.977012822753,51.038618570173,102-4015 17 AVE SE,CALGARY,403-453-0169,,Calgary
434,CO-OP PHARMACY HAWKSTONE LESSARD,covid_vaccination_centres,-113.643739572623,53.486117453842,18370 LESSARD RD NW,EDMONTON,780-428-3907,https://northcentralco-op.crs,Calgary
435,CENTRAL ALBERTA CO-OP LTD. TIMBERLANDS PHARMACY,covid_vaccination_centres,-113.765770943825,52.284096073151,3101-499 TIMBERLANDS DR,RED DEER,587-802-8559,,Calgary
436,WAL-MART PHARMACY #3658,covid_vaccination_centres,-111.900913073197,50.577494469594,917 3 ST W,BROOKS,403-501-5552,https://portal.healthmyself.net/walmartab/forms/a66,Calgary
437,CONNECTCARE MEDICAL CLINIC & PHARMACY MILLWOODS,covid_vaccination_centres,-113.370787572623,53.467945525101,1756 34 AVE NW,EDMONTON,780-665-4881,https://www.connectcarepharmacy.com,Calgary
438,SHOPPERS DRUG MART #2415,covid_vaccination_centres,-113.814550015171,52.233994819544,1-6320 50 AVE,RED DEER,403-348-8164,https://www1.shoppersdrugmart.ca/en/health-and-pharmacy/covid-19?ShortURL=covid,Calgary
439,SHOPPERS DRUG MART #2438,covid_vaccination_centres,-114.098349072839,52.309814568056,BAYS 8-13 5043 50A ST,SYLVAN LAKE,403-887-4200,https://www1.shoppersdrugmart.ca/en/health-and-pharmacy/covid-19?ShortURL=covid,Calgary
440,SHOPPERS DRUG MART #329,covid_vaccination_centres,-114.029862145888,50.929835283458,50-1221 CANYON MEADOWS DR SE,CALGARY,403-278-7422,https://www1.shoppersdrugmart.ca/en/health-and-pharmacy/covid-19?ShortURL=covid,Calgary
441,SAFEWAY PHARMACY #8871,covid_vaccination_centres,-118.792601154043,55.183364870601,9925 114 AVE,GRANDE PRAIRIE,780-532-7100,https://www.safeway.ca/vaccine-registration/,Calgary
442,REXALL #7244,covid_vaccination_centres,-113.325258241821,53.535604615437,80 CHIPPEWA RD,SHERWOOD PARK,780-464-3454,https://www.rexall.ca/covid-19/alberta-vaccine,Calgary
443,WESTWINDS PHARMACY,covid_vaccination_centres,-113.964725729006,51.100987723141,1150-4818 WESTWINDS DR NE,CALGARY,403-293-9360,,Calgary
444,SAVE-ON-FOODS PHARMACY #6613,covid_vaccination_centres,-113.508060684769,53.542848087608,10180 109 ST NW,EDMONTON,780-423-3528,https://saveonfoodspharmacy.medmeapp.com/schedule/,Calgary
445,LEDUC CO-OP PHARMACY,covid_vaccination_centres,-113.550488601416,53.269701389518,5421 50 ST,LEDUC,780-980-3214,,Calgary
446,SHOPPERS DRUG MART #366,covid_vaccination_centres,-113.400300770957,53.5707727733,3812 118 AVE NW,EDMONTON,780-474-2424,https://www1.shoppersdrugmart.ca/en/health-and-pharmacy/covid-19?ShortURL=covid,Calgary
447,DAVE HILL PHARMACY,covid_vaccination_centres,-111.426139543803,56.734089624328,1-200 THICKWOOD BLVD,FORT MCMURRAY,780-750-1111,,Calgary
448,SUNDRE FAMILY PHARMACY,covid_vaccination_centres,-114.641149257513,51.797669793788,12-200 MAIN AVE W,SUNDRE,403-638-4510,https://sundrefamilypharmacy.medmeapp.ca/schedule,Calgary
449,MEDICINE SHOPPE PHARMACY 404,covid_vaccination_centres,-114.003245372941,53.536423941216,103-4807 44 AVE,STONY PLAIN,780-968-9646,http://www.stonyplaintravelhealth.com,Calgary
450,CAREBRIDGE REMEDY'S RX PHARMACY,covid_vaccination_centres,-112.835603730413,49.694213782029,402 8 ST S,LETHBRIDGE,587-425-6350,,Calgary
451,PHARMACY CARE 2,covid_vaccination_centres,-113.994411808118,51.080530103268,109-3151 27 ST NE,CALGARY,403-764-6996,,Calgary
452,MACKENZIE DRUGS,covid_vaccination_centres,-110.672043015399,50.040931115688,301 NORTH RAILWAY ST SE,MEDICINE HAT,403-526-2667,,Calgary
453,SAVE-ON-FOODS PHARMACY #6667,covid_vaccination_centres,-113.54328543819,53.615782544869,12903 153 AVE NW,EDMONTON,780-476-7047,https://saveonfoodspharmacy.medmeapp.com/schedule/,Calgary
454,PEACE RIVER VALUE DRUG MART,covid_vaccination_centres,-117.288976036825,56.232788820259,10027 100 ST,PEACE RIVER,780-624-2612,,Calgary
455,REXALL #7230,covid_vaccination_centres,-113.513706336357,53.455044380411,2375 111 ST NW,EDMONTON,780-433-4555,https://www.rexall.ca/covid-19/alberta-vaccine,Calgary
456,SHOPPERS DRUG MART #376,covid_vaccination_centres,-114.066682917054,50.904935419528,300-85 SHAWVILLE BLVD SE,CALGARY,403-201-5545,https://www1.shoppersdrugmart.ca/en/health-and-pharmacy/covid-19?ShortURL=covid,Calgary
457,CORE PHARMACY & TRAVEL CLINIC,covid_vaccination_centres,-114.210306228521,51.066847375508,201-722 85 ST SW,CALGARY,403-454-2333,https://www.corepharmacy.ca,Calgary
458,WELLNESS PHARMACY,covid_vaccination_centres,-114.153204405718,51.092737000757,107-4625 VARSITY DR NW,CALGARY,403-457-0120,https://www.wellnessadvice.ca,Calgary
459,BOYLE RX DRUG MART,covid_vaccination_centres,-112.80881145892,54.589616529015,5118 3 ST,BOYLE,780-689-3762,,Calgary
460,PHARMACY CARE,covid_vaccination_centres,-113.958407838253,51.035234561454,3-5147 20 AVE SE,CALGARY,587-955-8727,https://www.bookmyshot.com/5879558727,Calgary
461,SAFEWAY PHARMACY #8888,covid_vaccination_centres,-118.793655833336,55.154642077111,8060 100 ST,GRANDE PRAIRIE,780-833-8625,https://www.safeway.ca/vaccine-registration/,Calgary
462,PARKHILL PHARMACY + COMPOUNDING CENTRE,covid_vaccination_centres,-114.064478221613,51.016630276306,124 42 AVE SW,CALGARY,403-475-5585,https://www.parkhillcompounding.ca,Calgary
463,ACCESS PHARMACY,covid_vaccination_centres,-113.590210457422,53.427382286398,6255 ANDREWS LOOP SW,EDMONTON,780-391-1315,https://www.accesspharmacy.ca,Calgary
464,SAFEWAY PHARMACY #8858,covid_vaccination_centres,-113.587771898264,53.468432777716,576 RIVERBEND SQ NW,EDMONTON,780-435-3906,https://www.safeway.ca/vaccine-registration/,Calgary
465,ICARE PHARMACY,covid_vaccination_centres,-113.491469257092,53.587337364013,12851 97 ST NW,EDMONTON,780-705-2523,https://icarepharmacy.ca,Calgary
466,CARSTAIRS FAMILY PHARMASAVE #387,covid_vaccination_centres,-114.099275259305,51.565666469768,120B 10 AVE S,CARSTAIRS,403-337-3044,,Calgary
467,WAL-MART PHARMACY #1048,covid_vaccination_centres,-116.449300303485,53.577677260934,5750 2 AVE,EDSON,780-723-6347,https://portal.healthmyself.net/walmartab/forms/a66,Calgary
468,WEST CREEK PHARMASAVE,covid_vaccination_centres,-113.841613485764,51.029087189505,104-320 WEST CREEK DR,CHESTERMERE,403-454-0020,,Calgary
469,ANDERSON DRUG BY FRESON BROS HINTON HILL,covid_vaccination_centres,-117.611764714769,53.39230563322,632 CARMICHAEL LANE,HINTON,780-865-7455,,Calgary
470,PHARMASAVE #390,covid_vaccination_centres,-112.857593801796,53.018684094708,1010-6708 48 AVE,CAMROSE,780-672-4460,,Calgary
471,SHOPPERS DRUG MART #2478,covid_vaccination_centres,-113.41615946796,53.588015784955,12745 50 ST NW,EDMONTON,780-478-3319,https://www1.shoppersdrugmart.ca/en/health-and-pharmacy/covid-19?ShortURL=covid,Calgary
472,COSTCO WHOLESALE PHARMACY #160,covid_vaccination_centres,-112.795683228565,49.660214359116,3200 MAYOR MAGRATH DR S,LETHBRIDGE,403-381-8093,https://www.costcopharmacy.ca/appointment,Calgary
473,HEALTH SQUARE PHARMACY,covid_vaccination_centres,-113.535640272437,53.558900421229,11045 124 ST NW,EDMONTON,780-758-4990,,Calgary
474,SKELTON'S PHARMACY (1983),covid_vaccination_centres,-112.810836401746,49.694063242394,424 MAYOR MAGRATH DR,LETHBRIDGE,403-328-3565,,Calgary
475,REXALL #7236,covid_vaccination_centres,-113.466474122441,53.629483950932,16703 82 ST NW,EDMONTON,780-476-3168,https://www.rexall.ca/covid-19/alberta-vaccine,Calgary
476,REXALL #7234,covid_vaccination_centres,-113.311627598326,53.511368980682,11-301 WYE RD,SHERWOOD PARK,780-449-1493,https://www.rexall.ca/covid-19/alberta-vaccine,Calgary
477,ICARE PHARMACY WINDERMERE,covid_vaccination_centres,-113.590951899424,53.429063260841,101-3514 ALLAN DR SW,EDMONTON,780-705-8871,https://www.icarepharmacy.ca,Calgary
478,SHOPPERS DRUG MART #359,covid_vaccination_centres,-113.984872617049,51.074614564123,135-2525 36 ST NE,CALGARY,403-280-6667,https://www1.shoppersdrugmart.ca/en/health-and-pharmacy/covid-19?ShortURL=covid,Calgary
479,TAMARACK PHARMACY & TRAVEL CLINIC,covid_vaccination_centres,-111.37102524203,56.724779316581,308-9612 FRANKLIN AVE,FORT MCMURRAY,780-750-1200,,Calgary
480,SAFEWAY PHARMACY #8900,covid_vaccination_centres,-113.673573981072,53.510602104133,2534 GUARDIAN RD NW,EDMONTON,780-490-5498,https://www.safeway.ca/vaccine-registration/,Calgary
481,SHOPPERS DRUG MART #2314,covid_vaccination_centres,-112.893461354526,49.695489639789,380 UNIVERSITY DR,LETHBRIDGE,403-380-3057,https://www1.shoppersdrugmart.ca/en/health-and-pharmacy/covid-19?ShortURL=covid,Calgary
482,MEDICINE POINT PHARMACY,covid_vaccination_centres,-113.415399278476,53.622925612319,102-5016 162 AVE NW,EDMONTON,780-250-0811,https://medicinepointpch.medmeapp.ca/schedule,Calgary
483,SHOPPERS DRUG MART #2360,covid_vaccination_centres,-114.023571694619,51.293364907035,836 1 AVE NW,AIRDRIE,403-945-8138,https://www1.shoppersdrugmart.ca/en/health-and-pharmacy/covid-19?ShortURL=covid,Calgary
484,JASPER PHARMACY,covid_vaccination_centres,-113.51451373011,53.5408021681,11217 JASPER AVE NW,EDMONTON,587-523-8600,https://www.bookmyshot.com/covidshot/5875238600,Calgary
485,THRIFTWAY PHARMACY,covid_vaccination_centres,-112.824471630581,49.709561779935,702 13 ST N,LETHBRIDGE,403-327-0340,,Calgary
486,EVERGREEN CO-OP PHARMACY,covid_vaccination_centres,-114.907330457121,52.367723606342,4327 45 ST,ROCKY MOUNTAIN HOUSE,403-845-2841,,Calgary
487,SAFEWAY PHARMACY #8842,covid_vaccination_centres,-114.096817355996,50.973541071276,1600 90 AVE SW,CALGARY,403-255-3988,https://www.safeway.ca/vaccine-registration/,Calgary
488,EMERALD HILLS PHARMASAVE,covid_vaccination_centres,-113.274037045453,53.56613844433,815-8005 EMERALD DR,SHERWOOD PARK,780-570-0711,https://emeraldhillspharmasave.medmeapp.ca/schedule,Calgary
489,MINT HEALTH + DRUGS PEACE RIVER,covid_vaccination_centres,-117.288987859343,56.233807425305,10013 100 AVE,PEACE RIVER,780-624-1200,https://www.mintdrugs.com,Calgary
490,RADIANCE PHARMACY,covid_vaccination_centres,-114.073710233652,50.964301398011,100-10201 SOUTHPORT RD SW,CALGARY,403-457-3264,,Calgary
491,WAL-MART PHARMACY #1148,covid_vaccination_centres,-113.553375602775,53.563227036211,WESTMOUNT SHOPPING CENTRE,EDMONTON,780-454-5788,https://portal.healthmyself.net/walmartab/forms/a66,Calgary
492,STETTLER IDA PHARMACY,covid_vaccination_centres,-112.70571464585,52.325783794544,4934 50 ST,STETTLER,403-743-0383,,Calgary
493,FRESHCO PHARMACY #4292,covid_vaccination_centres,-113.367644028259,53.454826494149,2355 17 ST NW,EDMONTON,780-395-2702,https://www.pharmacyappointments.ca,Calgary
494,REXALL #7227,covid_vaccination_centres,-113.906999668615,53.544990038648,108-505 QUEEN ST,SPRUCE GROVE,780-962-2757,https://www.rexall.ca/covid-19/alberta-vaccine,Calgary
495,RIVERSIDE RXELLENCE,covid_vaccination_centres,-112.705077168029,51.466019348301,180 RIVERSIDE DR E,DRUMHELLER,587-795-9712,,Calgary
496,WAL-MART PHARMACY #3075,covid_vaccination_centres,-113.810753840668,52.286721116134,PARKLAND MALL SHOPPING CENTRE,RED DEER,403-347-1123,https://portal.healthmyself.net/walmartab/forms/a66,Calgary
497,HAZELDEAN DRUG MART,covid_vaccination_centres,-113.477198472439,53.502815139054,9611 66 AVE NW,EDMONTON,780-435-4640,https://www.hazeldeandrugmart.ca,Calgary
498,CALGARY DRUG MART,covid_vaccination_centres,-114.130868541809,51.006748848528,E13-10 RICHARD WAY SW,CALGARY,403-984-9334,http://calgarydrugmart.com/,Calgary
499,MEDICINE SHOPPE PHARMACY 346,covid_vaccination_centres,-113.418568830608,53.609177565097,14606 50 ST NW,EDMONTON,780-472-2822,https://www.medicineshoppe.ca/en/alberta/edmonton/the-medicine-shoppe-pharmacy-346-7015152,Calgary
500,SAVE-ON-FOODS PHARMACY #6675,covid_vaccination_centres,-113.631704717299,53.661846229353,740 ST. ALBERT RD,ST ALBERT,780-419-2815,https://saveonfoodspharmacy.medmeapp.com/schedule/,Calgary
501,SAVE-ON-FOODS PHARMACY #6678,covid_vaccination_centres,-113.315947995863,53.543548461199,60 BROADWAY BLVD,SHERWOOD PARK,780-449-7255,https://saveonfoodspharmacy.medmeapp.com/schedule/,Calgary
502,LOBLAW PHARMACY #4904,covid_vaccination_centres,-113.289930643709,54.722062089776,5007 52 ST,ATHABASCA,780-675-8410,https://www.yourindependentgrocer.ca/covid19,Calgary
503,SANDSTONE PHARMACIES CARRY DRIVE,covid_vaccination_centres,-110.642394836152,50.008315401826,139 116 CARRY DR SE,MEDICINE HAT,403-528-2111,,Calgary
504,PHARMASAVE #369,covid_vaccination_centres,-112.83990622592,49.695157422583,319 5 ST S,LETHBRIDGE,403-327-3279,,Calgary
505,PINE PLAZA IDA PHARMACY,covid_vaccination_centres,-113.812187526578,52.291855450387,5-6791 50 AVE,RED DEER,403-343-2234,https://pineplazaida.medmeapp.ca/schedule,Calgary
506,SMOKY LAKE PHARMACHOICE,covid_vaccination_centres,-112.473508186282,54.113013030132,134 WHITE EARTH ST,SMOKY LAKE,780-656-8542,,Calgary
507,SUPER MARK DRUGS,covid_vaccination_centres,-113.473827501639,53.552883951333,130-8930 JASPER AVE NW,EDMONTON,780-429-3784,,Calgary
508,CAREWELL PHARMACY,covid_vaccination_centres,-114.048036303387,50.96475359078,104-580 ACADIA DR SE,CALGARY,587-318-7150,,Calgary
509,SAVE-ON-FOODS PHARMACY #6662,covid_vaccination_centres,-113.4962314234,53.514825650236,10368 78 AVE NW,EDMONTON,780-430-6156,https://saveonfoodspharmacy.medmeapp.com/schedule/,Calgary
510,SHANE'S GUARDIAN PHARMACY,covid_vaccination_centres,-113.10892834003,53.951502938611,4926 49 ST,REDWATER,780-942-3615,,Calgary
511,ARX PHARMACY & HOMECARE,covid_vaccination_centres,-113.443384843602,53.503211974723,6730 75 ST NW,EDMONTON,780-761-7575,https://bookyourvisit.ca/arx,Calgary
512,SHOPPERS DRUG MART #337,covid_vaccination_centres,-111.428805909834,56.733032364631,190-121 SIGNAL RD,FORT MCMURRAY,780-743-4662,https://www1.shoppersdrugmart.ca/en/health-and-pharmacy/covid-19?ShortURL=covid,Calgary
513,INGLEWOOD PHARMACY,covid_vaccination_centres,-113.536120014765,53.570675131345,11802 124 ST NW,EDMONTON,780-732-0117,,Calgary
514,FIRESIDE PHARMACY,covid_vaccination_centres,-114.473297374346,51.159377467607,5102-50 FIRESIDE GATE,COCHRANE,403-981-1500,https://www.firesidepharmacy.ca,Calgary
515,GIBBONS GUARDIAN PHARMACY,covid_vaccination_centres,-113.325808814759,53.827862961644,4715 50 AVE,GIBBONS,780-923-3200,https://gibbonsguardian.medmeapp.ca/schedule,Calgary
516,SOBEYS PHARMACY #1117,covid_vaccination_centres,-114.113551257537,50.905483554714,100-2335 162 AVE SW,CALGARY,403-873-7232,https://www.safeway.ca/vaccine-registration/,Calgary
517,FUTURE DRUG MART,covid_vaccination_centres,-113.956830305896,51.086240904017,104-5401 TEMPLE DR NE,CALGARY,403-293-6200,,Calgary
518,SAVANNA BAZAAR PHARMACY,covid_vaccination_centres,-113.950027345284,51.132954292508,8120-5850 88 AVE NE,CALGARY,403-590-9749,https://travelcliniccalgary.ca/covid19-vaccine/,Calgary
519,CATALYST PHARMACY,covid_vaccination_centres,-111.2974960861,53.991193054743,5009 50 AVE,ST PAUL,780-614-3210,https://pharmaconnect.ca/appointment/64e72053-a93a-4de2-8fc8-6d3ccc2e467b,Calgary
520,GLENRIDDING PHARMACY,covid_vaccination_centres,-113.60110310811,53.415163958803,2047 163 ST SW,EDMONTON,780-343-1313,,Calgary
521,WAINWRIGHT PHARMACY,covid_vaccination_centres,-110.858750875141,52.835820600017,418 10 ST,WAINWRIGHT,780-806-4340,,Calgary
522,PHARMASAVE #344,covid_vaccination_centres,-113.443712617121,53.424144960592,6819 ELLERSLIE RD SW,EDMONTON,780-757-6855,https://www.summersidepharmasave.ca,Calgary
523,CO-OP PHARMACY FORT SASKATCHEWAN,covid_vaccination_centres,-113.21589844378,53.709845433719,10004 99 AVE,FORT SASKATCHEWAN,780-998-5429,http://northcentralco-op.crs/sites/northcentral/pharmacy/detail/co-op-pharma,Calgary
524,LONG'S VALUE DRUG MART,covid_vaccination_centres,-110.852240659453,53.353872930437,4939 50 AVE,VERMILION,780-853-5316,,Calgary
525,PEMBINA WEST CO-OP PHARMACY,covid_vaccination_centres,-114.400358863315,54.115783386631,4705 49 ST,BARRHEAD,780-674-2201,,Calgary
526,PHARMASAVE MAINA CENTRE VILLE,covid_vaccination_centres,-113.415465448375,53.35285865589,104-5010 50 ST,BEAUMONT,587-855-8468,https://pharmasavebeaumont.medmeapp.com/schedule/,Calgary
527,SAFEWAY PHARMACY #8854,covid_vaccination_centres,-112.794206575618,49.666428140908,2750 FAIRWAY PLAZA RD S,LETHBRIDGE,403-328-0330,https://www.safeway.ca/vaccine-registration/,Calgary
528,WINDERMERE PHARMACY,covid_vaccination_centres,-113.617243521717,53.440056584649,5544 WINDERMERE BLVD NW,EDMONTON,780-989-4001,,Calgary
529,IDA CRYSTALRIDGE PHARMACY,covid_vaccination_centres,-113.95659800134,50.723779963686,106-26 CRYSTALRIDGE DR,OKOTOKS,403-982-0029,https://ida-okotoks.business.site/,Calgary
530,CALGARY CO-OP PHARMACY #9,covid_vaccination_centres,-113.956077298152,51.075062043361,2520 52 ST NE,CALGARY,403-299-5322,https://www.calgarycoop.com/covid19vaccination,Calgary
531,CALGARY DRUG MART #03,covid_vaccination_centres,,,3130-11 ROYAL VISTA DR NW,CALGARY,587-391-8119,,Calgary
532,SAVE-ON-FOODS PHARMACY #6686,covid_vaccination_centres,-113.769020207539,52.238943820021,3020 22 ST,RED DEER,403-309-0520,https://saveonfoodspharmacy.medmeapp.com/schedule/,Calgary
533,BRUDERHEIM PHARMACY,covid_vaccination_centres,-112.928569443595,53.80040301869,4901 QUEEN ST,BRUDERHEIM,780-575-3000,https://pharmaconnect.ca/appointment/3d67d43f-ab3d-4323-8ae8-9caea14dab0f,Calgary
534,FORME PHARMACY BRIDGELAND,covid_vaccination_centres,-114.055269294652,51.057272517786,103-736 1 AVE NE,CALGARY,403-930-7905,,Calgary
535,OAKRIDGE COMMUNITY PHARMACY REMEDY'S RX,covid_vaccination_centres,-114.130941130261,50.970277924731,5-3109 PALLISER DR SW,CALGARY,403-457-4548,,Calgary
536,PHARMASAVE #304,covid_vaccination_centres,-110.786241403893,50.076899786139,114 BROADWAY AVE E,REDCLIFF,403-548-3838,,Calgary
537,PHARMASAVE TURNER VALLEY,covid_vaccination_centres,-114.277583401119,50.674026323089,2-101 SUNSET BLVD,TURNER VALLEY,403-933-2682,https://pharmasave.com/turner-valley/covid-vaccinations/,Calgary
538,SAFEWAY PHARMACY #8801,covid_vaccination_centres,-110.647086166464,50.004010679999,139-3292 DUNMORE RD SE,MEDICINE HAT,403-526-7778,https://www.safeway.ca/vaccine-registration/,Calgary
539,SAFEWAY PHARMACY #8896,covid_vaccination_centres,-111.902621932717,50.572832815082,550 CASSILS RD W,BROOKS,403-793-2216,https://www.safeway.ca/vaccine-registration/,Calgary
540,WAL-MART PHARMACY #1030,covid_vaccination_centres,-114.7883262746,55.272720842578,601 1500 MAIN ST SW,SLAVE LAKE,780-849-9549,https://portal.healthmyself.net/walmartab/forms/a66,Calgary
541,MARTINDALE PHARMACY,covid_vaccination_centres,-113.952233744196,51.11442674022,101-126 MARTINDALE DR NE,CALGARY,403-454-2100,,Calgary
542,REXALL #7213,covid_vaccination_centres,-114.105067433815,51.791355007711,5015 50 AVE,OLDS,403-556-3346,https://www.rexall.ca/covid-19/alberta-vaccine,Calgary
543,IDA IN GRIESBACH PHARMACY,covid_vaccination_centres,-113.515483016616,53.607232217317,7-6881 AD ASTRA BLVD NW,EDMONTON,780-540-8585,https://pharmaconnect.ca/appointment/d1f8cb8d-1472-45cd-8c83-1037e2e01897,Calgary
544,SAFEWAY PHARMACY #8863,covid_vaccination_centres,-113.624152796411,53.645248457355,395 ST. ALBERT RD,ST ALBERT,780-460-2642,https://www.safeway.ca/vaccine-registration/,Calgary
545,PANORAMA HILLS PHARMACY,covid_vaccination_centres,-114.071234203867,51.165477179804,28 PANATELLA BLVD NW,CALGARY,403-460-6707,https://app.diemhealth.ca/auth/login,Calgary
546,SHOPPERS DRUG MART #379,covid_vaccination_centres,-113.611413703691,53.62126401865,570-140 ST. ALBERT TR,ST ALBERT,780-460-9222,https://www1.shoppersdrugmart.ca/en/health-and-pharmacy/covid-19?ShortURL=covid,Calgary
547,ANDERSON DRUG BY FRESON BROS DRUMHELLER,covid_vaccination_centres,-112.707930885979,51.459615536137,101 6 AVE SE,DRUMHELLER,403-823-2670,,Calgary
548,SADDLEBACK PHARMACY,covid_vaccination_centres,-113.530685630477,53.460211337205,362 SADDLEBACK RD NW,EDMONTON,780-250-5554,,Calgary
549,BRETON IDA,covid_vaccination_centres,-114.47327973012,53.109721548711,5031 50 AVE,BRETON,780-696-3594,,Calgary
550,TEMPLE MEDICAL CLINIC PHARMACY,covid_vaccination_centres,-113.95698543239,51.085143024829,108-5401 TEMPLE DR NE,CALGARY,403-460-0303,,Calgary
551,SPROULES MOUNTVIEW IDA,covid_vaccination_centres,-113.795648289797,52.259370855902,3757 43 AVE,RED DEER,403-347-2345,,Calgary
552,RIMBEY PHARMASAVE #375,covid_vaccination_centres,-114.236761554756,52.63990799537,4934 50 AVE,RIMBEY,403-843-3714,,Calgary
553,SHOPPERS DRUG MART #2403,covid_vaccination_centres,-113.945173030542,51.126037350122,101-600 SADDLETOWNE CIR NE,CALGARY,403-568-7143,https://www1.shoppersdrugmart.ca/en/health-and-pharmacy/covid-19?ShortURL=covid,Calgary
554,GRASSROOTS PHARMACY,covid_vaccination_centres,-115.350858443659,51.091795419649,103A-1205 BOW VALLEY TR,CANMORE,403-609-4100,https://www.grassrootspharmacy.ca,Calgary
555,APOLLO CLINICAL PHARMACY,covid_vaccination_centres,-113.442222844249,53.633740693297,6570 170 AVE NW,EDMONTON,780-476-4747,https://www.apollopharmacy.ca,Calgary
556,MEDICARE PHARMACY,covid_vaccination_centres,-114.07286481536,51.141783313632,103-70 COUNTRY HILLS LANDNG NW,CALGARY,587-356-3790,,Calgary
557,SHOPPERS DRUG MART #1248,covid_vaccination_centres,-111.2607725563,53.991049648139,4901 39 ST,ST PAUL,780-645-3063,https://www1.shoppersdrugmart.ca/en/health-and-pharmacy/covid-19?ShortURL=covid,Calgary
558,PRIMECARE PHARMACY,covid_vaccination_centres,-113.620795400559,53.440006691622,5594 WINDERMERE BLVD NW,EDMONTON,780-435-3030,https://primecare.medmeapp.ca/pharmacist/dashboard,Calgary
559,KAI HEALTH (WESTMOUNT PHARMACY),covid_vaccination_centres,-113.550648630109,53.558724865549,11035 GROAT RD NW,EDMONTON,780-705-9045,,Calgary
560,MY DAY PHARMACY,covid_vaccination_centres,-114.000714473125,53.528926283076,105-5101 48 ST,STONY PLAIN,780-968-1100,,Calgary
561,LOBLAW PHARMACY #1576,covid_vaccination_centres,-113.98435196546,51.070083183993,3575 20 AVE NE,CALGARY,403-280-8207,https://www.realcanadiansuperstore.ca/covid19,Calgary
562,MEDILINK REMEDY'S RX PHARMACY,covid_vaccination_centres,-114.059084644201,50.964513956703,120-9825 FAIRMOUNT DR SE,CALGARY,403-455-5562,https://www.remedys.ca/en/alberta/calgary/medilink-pharmacy-7036630,Calgary
563,QURELY PHARMACY,covid_vaccination_centres,-113.565880805049,53.410051292101,14119 28 AVE SW,EDMONTON,780-652-1836,https://www.rx.qurely.ca,Calgary
564,STONY PLAIN WELLNESS & COMPOUNDING PHARMACY,covid_vaccination_centres,-114.001065815134,53.529320413864,106-5013 48 ST,STONY PLAIN,780-968-2433,,Calgary
565,SHOPPERS DRUG MART #2392,covid_vaccination_centres,-113.836559155653,52.28336623909,2A-6315 HORN ST,RED DEER,403-341-4166,https://www1.shoppersdrugmart.ca/en/health-and-pharmacy/covid-19?ShortURL=covid,Calgary
566,LOBLAW PHARMACY #1567,covid_vaccination_centres,-113.293259759081,53.542542988711,100-410 BASELINE RD,SHERWOOD PARK,780-417-5235,https://www.realcanadiansuperstore.ca/covid19,Calgary
567,CALGARY DRUG MART #04,covid_vaccination_centres,-113.962033301534,51.086384104913,4-5008 WHITEHORN DR NE,CALGARY,587-356-0600,,Calgary
568,WAL-MART PHARMACY #1046,covid_vaccination_centres,-112.127864872908,49.783134520131,4500 64 ST,TABER,403-223-1349,https://portal.healthmyself.net/walmartab/forms/a66,Calgary
569,SHOPPERS DRUG MART #2471,covid_vaccination_centres,-110.853408216986,53.353800277599,5009 50 AVE,VERMILION,780-853-5672,https://www1.shoppersdrugmart.ca/en/health-and-pharmacy/covid-19?ShortURL=covid,Calgary
570,PHARMEDIC PHARMACY #3,covid_vaccination_centres,-114.060648912617,51.116179740146,6558 4 ST NE,CALGARY,403-888-0551,https://www.pharmedicpharmacy.com,Calgary
571,PHARMASAVE 3021 SILVER SPRINGS PHARMACY,covid_vaccination_centres,-114.188749212521,51.106124059815,1-5720 SILVER SPRINGS BLVD NW,CALGARY,403-453-5251,,Calgary
572,SHOPPERS DRUG MART #2308,covid_vaccination_centres,-113.827300734554,51.048058597757,300-196 CHESTERMERE STN WAY,CHESTERMERE,403-207-1875,https://www1.shoppersdrugmart.ca/en/health-and-pharmacy/covid-19?ShortURL=covid,Calgary
573,SHOPPERS DRUG MART #321,covid_vaccination_centres,-114.16847980171,51.014435473624,216 STEWART GREEN SW,CALGARY,403-249-5518,https://www1.shoppersdrugmart.ca/en/health-and-pharmacy/covid-19?ShortURL=covid,Calgary
574,POLARIS TRAVEL CLINIC AND PHARMACY,covid_vaccination_centres,-114.019614655438,51.291674038567,404-191 EDWARDS WAY SW,AIRDRIE,403-980-8747,https://www.polaristravelclinic.ca,Calgary
575,ACECARE PHARMACY & HOME HEALTH,covid_vaccination_centres,-111.897777421886,50.572581487733,A1-312 CASSILS RD W,BROOKS,587-270-3397,,Calgary
576,VILNA PHARMACY,covid_vaccination_centres,-111.921197643953,54.116055474241,5012 50 ST,VILNA,780-636-3550,,Calgary
577,RX DRUG MART #2019,covid_vaccination_centres,-118.081863895927,52.875759886907,602 PATRICIA ST,JASPER,780-852-4441,,Calgary
578,CENTURY PHARMACY,covid_vaccination_centres,-113.492015387963,53.558290277694,11031 97 ST,EDMONTON,780-423-1325,,Calgary
579,COSTCO PHARMACY #164,covid_vaccination_centres,-113.819475443828,52.213214999403,162 LEVA AVE,RED DEER,403-347-1396,https://www.costcopharmacy.ca/appointment,Calgary
580,ROSS ST IDA PHARMACY,covid_vaccination_centres,-113.809447559663,52.269290290408,4814A 50 ST,RED DEER,403-340-1800,,Calgary
581,SAFEWAY PHARMACY #8990,covid_vaccination_centres,-114.141223338804,51.020846207719,3737 37 ST SW,CALGARY,403-698-8228,https://www.safeway.ca/vaccine-registration/,Calgary
582,MEDICINE SHOPPE PHARMACY 161,covid_vaccination_centres,-112.053532136722,53.494493997204,4910 50 ST,VEGREVILLE,780-632-6337,https://www.medicineshoppe.ca/en/alberta/vegreville/the-medicine-shoppe-pharmacy-161-7051301,Calgary
